{
  "departement": "50",
  "date": "2026-05-04",
  "stations": [
    {
      "id": "50260003",
      "lat": 49.468,
      "lon": -1.64,
      "cp": "50260",
      "ville": "Bricquebec",
      "prix": {
        "Gazole": 0.002179,
        "E10": 0.0019850000000000002,
        "SP98": 0.002076
      },
      "maj_gouv": {
        "Gazole": "2026-04-29 09:03:32",
        "E10": "2026-04-27 17:06:16",
        "SP98": "2026-04-29 09:03:32"
      }
    },
    {
      "id": "50760001",
      "lat": 49.666,
      "lon": -1.27,
      "cp": "50760",
      "ville": "Barfleur",
      "prix": {
        "Gazole": 0.002196,
        "SP95": 0.002089,
        "E10": 0.002049
      },
      "maj_gouv": {
        "Gazole": "2026-05-01 06:16:42",
        "SP95": "2026-05-01 06:16:43",
        "E10": "2026-05-01 06:16:43"
      }
    },
    {
      "id": "50480001",
      "lat": 49.38,
      "lon": -1.296,
      "cp": "50480",
      "ville": "BLOSVILLE",
      "prix": {
        "Gazole": 0.00209,
        "E85": 0.000884,
        "E10": 0.00199,
        "SP98": 0.00199
      },
      "maj_gouv": {
        "Gazole": "2026-05-01 10:33:48",
        "E85": "2026-04-29 18:24:22",
        "E10": "2026-04-24 19:33:59",
        "SP98": "2026-04-24 19:33:59"
      }
    },
    {
      "id": "50500003",
      "lat": 49.302,
      "lon": -1.231,
      "cp": "50500",
      "ville": "CARENTAN",
      "prix": {
        "Gazole": 0.002189,
        "SP95": 0.001999,
        "SP98": 0.002049
      },
      "maj_gouv": {
        "Gazole": "2026-04-30 15:33:17",
        "SP95": "2026-04-09 11:06:10",
        "SP98": "2026-04-16 17:40:30"
      }
    },
    {
      "id": "50800004",
      "lat": 48.816,
      "lon": -1.29,
      "cp": "50800",
      "ville": "La Lande-d'Airou",
      "prix": {
        "Gazole": 0.002189,
        "E85": 0.000816,
        "E10": 0.0019790000000000003
      },
      "maj_gouv": {
        "Gazole": "2026-04-16 18:12:04",
        "E85": "2026-03-07 12:02:43",
        "E10": "2026-04-16 18:12:04"
      }
    },
    {
      "id": "50600002",
      "lat": 48.588,
      "lon": -1.087,
      "cp": "50600",
      "ville": "PARIGNY",
      "prix": {
        "Gazole": 0.002199,
        "SP95": 0.002099,
        "SP98": 0.002229
      },
      "maj_gouv": {
        "Gazole": "2026-04-19 08:43:33",
        "SP95": "2026-04-30 10:52:04",
        "SP98": "2026-04-30 10:52:04"
      }
    },
    {
      "id": "50380003",
      "lat": 48.814,
      "lon": -1.544,
      "cp": "50380",
      "ville": "Saint-Pair-sur-Mer",
      "prix": {
        "Gazole": 0.00214,
        "GPLc": 0.000999,
        "E10": 0.001961,
        "SP98": 0.002055
      },
      "maj_gouv": {
        "Gazole": "2026-05-02 09:44:35",
        "GPLc": "2026-03-31 11:16:07",
        "E10": "2026-05-02 09:44:35",
        "SP98": "2026-04-29 11:30:54"
      }
    },
    {
      "id": "50370002",
      "lat": 48.7224184794,
      "lon": -1.1670461921800002,
      "cp": "50370",
      "ville": "BRéCEY",
      "prix": {
        "Gazole": 0.002189,
        "E85": 0.000799,
        "E10": 0.002019,
        "SP98": 0.002109
      },
      "maj_gouv": {
        "Gazole": "2026-05-02 08:57:16",
        "E85": "2026-03-20 15:51:41",
        "E10": "2026-05-02 08:57:16",
        "SP98": "2026-04-30 08:23:36"
      }
    },
    {
      "id": "50700003",
      "lat": 49.497028507626,
      "lon": -1.4667011594827999,
      "cp": "50700",
      "ville": "VALOGNES",
      "prix": {
        "Gazole": 0.0022530000000000002,
        "E85": 0.0008179999999999999,
        "E10": 0.00207,
        "SP98": 0.002164
      },
      "maj_gouv": {
        "Gazole": "2026-05-02 07:20:24",
        "E85": "2026-05-02 07:20:24",
        "E10": "2026-05-02 07:20:24",
        "SP98": "2026-05-02 07:20:24"
      }
    },
    {
      "id": "50800003",
      "lat": 48.835,
      "lon": -1.219,
      "cp": "50800",
      "ville": "VILLEDIEU-LES-POêLES",
      "prix": {
        "Gazole": 0.0022400000000000002,
        "SP95": 0.00207,
        "SP98": 0.00217
      },
      "maj_gouv": {
        "Gazole": "2026-04-30 10:52:35",
        "SP95": "2026-04-10 19:00:00",
        "SP98": "2026-04-21 19:03:29"
      }
    },
    {
      "id": "50180001",
      "lat": 49.108,
      "lon": -1.134,
      "cp": "50180",
      "ville": "Agneaux",
      "prix": {
        "Gazole": 0.0021680000000000002,
        "E85": 0.000808,
        "E10": 0.001988,
        "SP98": 0.002055
      },
      "maj_gouv": {
        "Gazole": "2026-05-04 01:17:00",
        "E85": "2026-05-04 01:17:00",
        "E10": "2026-05-04 01:17:00",
        "SP98": "2026-05-04 01:17:00"
      }
    },
    {
      "id": "50540001",
      "lat": 48.601,
      "lon": -1.202,
      "cp": "50540",
      "ville": "Isigny-le-Buat",
      "prix": {
        "Gazole": 0.00225,
        "SP98": 0.00199
      },
      "maj_gouv": {
        "Gazole": "2026-04-08 08:59:14",
        "SP98": "2026-04-08 08:59:14"
      }
    },
    {
      "id": "50110006",
      "lat": 49.65345914847799,
      "lon": -1.5493246887909,
      "cp": "50110",
      "ville": "DIGOSVILLE",
      "prix": {
        "Gazole": 0.00216,
        "SP95": 0.0020299999999999997,
        "SP98": 0.00211
      },
      "maj_gouv": {
        "Gazole": "2026-04-30 18:27:55",
        "SP95": "2026-04-30 18:27:55",
        "SP98": "2026-04-30 18:27:55"
      }
    },
    {
      "id": "50330003",
      "lat": 49.66026,
      "lon": -1.4114,
      "cp": "50330",
      "ville": "Saint-Pierre-Église",
      "prix": {
        "Gazole": 0.002189,
        "SP95": 0.002063,
        "SP98": 0.0021469999999999996
      },
      "maj_gouv": {
        "Gazole": "2026-04-30 12:48:36",
        "SP95": "2026-04-30 12:48:37",
        "SP98": "2026-04-30 12:48:37"
      }
    },
    {
      "id": "50290003",
      "lat": 48.902,
      "lon": -1.514,
      "cp": "50290",
      "ville": "BREHAL",
      "prix": {
        "Gazole": 0.002179,
        "SP95": 0.002079,
        "E85": 0.0007289999999999999,
        "SP98": 0.002129
      },
      "maj_gouv": {
        "Gazole": "2026-05-02 09:35:50",
        "SP95": "2026-05-02 09:35:50",
        "E85": "2026-04-27 10:17:52",
        "SP98": "2026-05-02 09:35:50"
      }
    },
    {
      "id": "50160003",
      "lat": 49.04798,
      "lon": -0.99375,
      "cp": "50160",
      "ville": "Saint-Amand",
      "prix": {
        "Gazole": 0.00225,
        "SP95": 0.00199
      },
      "maj_gouv": {
        "Gazole": "2026-04-08 08:20:47",
        "SP95": "2026-03-05 09:04:47"
      }
    },
    {
      "id": "50190002",
      "lat": 49.188,
      "lon": -1.416,
      "cp": "50190",
      "ville": "PERIERS",
      "prix": {
        "Gazole": 0.00209,
        "E10": 0.00199
      },
      "maj_gouv": {
        "Gazole": "2026-05-01 07:40:01",
        "E10": "2026-04-21 07:00:00"
      }
    },
    {
      "id": "50240003",
      "lat": 48.58491,
      "lon": -1.32638,
      "cp": "50240",
      "ville": "Saint-Aubin-de-Terregatte",
      "prix": {
        "Gazole": 0.00209,
        "E85": 0.000999,
        "GPLc": 0.001149,
        "E10": 0.00199,
        "SP98": 0.00199
      },
      "maj_gouv": {
        "Gazole": "2026-05-03 09:00:00",
        "E85": "2026-05-03 09:00:00",
        "GPLc": "2026-05-03 09:00:00",
        "E10": "2026-05-03 09:00:00",
        "SP98": "2026-05-03 09:00:00"
      }
    },
    {
      "id": "50570002",
      "lat": 49.09916,
      "lon": -1.24241,
      "cp": "50570",
      "ville": "MARIGNY",
      "prix": {
        "Gazole": 0.002159,
        "SP95": 0.002049,
        "SP98": 0.0021190000000000002
      },
      "maj_gouv": {
        "Gazole": "2026-04-30 08:53:16",
        "SP95": "2026-04-30 08:53:16",
        "SP98": "2026-04-30 08:53:16"
      }
    },
    {
      "id": "50240001",
      "lat": 48.521,
      "lon": -1.339,
      "cp": "50240",
      "ville": "Saint-James",
      "prix": {
        "Gazole": 0.002139,
        "E85": 0.000759,
        "E10": 0.001949,
        "SP98": 0.002019
      },
      "maj_gouv": {
        "Gazole": "2026-04-28 12:11:03",
        "E85": "2026-04-22 11:03:14",
        "E10": "2026-04-22 11:03:14",
        "SP98": "2026-04-22 11:03:14"
      }
    },
    {
      "id": "50200005",
      "lat": 49.062,
      "lon": -1.437,
      "cp": "50200",
      "ville": "Coutances",
      "prix": {
        "Gazole": 0.002175,
        "E85": 0.000819,
        "GPLc": 0.00101,
        "E10": 0.001999,
        "SP98": 0.002069
      },
      "maj_gouv": {
        "Gazole": "2026-04-30 09:41:36",
        "E85": "2026-04-20 10:38:52",
        "GPLc": "2026-01-30 09:02:15",
        "E10": "2026-04-30 09:41:36",
        "SP98": "2026-04-28 09:34:17"
      }
    },
    {
      "id": "50300004",
      "lat": 48.68647,
      "lon": -1.36356,
      "cp": "50300",
      "ville": "AVRANCHES",
      "prix": {
        "Gazole": 0.0022,
        "E10": 0.00204
      },
      "maj_gouv": {
        "Gazole": "2026-04-24 08:58:45",
        "E10": "2026-04-24 08:58:45"
      }
    },
    {
      "id": "50420002",
      "lat": 48.97,
      "lon": -1.059,
      "cp": "50420",
      "ville": "Tessy-sur-Vire",
      "prix": {
        "Gazole": 0.002189,
        "SP95": 0.002029
      },
      "maj_gouv": {
        "Gazole": "2026-04-30 10:36:39",
        "SP95": "2026-04-30 10:36:39"
      }
    },
    {
      "id": "50510001",
      "lat": 48.91326,
      "lon": -1.4412119039100002,
      "cp": "50510",
      "ville": "CéRENCES",
      "prix": {
        "Gazole": 0.002179,
        "SP95": 0.002079,
        "E10": 0.002019,
        "SP98": 0.002129
      },
      "maj_gouv": {
        "Gazole": "2026-04-30 14:08:44",
        "SP95": "2026-04-30 14:08:44",
        "E10": "2026-04-30 14:08:44",
        "SP98": "2026-04-30 14:08:45"
      }
    },
    {
      "id": "50520001",
      "lat": 48.678,
      "lon": -1.028,
      "cp": "50520",
      "ville": "JUVIGNY-LES-VALLEES",
      "prix": {
        "Gazole": 0.002199,
        "SP95": 0.001986
      },
      "maj_gouv": {
        "Gazole": "2026-04-26 09:52:04",
        "SP95": "2026-04-16 16:07:49"
      }
    },
    {
      "id": "50560002",
      "lat": 49.097,
      "lon": -1.585,
      "cp": "50560",
      "ville": "Gouville-sur-Mer",
      "prix": {
        "Gazole": 0.00226,
        "SP95": 0.0020499999999999997,
        "E10": 0.002019
      },
      "maj_gouv": {
        "Gazole": "2026-05-03 09:41:34",
        "SP95": "2026-05-03 09:41:34",
        "E10": "2026-05-03 09:41:34"
      }
    },
    {
      "id": "50600003",
      "lat": 48.576,
      "lon": -1.088,
      "cp": "50600",
      "ville": "SAINT-HILAIRE-DU-HARCOUëT",
      "prix": {
        "Gazole": 0.00225,
        "SP95": 0.00199,
        "SP98": 0.00199
      },
      "maj_gouv": {
        "Gazole": "2026-04-08 08:11:36",
        "SP95": "2026-04-08 08:11:36",
        "SP98": "2026-04-08 08:11:36"
      }
    },
    {
      "id": "50360003",
      "lat": 49.381,
      "lon": -1.415,
      "cp": "50360",
      "ville": "Picauville",
      "prix": {
        "Gazole": 0.002169,
        "SP95": 0.0020499999999999997
      },
      "maj_gouv": {
        "Gazole": "2026-04-20 10:19:59",
        "SP95": "2026-04-20 10:19:59"
      }
    },
    {
      "id": "50000005",
      "lat": 49.117,
      "lon": -1.097,
      "cp": "50000",
      "ville": "Saint-Lô",
      "prix": {
        "Gazole": 0.002199,
        "SP95": 0.002099,
        "SP98": 0.002129
      },
      "maj_gouv": {
        "Gazole": "2026-04-30 06:57:11",
        "SP95": "2026-04-30 06:57:11",
        "SP98": "2026-04-30 06:57:11"
      }
    },
    {
      "id": "50300001",
      "lat": 48.652858767159,
      "lon": -1.350030743481,
      "cp": "50300",
      "ville": "Saint-Martin-des-Champs",
      "prix": {
        "Gazole": 0.002254,
        "E85": 0.000754,
        "GPLc": 0.000999,
        "E10": 0.002064,
        "SP98": 0.002226
      },
      "maj_gouv": {
        "Gazole": "2026-05-04 00:42:00",
        "E85": "2026-05-04 00:42:00",
        "GPLc": "2026-04-25 00:40:00",
        "E10": "2026-05-04 00:42:00",
        "SP98": "2026-05-04 00:42:00"
      }
    },
    {
      "id": "50430003",
      "lat": 49.213,
      "lon": -1.53,
      "cp": "50430",
      "ville": "Lessay",
      "prix": {
        "Gazole": 0.002149,
        "SP95": 0.0019950000000000002,
        "SP98": 0.00202
      },
      "maj_gouv": {
        "Gazole": "2026-04-21 10:08:15",
        "SP95": "2026-04-27 10:08:24",
        "SP98": "2026-04-15 08:40:30"
      }
    },
    {
      "id": "50500006",
      "lat": 49.304,
      "lon": -1.212,
      "cp": "50500",
      "ville": "Saint-Hilaire-Petitville",
      "prix": {
        "Gazole": 0.002189,
        "SP95": 0.001999,
        "E10": 0.0020099999999999996
      },
      "maj_gouv": {
        "Gazole": "2026-04-30 15:32:48",
        "SP95": "2026-04-09 11:06:49",
        "E10": "2026-04-28 10:58:28"
      }
    },
    {
      "id": "50420001",
      "lat": 48.909,
      "lon": -1.104,
      "cp": "50420",
      "ville": "Gouvets",
      "prix": {
        "Gazole": 0.002617,
        "GPLc": 0.00117,
        "E10": 0.002504,
        "SP98": 0.002654
      },
      "maj_gouv": {
        "Gazole": "2026-05-01 09:30:00",
        "GPLc": "2026-05-01 09:30:00",
        "E10": "2026-05-01 09:30:00",
        "SP98": "2026-05-01 09:30:00"
      }
    },
    {
      "id": "50710001",
      "lat": 49.199,
      "lon": -1.568,
      "cp": "50710",
      "ville": "CREANCES",
      "prix": {
        "Gazole": 0.002236
      },
      "maj_gouv": {
        "Gazole": "2026-04-20 08:35:15"
      }
    },
    {
      "id": "50880001",
      "lat": 49.165,
      "lon": -1.128,
      "cp": "50880",
      "ville": "PONT HEBERT",
      "prix": {
        "Gazole": 0.00209,
        "SP95": 0.00198,
        "SP98": 0.00199
      },
      "maj_gouv": {
        "Gazole": "2026-05-02 07:30:00",
        "SP95": "2026-04-29 07:14:08",
        "SP98": "2026-04-29 07:14:08"
      }
    },
    {
      "id": "50170006",
      "lat": 48.554,
      "lon": -1.501,
      "cp": "50170",
      "ville": "Pontorson",
      "prix": {},
      "maj_gouv": {}
    },
    {
      "id": "50340002",
      "lat": 49.512,
      "lon": -1.812,
      "cp": "50340",
      "ville": "LES PIEUX",
      "prix": {
        "Gazole": 0.002189,
        "E85": 0.000819,
        "E10": 0.0019890000000000003,
        "SP98": 0.002089
      },
      "maj_gouv": {
        "Gazole": "2026-04-30 14:28:54",
        "E85": "2026-04-27 09:41:53",
        "E10": "2026-04-27 09:21:49",
        "SP98": "2026-04-30 14:28:54"
      }
    },
    {
      "id": "50200008",
      "lat": 49.038,
      "lon": -1.446,
      "cp": "50200",
      "ville": "COUTANCES",
      "prix": {
        "Gazole": 0.00221,
        "E85": 0.000839,
        "E10": 0.00199
      },
      "maj_gouv": {
        "Gazole": "2026-05-04 00:01:00",
        "E85": "2026-05-04 00:01:00",
        "E10": "2026-05-04 00:01:00"
      }
    },
    {
      "id": "50500005",
      "lat": 49.302,
      "lon": -1.263,
      "cp": "50500",
      "ville": "CARENTAN",
      "prix": {
        "Gazole": 0.002145,
        "E85": 0.0008179999999999999,
        "E10": 0.0020099999999999996,
        "SP98": 0.002049
      },
      "maj_gouv": {
        "Gazole": "2026-04-29 09:55:43",
        "E85": "2026-04-29 09:55:43",
        "E10": "2026-04-29 09:55:43",
        "SP98": "2026-04-29 09:55:43"
      }
    },
    {
      "id": "50250003",
      "lat": 49.297,
      "lon": -1.544,
      "cp": "50250",
      "ville": "La Haye-du-Puits",
      "prix": {
        "E10": 0.00199,
        "SP98": 0.00199
      },
      "maj_gouv": {
        "E10": "2026-05-02 08:48:53",
        "SP98": "2026-05-02 08:48:53"
      }
    },
    {
      "id": "50140001",
      "lat": 48.655,
      "lon": -0.937,
      "cp": "50140",
      "ville": "Mortain",
      "prix": {
        "Gazole": 0.002199,
        "SP95": 0.002049,
        "SP98": 0.002079
      },
      "maj_gouv": {
        "Gazole": "2026-05-02 11:59:04",
        "SP95": "2026-05-02 08:26:24",
        "SP98": "2026-04-21 11:47:53"
      }
    },
    {
      "id": "50700002",
      "lat": 49.508,
      "lon": -1.466,
      "cp": "50700",
      "ville": "Valognes",
      "prix": {
        "E85": 0.000859,
        "GPLc": 0.00108
      },
      "maj_gouv": {
        "E85": "2026-04-21 09:00:54",
        "GPLc": "2026-04-21 09:00:54"
      }
    },
    {
      "id": "50000008",
      "lat": 49.112,
      "lon": -1.051,
      "cp": "50000",
      "ville": "Saint-Lô",
      "prix": {
        "Gazole": 0.0022170000000000002,
        "E10": 0.001999
      },
      "maj_gouv": {
        "Gazole": "2026-04-30 10:29:22",
        "E10": "2026-04-30 10:29:22"
      }
    },
    {
      "id": "50100007",
      "lat": 49.635,
      "lon": -1.615,
      "cp": "50100",
      "ville": "Cherbourg-octeville",
      "prix": {
        "Gazole": 0.00221,
        "E85": 0.0008489999999999999,
        "E10": 0.00199
      },
      "maj_gouv": {
        "Gazole": "2026-05-04 00:01:00",
        "E85": "2026-05-04 00:01:00",
        "E10": "2026-05-04 00:01:00"
      }
    },
    {
      "id": "50180005",
      "lat": 49.113072609687,
      "lon": -1.1254249743294,
      "cp": "50180",
      "ville": "agneaux",
      "prix": {
        "Gazole": 0.002209,
        "E10": 0.002009,
        "SP98": 0.002109
      },
      "maj_gouv": {
        "Gazole": "2026-04-30 10:37:06",
        "E10": "2026-04-30 10:37:07",
        "SP98": "2026-04-30 10:37:07"
      }
    },
    {
      "id": "50390001",
      "lat": 49.386,
      "lon": -1.536,
      "cp": "50390",
      "ville": "Saint-Sauveur-le-Vicomte",
      "prix": {
        "Gazole": 0.002179,
        "SP95": 0.002019,
        "SP98": 0.002079
      },
      "maj_gouv": {
        "Gazole": "2026-04-30 10:15:47",
        "SP95": "2026-04-30 10:15:47",
        "SP98": "2026-04-30 10:15:47"
      }
    },
    {
      "id": "50230001",
      "lat": 49.049,
      "lon": -1.593,
      "cp": "50230",
      "ville": "Agon-Coutainville",
      "prix": {
        "Gazole": 0.002199,
        "E10": 0.002019,
        "SP98": 0.002079
      },
      "maj_gouv": {
        "Gazole": "2026-05-02 08:38:53",
        "E10": "2026-05-02 08:38:53",
        "SP98": "2026-05-02 08:38:53"
      }
    },
    {
      "id": "50340001",
      "lat": 49.474,
      "lon": -1.787,
      "cp": "50340",
      "ville": "PIERREVILLE",
      "prix": {
        "Gazole": 0.002238,
        "E10": 0.001998,
        "SP98": 0.002083
      },
      "maj_gouv": {
        "Gazole": "2026-04-24 10:25:57",
        "E10": "2026-04-18 09:50:36",
        "SP98": "2026-04-18 09:50:36"
      }
    },
    {
      "id": "50450001",
      "lat": 48.91277,
      "lon": -1.35262,
      "cp": "50450",
      "ville": "GAVRAY",
      "prix": {
        "Gazole": 0.002189,
        "SP95": 0.002049,
        "SP98": 0.002089
      },
      "maj_gouv": {
        "Gazole": "2026-04-22 07:24:06",
        "SP95": "2026-04-29 07:27:07",
        "SP98": "2026-04-29 07:27:08"
      }
    },
    {
      "id": "50110002",
      "lat": 49.645,
      "lon": -1.599,
      "cp": "50110",
      "ville": "Tourlaville",
      "prix": {
        "Gazole": 0.002215,
        "E10": 0.001999,
        "SP98": 0.002027
      },
      "maj_gouv": {
        "Gazole": "2026-05-01 07:46:00",
        "E10": "2026-05-01 07:46:00",
        "SP98": "2026-05-01 07:46:00"
      }
    },
    {
      "id": "50400003",
      "lat": 48.838,
      "lon": -1.553,
      "cp": "50400",
      "ville": "GRANVILLE",
      "prix": {
        "Gazole": 0.002106,
        "SP95": 0.001999,
        "E85": 0.0007289999999999999,
        "E10": 0.001956
      },
      "maj_gouv": {
        "Gazole": "2026-04-28 14:09:36",
        "SP95": "2026-04-28 14:09:36",
        "E85": "2026-04-21 09:21:49",
        "E10": "2026-04-30 08:54:28"
      }
    },
    {
      "id": "50270003",
      "lat": 49.407,
      "lon": -1.783,
      "cp": "50270",
      "ville": "Les Moitiers-d'Allonne",
      "prix": {
        "Gazole": 0.0022029999999999997,
        "SP95": 0.00199
      },
      "maj_gouv": {
        "Gazole": "2026-04-24 14:29:14",
        "SP95": "2026-04-24 14:29:14"
      }
    },
    {
      "id": "50170001",
      "lat": 48.576,
      "lon": -1.451,
      "cp": "50170",
      "ville": "TANIS",
      "prix": {
        "Gazole": 0.002209,
        "SP95": 0.00199
      },
      "maj_gouv": {
        "Gazole": "2026-04-23 08:04:03",
        "SP95": "2026-04-23 14:43:55"
      }
    },
    {
      "id": "50160004",
      "lat": 48.984136,
      "lon": -0.9462969,
      "cp": "50160",
      "ville": "Guilberville",
      "prix": {
        "Gazole": 0.0022890000000000002,
        "E85": 0.000998,
        "E10": 0.002049
      },
      "maj_gouv": {
        "Gazole": "2026-04-30 08:52:17",
        "E85": "2026-03-03 09:04:21",
        "E10": "2026-04-28 09:01:18"
      }
    },
    {
      "id": "50500004",
      "lat": 49.307,
      "lon": -1.253,
      "cp": "50500",
      "ville": "CARENTAN",
      "prix": {
        "Gazole": 0.002139,
        "SP95": 0.00199,
        "SP98": 0.002039
      },
      "maj_gouv": {
        "Gazole": "2026-04-30 10:56:15",
        "SP95": "2026-04-25 10:12:58",
        "SP98": "2026-04-25 10:12:59"
      }
    },
    {
      "id": "50430002",
      "lat": 49.212,
      "lon": -1.528,
      "cp": "50430",
      "ville": "LESSAY",
      "prix": {
        "Gazole": 0.002145,
        "SP95": 0.0019950000000000002,
        "E85": 0.000819,
        "E10": 0.00198
      },
      "maj_gouv": {
        "Gazole": "2026-04-24 14:50:27",
        "SP95": "2026-04-24 14:50:27",
        "E85": "2026-04-24 14:50:27",
        "E10": "2026-04-24 14:50:27"
      }
    },
    {
      "id": "50000004",
      "lat": 49.098,
      "lon": -1.077,
      "cp": "50000",
      "ville": "SAINT-Lô",
      "prix": {
        "Gazole": 0.002169,
        "E85": 0.000819,
        "GPLc": 0.00107,
        "E10": 0.0019890000000000003,
        "SP98": 0.002099
      },
      "maj_gouv": {
        "Gazole": "2026-04-30 09:40:46",
        "E85": "2026-04-30 09:40:47",
        "GPLc": "2026-04-30 09:40:47",
        "E10": "2026-04-30 09:40:47",
        "SP98": "2026-04-30 09:40:47"
      }
    },
    {
      "id": "50170005",
      "lat": 48.56,
      "lon": -1.509,
      "cp": "50170",
      "ville": "PONTORSON",
      "prix": {
        "Gazole": 0.002166,
        "SP95": 0.001996,
        "SP98": 0.002058
      },
      "maj_gouv": {
        "Gazole": "2026-04-24 08:47:16",
        "SP95": "2026-04-24 08:47:16",
        "SP98": "2026-04-24 08:47:16"
      }
    },
    {
      "id": "50700001",
      "lat": 49.512,
      "lon": -1.478,
      "cp": "50700",
      "ville": "VALOGNES",
      "prix": {
        "Gazole": 0.002179,
        "E85": 0.0008349999999999999,
        "E10": 0.001999,
        "SP98": 0.002099
      },
      "maj_gouv": {
        "Gazole": "2026-04-29 09:44:44",
        "E85": "2026-04-09 11:02:56",
        "E10": "2026-04-28 08:55:56",
        "SP98": "2026-04-29 09:44:44"
      }
    },
    {
      "id": "50630001",
      "lat": 49.59838,
      "lon": -1.29949,
      "cp": "50630",
      "ville": "Quettehou",
      "prix": {
        "Gazole": 0.002189,
        "E85": 0.0008179999999999999,
        "E10": 0.001988,
        "SP98": 0.002105
      },
      "maj_gouv": {
        "Gazole": "2026-04-29 09:24:03",
        "E85": "2026-04-22 07:53:20",
        "E10": "2026-04-29 09:24:03",
        "SP98": "2026-04-29 09:24:03"
      }
    },
    {
      "id": "50360002",
      "lat": 49.380216378327006,
      "lon": -1.422856188,
      "cp": "50360",
      "ville": "PICAUVILLE",
      "prix": {
        "Gazole": 0.002199,
        "E10": 0.001994,
        "SP98": 0.0021160000000000003
      },
      "maj_gouv": {
        "Gazole": "2026-04-28 10:28:45",
        "E10": "2026-04-21 10:15:31",
        "SP98": "2026-04-21 10:15:32"
      }
    },
    {
      "id": "50000002",
      "lat": 49.102,
      "lon": -1.116,
      "cp": "50000",
      "ville": "SAINT-Lô",
      "prix": {
        "E85": 0.000879,
        "E10": 0.00199
      },
      "maj_gouv": {
        "E85": "2026-04-28 06:30:00",
        "E10": "2026-04-25 07:30:00"
      }
    },
    {
      "id": "50120004",
      "lat": 49.65,
      "lon": -1.65,
      "cp": "50120",
      "ville": "CHERBOURG EN COTENTIN",
      "prix": {
        "Gazole": 0.0022370000000000003,
        "SP98": 0.00207
      },
      "maj_gouv": {
        "Gazole": "2026-04-20 08:18:41",
        "SP98": "2026-05-02 11:14:50"
      }
    },
    {
      "id": "50150002",
      "lat": 48.72,
      "lon": -0.922,
      "cp": "50150",
      "ville": "SOURDEVAL",
      "prix": {
        "Gazole": 0.002179,
        "E85": 0.0007790000000000001,
        "E10": 0.001999,
        "SP98": 0.002049
      },
      "maj_gouv": {
        "Gazole": "2026-04-30 10:28:53",
        "E85": "2026-04-24 12:19:41",
        "E10": "2026-04-30 10:28:53",
        "SP98": "2026-04-30 10:28:54"
      }
    },
    {
      "id": "50690001",
      "lat": 49.608,
      "lon": -1.661,
      "cp": "50690",
      "ville": "Martinvast",
      "prix": {
        "Gazole": 0.00225,
        "SP95": 0.00199,
        "SP98": 0.00199
      },
      "maj_gouv": {
        "Gazole": "2026-05-03 21:31:38",
        "SP95": "2026-04-14 15:10:23",
        "SP98": "2026-04-14 15:10:23"
      }
    },
    {
      "id": "50260001",
      "lat": 49.477,
      "lon": -1.62,
      "cp": "50260",
      "ville": "Bricquebec",
      "prix": {
        "Gazole": 0.00227,
        "SP95": 0.00213,
        "E85": 0.0007650000000000001,
        "E10": 0.00209,
        "SP98": 0.00216
      },
      "maj_gouv": {
        "Gazole": "2026-05-02 09:54:28",
        "SP95": "2026-05-02 09:54:28",
        "E85": "2026-04-15 08:20:22",
        "E10": "2026-05-02 09:54:28",
        "SP98": "2026-05-02 09:54:28"
      }
    },
    {
      "id": "50220003",
      "lat": 48.625703514361994,
      "lon": -1.3472067103016,
      "cp": "50220",
      "ville": "PONTAUBAULT",
      "prix": {},
      "maj_gouv": {}
    },
    {
      "id": "50304001",
      "lat": 48.68,
      "lon": -1.34,
      "cp": "50300",
      "ville": "AVRANCHES",
      "prix": {
        "Gazole": 0.0021869999999999997,
        "E10": 0.00204,
        "SP98": 0.002099
      },
      "maj_gouv": {
        "Gazole": "2026-04-30 09:39:38",
        "E10": "2026-04-29 08:16:24",
        "SP98": "2026-04-24 07:49:23"
      }
    },
    {
      "id": "50340003",
      "lat": 49.51595,
      "lon": -1.80055,
      "cp": "50340",
      "ville": "Les Pieux",
      "prix": {
        "Gazole": 0.002189,
        "E85": 0.000819,
        "GPLc": 0.001099,
        "E10": 0.0019890000000000003,
        "SP98": 0.002089
      },
      "maj_gouv": {
        "Gazole": "2026-04-29 10:24:19",
        "E85": "2026-04-17 09:00:00",
        "GPLc": "2026-04-04 12:30:00",
        "E10": "2026-04-27 09:00:00",
        "SP98": "2026-04-29 10:24:20"
      }
    },
    {
      "id": "50500001",
      "lat": 49.30901239,
      "lon": -1.25428308,
      "cp": "50500",
      "ville": "CARENTAN",
      "prix": {
        "Gazole": 0.00209,
        "E85": 0.000879,
        "GPLc": 0.00107,
        "E10": 0.00199,
        "SP98": 0.00199
      },
      "maj_gouv": {
        "Gazole": "2026-05-02 08:12:48",
        "E85": "2026-05-02 08:12:49",
        "GPLc": "2026-05-02 08:12:49",
        "E10": "2026-05-02 08:12:49",
        "SP98": "2026-05-02 08:12:49"
      }
    },
    {
      "id": "50400001",
      "lat": 48.841,
      "lon": -1.577,
      "cp": "50400",
      "ville": "Granville",
      "prix": {
        "Gazole": 0.00209,
        "E10": 0.00199,
        "SP98": 0.00199
      },
      "maj_gouv": {
        "Gazole": "2026-05-01 08:30:00",
        "E10": "2026-05-01 08:30:00",
        "SP98": "2026-05-01 08:30:00"
      }
    },
    {
      "id": "50710003",
      "lat": 49.1975392,
      "lon": -1.5436047,
      "cp": "50710",
      "ville": "Créances",
      "prix": {
        "Gazole": 0.002149,
        "SP95": 0.0019950000000000002,
        "SP98": 0.00202
      },
      "maj_gouv": {
        "Gazole": "2026-04-21 10:07:34",
        "SP95": "2026-04-27 09:52:10",
        "SP98": "2026-04-15 08:38:50"
      }
    },
    {
      "id": "50460001",
      "lat": 49.66,
      "lon": -1.686,
      "cp": "50460",
      "ville": "QUERQUEVILLE",
      "prix": {
        "Gazole": 0.00216,
        "SP95": 0.00204,
        "E85": 0.0008179999999999999,
        "GPLc": 0.00102,
        "E10": 0.001999,
        "SP98": 0.00207
      },
      "maj_gouv": {
        "Gazole": "2026-04-30 11:32:25",
        "SP95": "2026-04-30 11:32:25",
        "E85": "2026-04-29 12:23:10",
        "GPLc": "2026-04-29 12:23:10",
        "E10": "2026-04-30 11:32:25",
        "SP98": "2026-04-30 11:32:25"
      }
    },
    {
      "id": "50110004",
      "lat": 49.637,
      "lon": -1.596,
      "cp": "50110",
      "ville": "Tourlaville",
      "prix": {
        "Gazole": 0.002173,
        "E85": 0.0008179999999999999,
        "E10": 0.0019890000000000003,
        "SP98": 0.002055
      },
      "maj_gouv": {
        "Gazole": "2026-04-30 19:30:00",
        "E85": "2026-04-20 09:05:54",
        "E10": "2026-04-30 19:30:00",
        "SP98": "2026-04-29 07:03:03"
      }
    },
    {
      "id": "50110003",
      "lat": 49.635,
      "lon": -1.592,
      "cp": "50110",
      "ville": "Tourlaville",
      "prix": {
        "Gazole": 0.002195,
        "SP95": 0.002041,
        "E85": 0.0008179999999999999,
        "GPLc": 0.00102,
        "E10": 0.0020440000000000002,
        "SP98": 0.002053
      },
      "maj_gouv": {
        "Gazole": "2026-05-04 01:17:00",
        "SP95": "2026-05-04 01:17:00",
        "E85": "2026-05-04 01:17:00",
        "GPLc": "2026-05-04 01:17:00",
        "E10": "2026-05-04 01:17:00",
        "SP98": "2026-05-04 01:17:00"
      }
    },
    {
      "id": "50200001",
      "lat": 49.0381580485,
      "lon": -1.44789571173,
      "cp": "50200",
      "ville": "COUTANCES",
      "prix": {
        "Gazole": 0.002163,
        "SP95": 0.002042,
        "SP98": 0.0021219999999999998
      },
      "maj_gouv": {
        "Gazole": "2026-04-29 09:25:50",
        "SP95": "2026-04-28 09:31:37",
        "SP98": "2026-04-28 09:31:37"
      }
    },
    {
      "id": "50000001",
      "lat": 49.108,
      "lon": -1.071,
      "cp": "50000",
      "ville": "Saint-Lô",
      "prix": {
        "Gazole": 0.002175,
        "E85": 0.000809,
        "E10": 0.0019890000000000003,
        "SP98": 0.002062
      },
      "maj_gouv": {
        "Gazole": "2026-04-24 09:37:25",
        "E85": "2026-04-10 11:18:09",
        "E10": "2026-04-24 09:37:25",
        "SP98": "2026-04-21 18:33:41"
      }
    },
    {
      "id": "50700004",
      "lat": 49.502,
      "lon": -1.456,
      "cp": "50700",
      "ville": "VALOGNES",
      "prix": {
        "Gazole": 0.0022530000000000002,
        "SP95": 0.002125,
        "E10": 0.00207,
        "SP98": 0.002164
      },
      "maj_gouv": {
        "Gazole": "2026-05-02 06:30:00",
        "SP95": "2026-05-02 06:30:00",
        "E10": "2026-05-02 06:30:00",
        "SP98": "2026-05-02 06:30:00"
      }
    },
    {
      "id": "50890001",
      "lat": 49.058,
      "lon": -1.03,
      "cp": "50890",
      "ville": "CONDé-SUR-VIRE",
      "prix": {
        "Gazole": 0.002179,
        "SP95": 0.002089,
        "SP98": 0.002099
      },
      "maj_gouv": {
        "Gazole": "2026-05-02 10:31:07",
        "SP95": "2026-05-02 10:31:07",
        "SP98": "2026-05-02 10:31:07"
      }
    },
    {
      "id": "50160001",
      "lat": 49.046,
      "lon": -0.99,
      "cp": "50160",
      "ville": "SAINT-AMAND",
      "prix": {
        "Gazole": 0.002189,
        "E10": 0.002029,
        "SP98": 0.002149
      },
      "maj_gouv": {
        "Gazole": "2026-04-30 09:00:00",
        "E10": "2026-04-30 09:00:00",
        "SP98": "2026-04-30 09:00:00"
      }
    },
    {
      "id": "50190001",
      "lat": 49.189,
      "lon": -1.404,
      "cp": "50190",
      "ville": "PéRIERS",
      "prix": {
        "Gazole": 0.002229,
        "SP95": 0.002049,
        "SP98": 0.002129
      },
      "maj_gouv": {
        "Gazole": "2026-04-29 11:20:11",
        "SP95": "2026-04-29 11:20:11",
        "SP98": "2026-04-29 11:20:11"
      }
    },
    {
      "id": "50560001",
      "lat": 49.065,
      "lon": -1.595,
      "cp": "50560",
      "ville": "BLAINVILLE-SUR-MER",
      "prix": {
        "Gazole": 0.002189,
        "E10": 0.001987,
        "SP98": 0.00207
      },
      "maj_gouv": {
        "Gazole": "2026-04-10 15:15:00",
        "E10": "2026-04-24 14:50:00",
        "SP98": "2026-04-17 14:45:00"
      }
    },
    {
      "id": "50270002",
      "lat": 49.38496,
      "lon": -1.75198,
      "cp": "50270",
      "ville": "Barneville-Carteret",
      "prix": {
        "Gazole": 0.002179,
        "E85": 0.000859,
        "E10": 0.001999,
        "SP98": 0.0021190000000000002
      },
      "maj_gouv": {
        "Gazole": "2026-05-02 12:05:43",
        "E85": "2026-04-30 09:20:24",
        "E10": "2026-04-30 09:20:24",
        "SP98": "2026-04-30 09:20:25"
      }
    },
    {
      "id": "50200014",
      "lat": 49.050047,
      "lon": -1.440475,
      "cp": "50200",
      "ville": "coutances",
      "prix": {
        "Gazole": 0.002489,
        "E10": 0.002024
      },
      "maj_gouv": {
        "Gazole": "2026-05-02 14:33:22",
        "E10": "2026-04-14 09:14:45"
      }
    },
    {
      "id": "50350003",
      "lat": 48.844612000000005,
      "lon": -1.58358,
      "cp": "50350",
      "ville": "DONVILLE LES BAINS",
      "prix": {
        "Gazole": 0.0023490000000000004,
        "SP98": 0.00234
      },
      "maj_gouv": {
        "Gazole": "2026-04-09 09:00:49",
        "SP98": "2026-04-09 09:00:55"
      }
    },
    {
      "id": "50800006",
      "lat": 48.847517,
      "lon": -1.2091889999999998,
      "cp": "50800",
      "ville": "VILLEDIEU LES POELES",
      "prix": {},
      "maj_gouv": {}
    },
    {
      "id": "50470001",
      "lat": 49.600192093549,
      "lon": -1.5990082883,
      "cp": "50470",
      "ville": "La Glacerie",
      "prix": {
        "Gazole": 0.002132,
        "E85": 0.0008179999999999999,
        "GPLc": 0.001039,
        "E10": 0.001988,
        "SP98": 0.002074
      },
      "maj_gouv": {
        "Gazole": "2026-04-30 10:34:58",
        "E85": "2026-04-30 10:34:58",
        "GPLc": "2026-04-30 10:34:58",
        "E10": "2026-04-30 10:34:58",
        "SP98": "2026-04-30 10:34:58"
      }
    },
    {
      "id": "50600004",
      "lat": 48.57375,
      "lon": -1.08262,
      "cp": "50600",
      "ville": "Saint-Hilaire-du-Harcouët",
      "prix": {
        "Gazole": 0.002199,
        "E10": 0.002049,
        "SP98": 0.002154
      },
      "maj_gouv": {
        "Gazole": "2026-04-30 09:14:53",
        "E10": "2026-04-30 09:14:53",
        "SP98": "2026-05-02 08:06:51"
      }
    },
    {
      "id": "50580002",
      "lat": 49.336,
      "lon": -1.693,
      "cp": "50580",
      "ville": "PORT-BAIL-SUR-MER",
      "prix": {
        "Gazole": 0.002269,
        "SP95": 0.002125,
        "SP98": 0.002179
      },
      "maj_gouv": {
        "Gazole": "2026-04-18 09:53:38",
        "SP95": "2026-04-30 17:06:18",
        "SP98": "2026-04-30 17:06:19"
      }
    },
    {
      "id": "50000009",
      "lat": 49.100958555807,
      "lon": -1.0676172469115,
      "cp": "50000",
      "ville": "Saint-Lô",
      "prix": {
        "Gazole": 0.002169,
        "E85": 0.000819,
        "E10": 0.0019890000000000003,
        "SP98": 0.002099
      },
      "maj_gouv": {
        "Gazole": "2026-04-30 09:51:40",
        "E85": "2026-04-24 14:25:48",
        "E10": "2026-04-30 09:51:40",
        "SP98": "2026-04-30 09:51:40"
      }
    },
    {
      "id": "50000006",
      "lat": 49.16281,
      "lon": -1.12662,
      "cp": "50000",
      "ville": "RAMPAN",
      "prix": {
        "Gazole": 0.002169,
        "SP95": 0.0019890000000000003
      },
      "maj_gouv": {
        "Gazole": "2026-04-23 13:30:00",
        "SP95": "2026-04-23 13:30:00"
      }
    },
    {
      "id": "50300005",
      "lat": 48.678,
      "lon": -1.351,
      "cp": "50300",
      "ville": "AVRANCHES",
      "prix": {
        "Gazole": 0.0021869999999999997,
        "E85": 0.000819,
        "E10": 0.00204
      },
      "maj_gouv": {
        "Gazole": "2026-04-30 10:21:19",
        "E85": "2026-04-15 07:56:35",
        "E10": "2026-04-29 10:30:28"
      }
    },
    {
      "id": "50330002",
      "lat": 49.667,
      "lon": -1.391,
      "cp": "50330",
      "ville": "SAINT-PIERRE-ÉGLISE",
      "prix": {
        "Gazole": 0.00221,
        "SP95": 0.002008,
        "SP98": 0.0021070000000000004
      },
      "maj_gouv": {
        "Gazole": "2026-04-28 12:16:05",
        "SP95": "2026-04-03 14:29:56",
        "SP98": "2026-04-14 12:20:22"
      }
    },
    {
      "id": "50000007",
      "lat": 49.116301972112005,
      "lon": -1.0583312301737,
      "cp": "50000",
      "ville": "Saint-Lô",
      "prix": {
        "Gazole": 0.002209,
        "SP95": 0.002099,
        "E85": 0.000799,
        "E10": 0.001999,
        "SP98": 0.002129
      },
      "maj_gouv": {
        "Gazole": "2026-04-30 19:47:41",
        "SP95": "2026-04-30 19:47:41",
        "E85": "2026-05-02 19:10:39",
        "E10": "2026-04-30 19:47:42",
        "SP98": "2026-04-30 19:47:42"
      }
    },
    {
      "id": "50130001",
      "lat": 49.626,
      "lon": -1.628,
      "cp": "50130",
      "ville": "Cherbourg-Octeville",
      "prix": {
        "Gazole": 0.002183,
        "E10": 0.001999,
        "SP98": 0.002079
      },
      "maj_gouv": {
        "Gazole": "2026-05-01 07:46:00",
        "E10": "2026-05-01 07:46:00",
        "SP98": "2026-05-01 07:46:00"
      }
    },
    {
      "id": "50530002",
      "lat": 48.752,
      "lon": -1.459,
      "cp": "50530",
      "ville": "Sartilly-Baie-Bocage",
      "prix": {
        "Gazole": 0.002179,
        "E85": 0.0007289999999999999,
        "E10": 0.002029,
        "SP98": 0.002099
      },
      "maj_gouv": {
        "Gazole": "2026-05-02 09:32:59",
        "E85": "2026-04-18 09:48:14",
        "E10": "2026-05-02 09:32:59",
        "SP98": "2026-05-02 09:32:59"
      }
    },
    {
      "id": "50220002",
      "lat": 48.617,
      "lon": -1.28,
      "cp": "50220",
      "ville": "DUCEY",
      "prix": {
        "Gazole": 0.0022389999999999997,
        "E10": 0.002049,
        "SP98": 0.002179
      },
      "maj_gouv": {
        "Gazole": "2026-04-29 11:49:09",
        "E10": "2026-04-29 11:49:09",
        "SP98": "2026-04-28 09:03:50"
      }
    },
    {
      "id": "50204001",
      "lat": 49.068,
      "lon": -1.431,
      "cp": "50200",
      "ville": "COUTANCES",
      "prix": {
        "Gazole": 0.002219,
        "E85": 0.000759,
        "GPLc": 0.00099,
        "E10": 0.002019,
        "SP98": 0.002079
      },
      "maj_gouv": {
        "Gazole": "2026-05-02 19:34:00",
        "E85": "2026-04-24 20:14:54",
        "GPLc": "2026-03-11 09:25:11",
        "E10": "2026-04-30 19:34:04",
        "SP98": "2026-04-30 19:34:04"
      }
    },
    {
      "id": "50290001",
      "lat": 48.9,
      "lon": -1.513,
      "cp": "50290",
      "ville": "BREHAL",
      "prix": {
        "Gazole": 0.002179,
        "E10": 0.002019,
        "SP98": 0.002129
      },
      "maj_gouv": {
        "Gazole": "2026-05-02 09:36:45",
        "E10": "2026-05-02 09:36:45",
        "SP98": "2026-05-02 09:36:45"
      }
    },
    {
      "id": "50550003",
      "lat": 49.589136491152004,
      "lon": -1.2801083896726,
      "cp": "50550",
      "ville": "SAINT VAAST LA HOUGUE",
      "prix": {
        "Gazole": 0.002189,
        "E10": 0.001988,
        "SP98": 0.002105
      },
      "maj_gouv": {
        "Gazole": "2026-04-29 09:32:46",
        "E10": "2026-04-29 09:32:46",
        "SP98": "2026-04-29 09:32:46"
      }
    },
    {
      "id": "50260004",
      "lat": 49.473,
      "lon": -1.628,
      "cp": "50260",
      "ville": "Bricquebec-en-Cotentin",
      "prix": {
        "E10": 0.00199
      },
      "maj_gouv": {
        "E10": "2026-05-03 14:56:52"
      }
    },
    {
      "id": "50750002",
      "lat": 49.029,
      "lon": -1.142,
      "cp": "50750",
      "ville": "Saint Martin de bonfossé",
      "prix": {
        "SP95": 0.00199
      },
      "maj_gouv": {
        "SP95": "2026-05-01 10:01:38"
      }
    },
    {
      "id": "50100003",
      "lat": 49.6372,
      "lon": -1.65108,
      "cp": "50100",
      "ville": "CHERBOURG-OCTEVILLE",
      "prix": {
        "Gazole": 0.00216,
        "E85": 0.0008179999999999999,
        "E10": 0.001999,
        "SP98": 0.00207
      },
      "maj_gouv": {
        "Gazole": "2026-05-02 07:07:18",
        "E85": "2026-04-16 08:44:06",
        "E10": "2026-05-02 07:07:18",
        "SP98": "2026-05-02 07:07:18"
      }
    },
    {
      "id": "50310002",
      "lat": 49.49052,
      "lon": -1.39445,
      "cp": "50310",
      "ville": "Montebourg",
      "prix": {
        "Gazole": 0.002215,
        "E10": 0.002009,
        "SP98": 0.00212
      },
      "maj_gouv": {
        "Gazole": "2026-04-28 17:38:54",
        "E10": "2026-04-28 17:38:55",
        "SP98": "2026-04-28 17:38:55"
      }
    },
    {
      "id": "50370005",
      "lat": 48.726,
      "lon": -1.166,
      "cp": "50370",
      "ville": "Brécey",
      "prix": {
        "Gazole": 0.002199,
        "E85": 0.000799,
        "E10": 0.001999
      },
      "maj_gouv": {
        "Gazole": "2026-04-30 08:14:58",
        "E85": "2026-03-20 19:42:59",
        "E10": "2026-04-30 08:47:36"
      }
    },
    {
      "id": "50300006",
      "lat": 48.709,
      "lon": -1.319,
      "cp": "50300",
      "ville": "Ponts",
      "prix": {},
      "maj_gouv": {}
    },
    {
      "id": "50440002",
      "lat": 49.662,
      "lon": -1.836,
      "cp": "50440",
      "ville": "Beaumont-Hague",
      "prix": {
        "Gazole": 0.002169,
        "E85": 0.0007289999999999999,
        "E10": 0.002029,
        "SP98": 0.002079
      },
      "maj_gouv": {
        "Gazole": "2026-05-02 10:52:22",
        "E85": "2026-01-17 08:17:49",
        "E10": "2026-04-30 10:01:52",
        "SP98": "2026-04-30 10:01:52"
      }
    },
    {
      "id": "50250002",
      "lat": 49.284,
      "lon": -1.567,
      "cp": "50250",
      "ville": "SAINT-SYMPHORIEN-LE-VALOIS",
      "prix": {
        "Gazole": 0.002145,
        "SP95": 0.0019950000000000002,
        "E10": 0.00198
      },
      "maj_gouv": {
        "Gazole": "2026-04-24 14:52:21",
        "SP95": "2026-04-24 14:52:22",
        "E10": "2026-04-24 14:52:22"
      }
    },
    {
      "id": "50110001",
      "lat": 49.635,
      "lon": -1.587,
      "cp": "50110",
      "ville": "Tourlaville",
      "prix": {},
      "maj_gouv": {}
    },
    {
      "id": "50370003",
      "lat": 48.7248689288,
      "lon": -1.16958900338,
      "cp": "50370",
      "ville": "BRéCEY",
      "prix": {
        "Gazole": 0.002199,
        "E10": 0.001999,
        "SP98": 0.002099
      },
      "maj_gouv": {
        "Gazole": "2026-04-29 08:41:34",
        "E10": "2026-04-09 08:43:36",
        "SP98": "2026-04-09 08:43:36"
      }
    },
    {
      "id": "50320001",
      "lat": 48.797,
      "lon": -1.398,
      "cp": "50320",
      "ville": "La Haye-Pesnel",
      "prix": {
        "Gazole": 0.002179,
        "E10": 0.002029,
        "SP98": 0.002099
      },
      "maj_gouv": {
        "Gazole": "2026-05-02 04:52:54",
        "E10": "2026-05-02 04:52:54",
        "SP98": "2026-05-02 04:52:54"
      }
    },
    {
      "id": "50410002",
      "lat": 48.914,
      "lon": -1.193,
      "cp": "50410",
      "ville": "PERCY",
      "prix": {
        "SP95": 0.002009
      },
      "maj_gouv": {
        "SP95": "2026-04-29 11:51:31"
      }
    },
    {
      "id": "50480002",
      "lat": 49.405,
      "lon": -1.322,
      "cp": "50480",
      "ville": "SAINTE-MèRE-ÉGLISE",
      "prix": {
        "Gazole": 0.002145,
        "SP95": 0.002009,
        "SP98": 0.002049
      },
      "maj_gouv": {
        "Gazole": "2026-04-30 08:50:07",
        "SP95": "2026-04-30 08:50:07",
        "SP98": "2026-04-30 08:50:07"
      }
    },
    {
      "id": "50590004",
      "lat": 48.988408378422996,
      "lon": -1.5194554311048,
      "cp": "50590",
      "ville": "Montmartin-sur-Mer",
      "prix": {
        "Gazole": 0.0021219999999999998,
        "SP95": 0.002021,
        "SP98": 0.002099
      },
      "maj_gouv": {
        "Gazole": "2026-04-24 00:00:00",
        "SP95": "2026-04-24 00:00:00",
        "SP98": "2026-04-24 00:00:00"
      }
    },
    {
      "id": "50300002",
      "lat": 48.673,
      "lon": -1.355,
      "cp": "50300",
      "ville": "LE VAL-SAINT-PèRE",
      "prix": {
        "Gazole": 0.00209,
        "E10": 0.00199,
        "SP98": 0.00199
      },
      "maj_gouv": {
        "Gazole": "2026-05-01 08:30:00",
        "E10": "2026-05-01 08:30:00",
        "SP98": "2026-05-01 08:30:00"
      }
    },
    {
      "id": "50170007",
      "lat": 48.595250691803,
      "lon": -1.5126967129669,
      "cp": "50170",
      "ville": "BEAUVOIR",
      "prix": {
        "Gazole": 0.002249,
        "SP95": 0.0019950000000000002,
        "E85": 0.000828,
        "E10": 0.0019950000000000002,
        "SP98": 0.002055
      },
      "maj_gouv": {
        "Gazole": "2026-05-02 13:26:46",
        "SP95": "2026-04-24 11:04:32",
        "E85": "2026-04-23 09:42:33",
        "E10": "2026-04-24 11:04:32",
        "SP98": "2026-04-24 11:04:32"
      }
    },
    {
      "id": "50800005",
      "lat": 48.844455,
      "lon": -1.214925,
      "cp": "50800",
      "ville": "VILLEDIEU LES POELES",
      "prix": {
        "Gazole": 0.002199,
        "E85": 0.000819,
        "E10": 0.0019950000000000002
      },
      "maj_gouv": {
        "Gazole": "2026-05-02 08:11:16",
        "E85": "2026-04-16 09:10:31",
        "E10": "2026-05-02 08:11:16"
      }
    },
    {
      "id": "50670001",
      "lat": 48.751254073836996,
      "lon": -1.0670346441803,
      "cp": "50670",
      "ville": "SAINT POIS",
      "prix": {
        "Gazole": 0.002169,
        "SP95": 0.002019
      },
      "maj_gouv": {
        "Gazole": "2026-04-29 11:08:48",
        "SP95": "2026-04-29 11:08:48"
      }
    },
    {
      "id": "50500008",
      "lat": 49.304,
      "lon": -1.162,
      "cp": "50500",
      "ville": "CARENTAN LES MARAIS",
      "prix": {
        "Gazole": 0.00209,
        "E10": 0.00199,
        "SP98": 0.00199
      },
      "maj_gouv": {
        "Gazole": "2026-05-03 09:00:00",
        "E10": "2026-05-03 09:00:00",
        "SP98": "2026-05-03 09:00:00"
      }
    },
    {
      "id": "50680001",
      "lat": 49.192673521357996,
      "lon": -1.0285106002881,
      "cp": "50680",
      "ville": "SAINT CLAIR SUR L'ELLE",
      "prix": {
        "Gazole": 0.00221,
        "SP95": 0.00195
      },
      "maj_gouv": {
        "Gazole": "2026-04-29 08:29:23",
        "SP95": "2026-04-29 08:29:23"
      }
    },
    {
      "id": "50340006",
      "lat": 49.533,
      "lon": -1.865,
      "cp": "50340",
      "ville": "FLAMANVILLE",
      "prix": {
        "Gazole": 0.00225,
        "SP95": 0.00199
      },
      "maj_gouv": {
        "Gazole": "2026-04-14 09:27:53",
        "SP95": "2026-04-14 09:27:53"
      }
    },
    {
      "id": "50200012",
      "lat": 49.057,
      "lon": -1.431,
      "cp": "50200",
      "ville": "Coutances",
      "prix": {
        "E10": 0.00199
      },
      "maj_gouv": {
        "E10": "2026-05-03 11:47:04"
      }
    },
    {
      "id": "50170008",
      "lat": 48.573,
      "lon": -1.458,
      "cp": "50170",
      "ville": "TANIS",
      "prix": {
        "Gazole": 0.00209,
        "SP95": 0.00199
      },
      "maj_gouv": {
        "Gazole": "2026-05-01 11:05:39",
        "SP95": "2026-05-01 11:05:39"
      }
    }
  ]
}