{
  "departement": "55",
  "date": "2026-05-24",
  "stations": [
    {
      "id": "55700006",
      "lat": 49.483853119268,
      "lon": 5.2033975146027,
      "cp": "55700",
      "ville": "STENAY",
      "prix": {
        "Gazole": 0.002084,
        "SP95": 0.0021030000000000003,
        "SP98": 0.0021869999999999997
      },
      "maj_gouv": {
        "Gazole": "2026-05-22 17:00:00",
        "SP95": "2026-05-22 17:00:00",
        "SP98": "2026-05-20 17:09:56"
      }
    },
    {
      "id": "55200004",
      "lat": 48.756,
      "lon": 5.585,
      "cp": "55200",
      "ville": "Commercy",
      "prix": {
        "Gazole": 0.002099,
        "E85": 0.000798,
        "E10": 0.0020819999999999996,
        "SP98": 0.002199
      },
      "maj_gouv": {
        "Gazole": "2026-05-22 07:54:32",
        "E85": "2026-05-18 07:54:56",
        "E10": "2026-05-22 07:54:32",
        "SP98": "2026-05-22 07:54:32"
      }
    },
    {
      "id": "55160014",
      "lat": 49.120326,
      "lon": 5.5083983,
      "cp": "55160",
      "ville": "HAUDIOMONT",
      "prix": {
        "Gazole": 0.002212,
        "GPLc": 0.001211,
        "E10": 0.0021509999999999997,
        "SP98": 0.002233
      },
      "maj_gouv": {
        "Gazole": "2026-05-23 12:33:53",
        "GPLc": "2026-05-23 12:33:53",
        "E10": "2026-05-23 12:33:53",
        "SP98": "2026-05-23 12:33:53"
      }
    },
    {
      "id": "55000005",
      "lat": 48.787,
      "lon": 5.14,
      "cp": "55000",
      "ville": "Fains-Véel",
      "prix": {
        "Gazole": 0.002109,
        "GPLc": 0.00113,
        "E10": 0.002059,
        "SP98": 0.002169
      },
      "maj_gouv": {
        "Gazole": "2026-05-15 08:51:58",
        "GPLc": "2026-04-27 10:33:41",
        "E10": "2026-05-22 10:23:13",
        "SP98": "2026-05-22 10:23:13"
      }
    },
    {
      "id": "55110003",
      "lat": 49.391,
      "lon": 5.183,
      "cp": "55110",
      "ville": "Dun-sur-Meuse",
      "prix": {
        "Gazole": 0.0022730000000000003,
        "E10": 0.002083
      },
      "maj_gouv": {
        "Gazole": "2026-04-30 11:14:15",
        "E10": "2026-04-30 11:14:15"
      }
    },
    {
      "id": "55320001",
      "lat": 49.077,
      "lon": 5.448,
      "cp": "55320",
      "ville": "Dieue-sur-Meuse",
      "prix": {
        "Gazole": 0.0021190000000000002,
        "E10": 0.002079,
        "SP98": 0.002189
      },
      "maj_gouv": {
        "Gazole": "2026-05-22 10:07:43",
        "E10": "2026-05-22 10:07:43",
        "SP98": "2026-05-22 10:07:43"
      }
    },
    {
      "id": "55200003",
      "lat": 48.79,
      "lon": 5.549,
      "cp": "55200",
      "ville": "Lérouville",
      "prix": {},
      "maj_gouv": {}
    },
    {
      "id": "55800002",
      "lat": 48.825,
      "lon": 4.993,
      "cp": "55800",
      "ville": "REVIGNY-SUR-ORNAIN",
      "prix": {
        "Gazole": 0.002099,
        "SP95": 0.002109,
        "E10": 0.002059,
        "SP98": 0.002169
      },
      "maj_gouv": {
        "Gazole": "2026-05-22 12:04:31",
        "SP95": "2026-05-22 12:04:31",
        "E10": "2026-05-22 12:04:32",
        "SP98": "2026-05-22 12:04:32"
      }
    },
    {
      "id": "55160013",
      "lat": 49.118,
      "lon": 5.508,
      "cp": "55160",
      "ville": "HAUDIOMONT",
      "prix": {
        "Gazole": 0.002197,
        "GPLc": 0.001211,
        "E10": 0.002153,
        "SP98": 0.00225
      },
      "maj_gouv": {
        "Gazole": "2026-05-23 12:32:53",
        "GPLc": "2026-05-23 12:32:53",
        "E10": "2026-05-23 12:32:53",
        "SP98": "2026-05-23 12:32:53"
      }
    },
    {
      "id": "55200002",
      "lat": 48.76069,
      "lon": 5.60211,
      "cp": "55200",
      "ville": "COMMERCY",
      "prix": {
        "Gazole": 0.002144,
        "E10": 0.0020819999999999996,
        "SP98": 0.002199
      },
      "maj_gouv": {
        "Gazole": "2026-05-22 12:00:06",
        "E10": "2026-05-22 12:00:06",
        "SP98": "2026-05-22 12:00:06"
      }
    },
    {
      "id": "55110002",
      "lat": 49.286111095592,
      "lon": 5.2884110553228005,
      "cp": "55110",
      "ville": "Consenvoye",
      "prix": {
        "Gazole": 0.00209,
        "SP95": 0.00199,
        "SP98": 0.00199
      },
      "maj_gouv": {
        "Gazole": "2026-05-23 08:10:15",
        "SP95": "2026-04-30 09:32:55",
        "SP98": "2026-04-30 09:32:55"
      }
    },
    {
      "id": "55000003",
      "lat": 48.79,
      "lon": 5.137,
      "cp": "55000",
      "ville": "FAINS-VéEL",
      "prix": {
        "Gazole": 0.002179,
        "E85": 0.000879,
        "E10": 0.002069,
        "SP98": 0.002169
      },
      "maj_gouv": {
        "Gazole": "2026-05-15 23:30:00",
        "E85": "2026-05-15 23:30:00",
        "E10": "2026-05-15 23:30:00",
        "SP98": "2026-05-15 23:30:00"
      }
    },
    {
      "id": "55130002",
      "lat": 48.55,
      "lon": 5.481,
      "cp": "55130",
      "ville": "Houdelaincourt",
      "prix": {
        "Gazole": 0.002299,
        "SP95": 0.002219,
        "SP98": 0.002249
      },
      "maj_gouv": {
        "Gazole": "2026-05-22 17:25:28",
        "SP95": "2026-05-22 17:25:28",
        "SP98": "2026-05-22 17:25:28"
      }
    },
    {
      "id": "55100004",
      "lat": 49.165,
      "lon": 5.38,
      "cp": "55100",
      "ville": "VERDUN",
      "prix": {
        "Gazole": 0.002089,
        "GPLc": 0.000989,
        "E10": 0.0020729999999999998,
        "SP98": 0.002148
      },
      "maj_gouv": {
        "Gazole": "2026-05-24 01:16:00",
        "GPLc": "2026-05-24 01:16:00",
        "E10": "2026-05-24 01:16:00",
        "SP98": "2026-05-24 01:16:00"
      }
    },
    {
      "id": "55100007",
      "lat": 49.165,
      "lon": 5.38,
      "cp": "55100",
      "ville": "VERDUN",
      "prix": {
        "Gazole": 0.00209,
        "E85": 0.000829
      },
      "maj_gouv": {
        "Gazole": "2026-05-24 00:01:00",
        "E85": "2026-05-24 00:01:00"
      }
    },
    {
      "id": "55140001",
      "lat": 48.60362,
      "lon": 5.66686,
      "cp": "55140",
      "ville": "VAUCOULEURS",
      "prix": {
        "Gazole": 0.002164,
        "SP95": 0.002154,
        "E10": 0.002097
      },
      "maj_gouv": {
        "Gazole": "2026-05-19 20:45:34",
        "SP95": "2026-05-19 20:45:34",
        "E10": "2026-05-19 20:45:35"
      }
    },
    {
      "id": "55400003",
      "lat": 49.217,
      "lon": 5.643,
      "cp": "55400",
      "ville": "ÉTAIN",
      "prix": {
        "Gazole": 0.002139,
        "E10": 0.002089,
        "SP98": 0.002202
      },
      "maj_gouv": {
        "Gazole": "2026-05-19 10:34:56",
        "E10": "2026-05-19 10:34:56",
        "SP98": "2026-05-19 10:34:56"
      }
    },
    {
      "id": "55120001",
      "lat": 49.10482979203601,
      "lon": 5.0684536033295,
      "cp": "55120",
      "ville": "Clermont-en-Argonne",
      "prix": {
        "Gazole": 0.002149,
        "SP95": 0.002109,
        "E10": 0.002019,
        "SP98": 0.002129
      },
      "maj_gouv": {
        "Gazole": "2026-05-13 11:27:49",
        "SP95": "2026-05-05 07:57:56",
        "E10": "2026-05-13 11:27:49",
        "SP98": "2026-05-13 11:27:49"
      }
    },
    {
      "id": "55190003",
      "lat": 48.686,
      "lon": 5.726,
      "cp": "55190",
      "ville": "PAGNY SUR MEUSE",
      "prix": {
        "Gazole": 0.00209,
        "E10": 0.00199,
        "SP98": 0.00199
      },
      "maj_gouv": {
        "Gazole": "2026-05-24 00:01:00",
        "E10": "2026-05-24 00:01:00",
        "SP98": "2026-05-24 00:01:00"
      }
    },
    {
      "id": "55600001",
      "lat": 49.513,
      "lon": 5.375,
      "cp": "55600",
      "ville": "Montmédy",
      "prix": {
        "Gazole": 0.002079,
        "SP95": 0.002059,
        "SP98": 0.002159
      },
      "maj_gouv": {
        "Gazole": "2026-05-12 08:37:03",
        "SP95": "2026-05-12 08:37:03",
        "SP98": "2026-05-12 08:37:04"
      }
    },
    {
      "id": "55300004",
      "lat": 48.889,
      "lon": 5.543,
      "cp": "55300",
      "ville": "SAINT MIHIEL",
      "prix": {
        "Gazole": 0.0021190000000000002,
        "E10": 0.002059,
        "SP98": 0.0021190000000000002
      },
      "maj_gouv": {
        "Gazole": "2026-05-19 11:20:54",
        "E10": "2026-05-19 11:20:54",
        "SP98": "2026-05-19 11:20:54"
      }
    },
    {
      "id": "55700005",
      "lat": 49.483,
      "lon": 5.202,
      "cp": "55700",
      "ville": "STENAY",
      "prix": {
        "Gazole": 0.002084,
        "SP95": 0.0021030000000000003,
        "E85": 0.000798,
        "E10": 0.002049
      },
      "maj_gouv": {
        "Gazole": "2026-05-22 17:00:00",
        "SP95": "2026-05-22 17:00:00",
        "E85": "2026-05-15 08:00:00",
        "E10": "2026-05-22 17:00:00"
      }
    },
    {
      "id": "55210001",
      "lat": 48.98,
      "lon": 5.713,
      "cp": "55210",
      "ville": "VIGNEULLES-LèS-HATTONCHâTEL",
      "prix": {
        "Gazole": 0.00209,
        "E85": 0.000859,
        "E10": 0.00199,
        "SP98": 0.00199
      },
      "maj_gouv": {
        "Gazole": "2026-05-23 16:20:51",
        "E85": "2026-05-23 16:20:51",
        "E10": "2026-05-23 16:20:51",
        "SP98": "2026-05-23 16:20:51"
      }
    },
    {
      "id": "55000004",
      "lat": 48.757,
      "lon": 5.192,
      "cp": "55000",
      "ville": "BAR-LE-DUC",
      "prix": {
        "Gazole": 0.0021019999999999997,
        "E85": 0.0007880000000000001,
        "E10": 0.0020859999999999997,
        "SP98": 0.002163
      },
      "maj_gouv": {
        "Gazole": "2026-05-24 01:15:00",
        "E85": "2026-05-24 01:15:00",
        "E10": "2026-05-24 01:15:00",
        "SP98": "2026-05-24 01:15:00"
      }
    },
    {
      "id": "55270002",
      "lat": 49.228469477017995,
      "lon": 5.04075420096,
      "cp": "55270",
      "ville": "Varennes-en-Argonne",
      "prix": {
        "Gazole": 0.00226,
        "SP95": 0.00215,
        "SP98": 0.002235
      },
      "maj_gouv": {
        "Gazole": "2026-05-08 15:47:31",
        "SP95": "2026-05-08 15:47:32",
        "SP98": "2026-05-08 15:47:32"
      }
    },
    {
      "id": "55500001",
      "lat": 48.677,
      "lon": 5.326,
      "cp": "55500",
      "ville": "Ligny-en-Barrois",
      "prix": {
        "Gazole": 0.002179,
        "SP95": 0.002099,
        "SP98": 0.002149
      },
      "maj_gouv": {
        "Gazole": "2026-05-19 08:29:26",
        "SP95": "2026-04-08 08:58:33",
        "SP98": "2026-04-08 08:58:33"
      }
    },
    {
      "id": "55500003",
      "lat": 48.699,
      "lon": 5.306,
      "cp": "55500",
      "ville": "Velaines",
      "prix": {
        "Gazole": 0.002199,
        "SP95": 0.002149,
        "E85": 0.0008990000000000001
      },
      "maj_gouv": {
        "Gazole": "2026-05-18 08:34:08",
        "SP95": "2026-05-18 08:34:08",
        "E85": "2026-04-17 22:00:00"
      }
    },
    {
      "id": "55500002",
      "lat": 48.68769,
      "lon": 5.32119,
      "cp": "55500",
      "ville": "Ligny-en-Barrois",
      "prix": {
        "Gazole": 0.00209
      },
      "maj_gouv": {
        "Gazole": "2026-05-23 08:06:01"
      }
    },
    {
      "id": "55160015",
      "lat": 49.1,
      "lon": 5.624,
      "cp": "55160",
      "ville": "FRESNES EN WOEVRE",
      "prix": {
        "Gazole": 0.002199,
        "E10": 0.0020870000000000003,
        "SP98": 0.002229
      },
      "maj_gouv": {
        "Gazole": "2026-05-15 12:13:32",
        "E10": "2026-05-15 12:13:32",
        "SP98": "2026-05-15 12:13:32"
      }
    },
    {
      "id": "55300003",
      "lat": 48.902,
      "lon": 5.515,
      "cp": "55300",
      "ville": "Chauvoncourt",
      "prix": {
        "Gazole": 0.0021309999999999996,
        "E85": 0.0008070000000000001,
        "E10": 0.0020659999999999997,
        "SP98": 0.0021739999999999997
      },
      "maj_gouv": {
        "Gazole": "2026-05-19 10:53:58",
        "E85": "2026-05-19 10:53:58",
        "E10": "2026-05-19 10:53:58",
        "SP98": "2026-05-19 10:53:58"
      }
    },
    {
      "id": "55290001",
      "lat": 48.489,
      "lon": 5.355,
      "cp": "55290",
      "ville": "BURE",
      "prix": {
        "Gazole": 0.002069,
        "E85": 0.000923,
        "E10": 0.002069
      },
      "maj_gouv": {
        "Gazole": "2026-05-22 17:48:10",
        "E85": "2026-04-03 19:38:32",
        "E10": "2026-05-22 17:48:11"
      }
    },
    {
      "id": "55100003",
      "lat": 49.168,
      "lon": 5.387,
      "cp": "55100",
      "ville": "Verdun",
      "prix": {
        "Gazole": 0.002118,
        "E10": 0.002081,
        "SP98": 0.002155
      },
      "maj_gouv": {
        "Gazole": "2026-05-22 16:41:00",
        "E10": "2026-05-22 16:41:00",
        "SP98": "2026-05-22 16:41:00"
      }
    },
    {
      "id": "55210003",
      "lat": 48.976837,
      "lon": 5.701371999999999,
      "cp": "55210",
      "ville": "VIGNEULLES-LES-HATTONCHATEL",
      "prix": {
        "Gazole": 0.002109,
        "E10": 0.001999,
        "SP98": 0.002127
      },
      "maj_gouv": {
        "Gazole": "2026-05-19 09:32:47",
        "E10": "2026-05-19 09:32:47",
        "SP98": "2026-05-19 09:32:47"
      }
    },
    {
      "id": "55100001",
      "lat": 49.142,
      "lon": 5.408,
      "cp": "55100",
      "ville": "VERDUN",
      "prix": {
        "Gazole": 0.0021190000000000002,
        "E85": 0.000808,
        "GPLc": 0.00099,
        "E10": 0.002069,
        "SP98": 0.002149
      },
      "maj_gouv": {
        "Gazole": "2026-05-22 10:44:40",
        "E85": "2026-05-21 10:05:48",
        "GPLc": "2026-05-19 11:12:01",
        "E10": "2026-05-22 10:44:40",
        "SP98": "2026-05-22 10:44:40"
      }
    },
    {
      "id": "55300002",
      "lat": 48.888,
      "lon": 5.54,
      "cp": "55300",
      "ville": "Saint-Mihiel",
      "prix": {
        "Gazole": 0.002215,
        "E85": 0.000829,
        "E10": 0.00199,
        "SP98": 0.00199
      },
      "maj_gouv": {
        "Gazole": "2026-05-20 09:00:22",
        "E85": "2026-05-13 07:54:38",
        "E10": "2026-05-20 09:00:22",
        "SP98": "2026-05-20 09:00:22"
      }
    },
    {
      "id": "55000010",
      "lat": 48.767,
      "lon": 5.173,
      "cp": "55000",
      "ville": "Bar-le-Duc",
      "prix": {
        "Gazole": 0.00209
      },
      "maj_gouv": {
        "Gazole": "2026-05-24 00:01:00"
      }
    },
    {
      "id": "55430001",
      "lat": 49.16840340999,
      "lon": 5.386790042283,
      "cp": "55430",
      "ville": "Belleville-sur-Meuse",
      "prix": {
        "Gazole": 0.00211,
        "E10": 0.002055,
        "SP98": 0.002165
      },
      "maj_gouv": {
        "Gazole": "2026-05-22 09:18:06",
        "E10": "2026-05-22 09:18:06",
        "SP98": "2026-05-22 09:18:06"
      }
    }
  ]
}