{
  "departement": "07",
  "date": "2026-06-14",
  "stations": [
    {
      "id": "7290000",
      "lat": 45.160197050871,
      "lon": 4.6328811656225,
      "cp": "07290",
      "ville": "Satillieu",
      "prix": {
        "Gazole": 0.001974,
        "SP95": 0.001986
      },
      "maj_gouv": {
        "Gazole": "2026-06-12 17:16:34",
        "SP95": "2026-06-12 17:16:34"
      }
    },
    {
      "id": "7380002",
      "lat": 44.6498922918,
      "lon": 4.32447950169,
      "cp": "07380",
      "ville": "LALEVADE-D'ARDèCHE",
      "prix": {
        "Gazole": 0.0019590000000000002,
        "E85": 0.000809,
        "E10": 0.001899,
        "SP98": 0.0020099999999999996
      },
      "maj_gouv": {
        "Gazole": "2026-06-13 08:39:15",
        "E85": "2026-06-11 08:17:42",
        "E10": "2026-06-12 08:17:05",
        "SP98": "2026-06-13 08:39:16"
      }
    },
    {
      "id": "7430002",
      "lat": 45.261,
      "lon": 4.703,
      "cp": "07430",
      "ville": "DAVéZIEUX",
      "prix": {
        "Gazole": 0.0020099999999999996,
        "E85": 0.000743,
        "E10": 0.001931,
        "SP98": 0.002054
      },
      "maj_gouv": {
        "Gazole": "2026-06-12 08:06:31",
        "E85": "2026-06-12 08:06:31",
        "E10": "2026-06-12 08:06:31",
        "SP98": "2026-06-12 08:06:31"
      }
    },
    {
      "id": "7100006",
      "lat": 45.235,
      "lon": 4.672,
      "cp": "07100",
      "ville": "ANNONAY",
      "prix": {
        "SP95": 0.00199
      },
      "maj_gouv": {
        "SP95": "2026-06-02 07:33:24"
      }
    },
    {
      "id": "7130005",
      "lat": 44.958,
      "lon": 4.847,
      "cp": "07130",
      "ville": "CORNAS",
      "prix": {
        "Gazole": 0.002052,
        "E10": 0.00199,
        "SP98": 0.00199
      },
      "maj_gouv": {
        "Gazole": "2026-06-12 08:32:31",
        "E10": "2026-06-12 08:32:31",
        "SP98": "2026-06-12 08:32:31"
      }
    },
    {
      "id": "7430005",
      "lat": 45.255958944463,
      "lon": 4.68816473454,
      "cp": "07430",
      "ville": "Davézieux",
      "prix": {
        "Gazole": 0.0019690000000000003,
        "E85": 0.000809,
        "GPLc": 0.001095,
        "E10": 0.0019890000000000003,
        "SP98": 0.002029
      },
      "maj_gouv": {
        "Gazole": "2026-06-12 09:32:46",
        "E85": "2026-06-12 18:04:54",
        "GPLc": "2026-05-15 17:09:43",
        "E10": "2026-06-12 09:32:46",
        "SP98": "2026-06-12 09:32:46"
      }
    },
    {
      "id": "7200008",
      "lat": 44.6320217749,
      "lon": 4.37986312289,
      "cp": "07200",
      "ville": "AUBENAS",
      "prix": {
        "Gazole": 0.00191,
        "E85": 0.000839,
        "E10": 0.001924,
        "SP98": 0.00199
      },
      "maj_gouv": {
        "Gazole": "2026-06-14 00:01:00",
        "E85": "2026-06-14 00:01:00",
        "E10": "2026-06-14 00:01:00",
        "SP98": "2026-06-14 00:01:00"
      }
    },
    {
      "id": "7230001",
      "lat": 44.459,
      "lon": 4.215,
      "cp": "07230",
      "ville": "Lablachère",
      "prix": {
        "Gazole": 0.0019790000000000003,
        "E85": 0.000809,
        "E10": 0.0019190000000000001
      },
      "maj_gouv": {
        "Gazole": "2026-06-12 08:30:41",
        "E85": "2026-06-12 08:30:41",
        "E10": "2026-06-12 08:30:42"
      }
    },
    {
      "id": "7250001",
      "lat": 44.747,
      "lon": 4.745,
      "cp": "07250",
      "ville": "Le Pouzin",
      "prix": {
        "Gazole": 0.0020499999999999997,
        "SP95": 0.00199
      },
      "maj_gouv": {
        "Gazole": "2026-06-12 09:03:29",
        "SP95": "2026-06-12 09:03:30"
      }
    },
    {
      "id": "7200014",
      "lat": 44.5502236,
      "lon": 4.4159574659091,
      "cp": "07200",
      "ville": "Vogüé",
      "prix": {
        "Gazole": 0.0020369999999999997,
        "SP95": 0.0020440000000000002,
        "SP98": 0.002077
      },
      "maj_gouv": {
        "Gazole": "2026-06-10 08:28:28",
        "SP95": "2026-06-10 08:28:28",
        "SP98": "2026-06-10 08:28:28"
      }
    },
    {
      "id": "7100007",
      "lat": 45.257,
      "lon": 4.673,
      "cp": "07100",
      "ville": "Annonay",
      "prix": {
        "Gazole": 0.0019690000000000003,
        "SP95": 0.0019890000000000003,
        "SP98": 0.002029
      },
      "maj_gouv": {
        "Gazole": "2026-06-12 07:25:11",
        "SP95": "2026-06-12 07:25:11",
        "SP98": "2026-06-12 07:25:11"
      }
    },
    {
      "id": "7140002",
      "lat": 44.406,
      "lon": 4.13,
      "cp": "07140",
      "ville": "chambonas",
      "prix": {
        "Gazole": 0.001999,
        "SP95": 0.002039,
        "E85": 0.000819,
        "SP98": 0.002059
      },
      "maj_gouv": {
        "Gazole": "2026-05-30 11:32:28",
        "SP95": "2026-06-05 12:30:46",
        "E85": "2026-05-06 16:31:43",
        "SP98": "2026-06-05 12:30:46"
      }
    },
    {
      "id": "7190001",
      "lat": 44.822,
      "lon": 4.584,
      "cp": "07190",
      "ville": "Saint-Sauveur-de-Montagut",
      "prix": {
        "Gazole": 0.002069,
        "SP95": 0.0020299999999999997,
        "SP98": 0.002112
      },
      "maj_gouv": {
        "Gazole": "2026-06-02 11:15:24",
        "SP95": "2026-05-09 11:43:30",
        "SP98": "2026-05-30 15:50:58"
      }
    },
    {
      "id": "7270001",
      "lat": 44.982,
      "lon": 4.569,
      "cp": "07270",
      "ville": "LAMASTRE",
      "prix": {
        "Gazole": 0.002059,
        "SP95": 0.002069,
        "E10": 0.001999
      },
      "maj_gouv": {
        "Gazole": "2026-06-11 07:31:07",
        "SP95": "2026-06-13 07:47:02",
        "E10": "2026-05-29 07:56:09"
      }
    },
    {
      "id": "7170002",
      "lat": 44.57059,
      "lon": 4.4591,
      "cp": "07170",
      "ville": "Lavilledieu",
      "prix": {
        "Gazole": 0.002039,
        "SP95": 0.002029,
        "E85": 0.000859,
        "GPLc": 0.001029,
        "E10": 0.001999,
        "SP98": 0.002059
      },
      "maj_gouv": {
        "Gazole": "2026-06-12 15:44:03",
        "SP95": "2026-06-12 15:44:03",
        "E85": "2026-06-02 18:07:10",
        "GPLc": "2026-04-07 14:33:12",
        "E10": "2026-06-12 15:44:03",
        "SP98": "2026-06-12 15:44:03"
      }
    },
    {
      "id": "7210001",
      "lat": 44.715,
      "lon": 4.615,
      "cp": "07210",
      "ville": "ALISSAS",
      "prix": {
        "Gazole": 0.0019890000000000003,
        "SP95": 0.002039,
        "E85": 0.000799,
        "E10": 0.0019790000000000003,
        "SP98": 0.002079
      },
      "maj_gouv": {
        "Gazole": "2026-06-06 07:05:27",
        "SP95": "2026-06-06 07:05:27",
        "E85": "2026-05-20 08:48:24",
        "E10": "2026-06-06 07:05:27",
        "SP98": "2026-06-06 07:05:27"
      }
    },
    {
      "id": "7300008",
      "lat": 45.072586854366,
      "lon": 4.8210354374187,
      "cp": "07300",
      "ville": "TOURNON",
      "prix": {
        "Gazole": 0.002039,
        "SP95": 0.002039,
        "E10": 0.002009
      },
      "maj_gouv": {
        "Gazole": "2026-06-12 23:54:00",
        "SP95": "2026-06-12 23:54:00",
        "E10": "2026-06-12 23:54:00"
      }
    },
    {
      "id": "7320004",
      "lat": 45.012764000000004,
      "lon": 4.387518,
      "cp": "07320",
      "ville": "Saint-Agrève",
      "prix": {
        "Gazole": 0.001999,
        "SP95": 0.001999,
        "SP98": 0.002139
      },
      "maj_gouv": {
        "Gazole": "2026-06-11 06:22:16",
        "SP95": "2026-06-03 14:52:54",
        "SP98": "2026-06-03 14:52:54"
      }
    },
    {
      "id": "7120005",
      "lat": 44.472,
      "lon": 4.356,
      "cp": "07120",
      "ville": "Pradons",
      "prix": {
        "Gazole": 0.002005,
        "E10": 0.00199,
        "SP98": 0.00199
      },
      "maj_gouv": {
        "Gazole": "2026-06-13 12:30:40",
        "E10": "2026-06-13 12:30:41",
        "SP98": "2026-06-13 12:30:41"
      }
    },
    {
      "id": "7160003",
      "lat": 44.914,
      "lon": 4.442,
      "cp": "07160",
      "ville": "Le Cheylard",
      "prix": {
        "Gazole": 0.001999,
        "SP95": 0.002099,
        "SP98": 0.002169
      },
      "maj_gouv": {
        "Gazole": "2026-06-04 08:09:15",
        "SP95": "2026-06-04 08:09:15",
        "SP98": "2026-06-04 08:09:15"
      }
    },
    {
      "id": "7000003",
      "lat": 44.729,
      "lon": 4.569,
      "cp": "07000",
      "ville": "VEYRAS",
      "prix": {
        "Gazole": 0.002049,
        "E10": 0.001999,
        "SP98": 0.002079
      },
      "maj_gouv": {
        "Gazole": "2026-06-09 10:53:02",
        "E10": "2026-06-09 10:53:02",
        "SP98": "2026-06-09 10:53:02"
      }
    },
    {
      "id": "7400005",
      "lat": 44.535469322758,
      "lon": 4.6877142394562,
      "cp": "07400",
      "ville": "LE TEIL",
      "prix": {
        "Gazole": 0.001999,
        "E85": 0.000798,
        "E10": 0.0019190000000000001
      },
      "maj_gouv": {
        "Gazole": "2026-06-11 10:51:33",
        "E85": "2026-05-27 09:15:08",
        "E10": "2026-06-11 10:51:33"
      }
    },
    {
      "id": "7200006",
      "lat": 44.599599809299995,
      "lon": 4.38424813182,
      "cp": "07200",
      "ville": "SAINT-ÉTIENNE-DE-FONTBELLON",
      "prix": {
        "Gazole": 0.001949,
        "SP95": 0.001975,
        "GPLc": 0.001064,
        "E10": 0.001899,
        "SP98": 0.0020150000000000003
      },
      "maj_gouv": {
        "Gazole": "2026-06-10 08:59:53",
        "SP95": "2026-06-12 10:53:56",
        "GPLc": "2026-05-28 12:43:00",
        "E10": "2026-06-10 08:59:53",
        "SP98": "2026-06-10 08:59:53"
      }
    },
    {
      "id": "7400002",
      "lat": 44.559,
      "lon": 4.69,
      "cp": "07400",
      "ville": "Le Teil",
      "prix": {
        "Gazole": 0.0019790000000000003,
        "E85": 0.000809,
        "E10": 0.001909,
        "SP98": 0.002029
      },
      "maj_gouv": {
        "Gazole": "2026-06-12 00:14:00",
        "E85": "2026-06-12 00:14:00",
        "E10": "2026-06-12 00:14:00",
        "SP98": "2026-06-10 00:15:00"
      }
    },
    {
      "id": "7380001",
      "lat": 44.644662804300005,
      "lon": 4.32898392299,
      "cp": "07380",
      "ville": "Lalevade-d'ardèche",
      "prix": {},
      "maj_gouv": {}
    },
    {
      "id": "7100008",
      "lat": 45.241,
      "lon": 4.69,
      "cp": "07100",
      "ville": "ANNONAY",
      "prix": {
        "Gazole": 0.00206,
        "SP95": 0.00207,
        "E85": 0.00091
      },
      "maj_gouv": {
        "Gazole": "2026-06-11 14:55:56",
        "SP95": "2026-06-11 14:55:56",
        "E85": "2026-06-11 14:55:56"
      }
    },
    {
      "id": "7150003",
      "lat": 44.407,
      "lon": 4.394,
      "cp": "07150",
      "ville": "VALLON-PONT-D'ARC",
      "prix": {
        "Gazole": 0.001999,
        "SP95": 0.001999,
        "E10": 0.001941,
        "SP98": 0.002039
      },
      "maj_gouv": {
        "Gazole": "2026-06-13 11:39:03",
        "SP95": "2026-06-13 11:39:04",
        "E10": "2026-06-13 11:39:04",
        "SP98": "2026-06-13 11:39:04"
      }
    },
    {
      "id": "7470001",
      "lat": 44.801,
      "lon": 3.972,
      "cp": "07470",
      "ville": "Coucouron",
      "prix": {
        "Gazole": 0.002029,
        "SP95": 0.002069,
        "E85": 0.000859,
        "E10": 0.002019
      },
      "maj_gouv": {
        "Gazole": "2026-06-11 09:14:16",
        "SP95": "2026-06-11 09:14:16",
        "E85": "2026-06-11 09:14:16",
        "E10": "2026-06-11 09:14:16"
      }
    },
    {
      "id": "7500002",
      "lat": 44.919774904095995,
      "lon": 4.8614537844062005,
      "cp": "07130",
      "ville": "Soyons",
      "prix": {
        "Gazole": 0.001941,
        "E85": 0.000809,
        "E10": 0.0019199999999999998,
        "SP98": 0.002064
      },
      "maj_gouv": {
        "Gazole": "2026-06-13 17:43:04",
        "E85": "2026-06-11 18:10:04",
        "E10": "2026-06-13 18:01:47",
        "SP98": "2026-06-13 17:43:04"
      }
    },
    {
      "id": "7200011",
      "lat": 44.648,
      "lon": 4.44,
      "cp": "07200",
      "ville": "Vesseaux",
      "prix": {
        "Gazole": 0.002079,
        "SP95": 0.002114
      },
      "maj_gouv": {
        "Gazole": "2026-06-12 12:06:45",
        "SP95": "2026-06-12 12:06:45"
      }
    },
    {
      "id": "7250004",
      "lat": 44.75628,
      "lon": 4.75673,
      "cp": "07250",
      "ville": "LE POUZIN",
      "prix": {
        "Gazole": 0.002109,
        "SP95": 0.002049,
        "GPLc": 0.001095,
        "SP98": 0.002079
      },
      "maj_gouv": {
        "Gazole": "2026-06-12 08:50:33",
        "SP95": "2026-06-12 08:50:33",
        "GPLc": "2026-06-11 09:41:34",
        "SP98": "2026-06-12 08:50:33"
      }
    },
    {
      "id": "7800001",
      "lat": 44.863,
      "lon": 4.836,
      "cp": "07800",
      "ville": "CHARMES-SUR-RHôNE",
      "prix": {
        "Gazole": 0.00206,
        "E10": 0.00199,
        "SP98": 0.00199
      },
      "maj_gouv": {
        "Gazole": "2026-06-12 09:04:26",
        "E10": "2026-06-12 09:04:26",
        "SP98": "2026-06-12 09:04:26"
      }
    },
    {
      "id": "7800008",
      "lat": 44.857,
      "lon": 4.83,
      "cp": "07800",
      "ville": "Saint-Georges-les-Bains",
      "prix": {
        "Gazole": 0.001999,
        "E10": 0.001999,
        "SP98": 0.002299
      },
      "maj_gouv": {
        "Gazole": "2026-06-11 09:52:53",
        "E10": "2026-06-04 11:45:02",
        "SP98": "2026-06-03 09:00:06"
      }
    },
    {
      "id": "7300005",
      "lat": 45.055,
      "lon": 4.832,
      "cp": "07300",
      "ville": "Tournon-sur-Rhône",
      "prix": {
        "Gazole": 0.0019690000000000003,
        "SP95": 0.002043,
        "E10": 0.001907
      },
      "maj_gouv": {
        "Gazole": "2026-06-14 01:17:00",
        "SP95": "2026-06-14 01:17:00",
        "E10": "2026-06-14 01:17:00"
      }
    },
    {
      "id": "7170003",
      "lat": 44.572,
      "lon": 4.512,
      "cp": "07170",
      "ville": "VILLENEUVE DE BERG",
      "prix": {
        "Gazole": 0.0019890000000000003,
        "E85": 0.000798,
        "E10": 0.0019590000000000002,
        "SP98": 0.001999
      },
      "maj_gouv": {
        "Gazole": "2026-06-13 13:06:24",
        "E85": "2026-05-29 09:13:57",
        "E10": "2026-06-12 10:54:07",
        "SP98": "2026-06-10 10:13:30"
      }
    },
    {
      "id": "7580002",
      "lat": 44.584,
      "lon": 4.532,
      "cp": "07580",
      "ville": "Saint-Jean-le-Centenier",
      "prix": {
        "Gazole": 0.002109,
        "E10": 0.0021190000000000002,
        "SP98": 0.002179
      },
      "maj_gouv": {
        "Gazole": "2026-05-27 10:57:04",
        "E10": "2026-05-27 10:57:04",
        "SP98": "2026-05-27 10:57:04"
      }
    },
    {
      "id": "7140001",
      "lat": 44.406,
      "lon": 4.137,
      "cp": "07140",
      "ville": "LES VANS",
      "prix": {
        "Gazole": 0.001999,
        "SP95": 0.002039,
        "SP98": 0.002059
      },
      "maj_gouv": {
        "Gazole": "2026-06-01 08:36:44",
        "SP95": "2026-06-11 08:00:00",
        "SP98": "2026-06-11 08:00:00"
      }
    },
    {
      "id": "7170001",
      "lat": 44.57063,
      "lon": 4.51054,
      "cp": "07170",
      "ville": "VILLENEUVE-DE-BERG",
      "prix": {
        "Gazole": 0.0019950000000000002,
        "E10": 0.00199
      },
      "maj_gouv": {
        "Gazole": "2026-06-13 10:23:13",
        "E10": "2026-06-13 10:23:13"
      }
    },
    {
      "id": "7150001",
      "lat": 44.397,
      "lon": 4.382,
      "cp": "07150",
      "ville": "Salavas",
      "prix": {
        "Gazole": 0.002047,
        "SP95": 0.00199
      },
      "maj_gouv": {
        "Gazole": "2026-06-10 15:52:13",
        "SP95": "2026-06-04 10:49:05"
      }
    },
    {
      "id": "7160001",
      "lat": 44.912,
      "lon": 4.441,
      "cp": "07160",
      "ville": "Le Cheylard",
      "prix": {
        "Gazole": 0.001999,
        "SP95": 0.002099,
        "E85": 0.000799,
        "E10": 0.001999,
        "SP98": 0.002169
      },
      "maj_gouv": {
        "Gazole": "2026-06-04 06:19:44",
        "SP95": "2026-06-04 06:19:44",
        "E85": "2026-06-04 06:19:44",
        "E10": "2026-05-29 09:31:43",
        "SP98": "2026-06-04 06:19:45"
      }
    },
    {
      "id": "7240002",
      "lat": 44.89773,
      "lon": 4.64767,
      "cp": "07240",
      "ville": "Vernoux-en-Vivarais",
      "prix": {
        "Gazole": 0.0020710000000000004,
        "SP95": 0.00209
      },
      "maj_gouv": {
        "Gazole": "2026-06-05 14:21:01",
        "SP95": "2026-06-05 14:21:01"
      }
    },
    {
      "id": "7260001",
      "lat": 44.479,
      "lon": 4.248,
      "cp": "07260",
      "ville": "JOYEUSE",
      "prix": {
        "Gazole": 0.002105,
        "SP95": 0.002039,
        "SP98": 0.00212
      },
      "maj_gouv": {
        "Gazole": "2026-06-05 10:15:40",
        "SP95": "2026-06-05 10:15:40",
        "SP98": "2026-06-05 10:15:40"
      }
    },
    {
      "id": "7200010",
      "lat": 44.605,
      "lon": 4.387,
      "cp": "07200",
      "ville": "Aubenas",
      "prix": {
        "Gazole": 0.001999,
        "SP95": 0.00199,
        "E85": 0.00087,
        "SP98": 0.002065
      },
      "maj_gouv": {
        "Gazole": "2026-06-10 08:37:13",
        "SP95": "2026-06-06 08:34:06",
        "E85": "2026-06-03 08:25:30",
        "SP98": "2026-06-10 08:37:13"
      }
    },
    {
      "id": "7300001",
      "lat": 45.055,
      "lon": 4.839,
      "cp": "07300",
      "ville": "TOURNON-SUR-RHôNE",
      "prix": {
        "Gazole": 0.0019690000000000003,
        "SP95": 0.001999,
        "E85": 0.00085,
        "E10": 0.001899,
        "SP98": 0.0020499999999999997
      },
      "maj_gouv": {
        "Gazole": "2026-06-12 10:30:56",
        "SP95": "2026-06-12 10:30:56",
        "E85": "2026-06-04 13:02:56",
        "E10": "2026-06-12 10:30:57",
        "SP98": "2026-06-12 10:30:57"
      }
    },
    {
      "id": "7410002",
      "lat": 45.089944819115,
      "lon": 4.6296841601189,
      "cp": "07410",
      "ville": "Saint-Félicien",
      "prix": {
        "Gazole": 0.0020299999999999997,
        "SP95": 0.00204,
        "SP98": 0.002108
      },
      "maj_gouv": {
        "Gazole": "2026-06-05 09:36:34",
        "SP95": "2026-06-05 09:36:34",
        "SP98": "2026-05-26 16:05:35"
      }
    },
    {
      "id": "7330001",
      "lat": 44.66704,
      "lon": 4.16313,
      "cp": "07330",
      "ville": "Barnas",
      "prix": {
        "Gazole": 0.002007,
        "E10": 0.00199,
        "SP98": 0.00199
      },
      "maj_gouv": {
        "Gazole": "2026-06-13 05:54:09",
        "E10": "2026-06-13 05:54:10",
        "SP98": "2026-06-13 05:54:10"
      }
    },
    {
      "id": "7200003",
      "lat": 44.614,
      "lon": 4.406,
      "cp": "07200",
      "ville": "AUBENAS",
      "prix": {
        "Gazole": 0.002059,
        "GPLc": 0.001095,
        "E10": 0.002019,
        "SP98": 0.002059
      },
      "maj_gouv": {
        "Gazole": "2026-06-12 20:31:00",
        "GPLc": "2026-06-11 20:30:00",
        "E10": "2026-06-12 20:31:00",
        "SP98": "2026-06-12 20:31:00"
      }
    },
    {
      "id": "7100002",
      "lat": 45.244,
      "lon": 4.668,
      "cp": "07100",
      "ville": "ANNONAY",
      "prix": {
        "Gazole": 0.001965,
        "E85": 0.000799,
        "E10": 0.001949,
        "SP98": 0.002049
      },
      "maj_gouv": {
        "Gazole": "2026-06-12 11:38:15",
        "E85": "2026-05-28 08:05:59",
        "E10": "2026-06-11 15:52:39",
        "SP98": "2026-06-11 15:52:40"
      }
    },
    {
      "id": "7400003",
      "lat": 44.6,
      "lon": 4.717,
      "cp": "07400",
      "ville": "ROCHEMAURE",
      "prix": {
        "Gazole": 0.002085,
        "E10": 0.00199,
        "SP98": 0.00199
      },
      "maj_gouv": {
        "Gazole": "2026-06-11 09:20:12",
        "E10": "2026-06-11 09:20:12",
        "SP98": "2026-06-11 09:20:12"
      }
    },
    {
      "id": "7000002",
      "lat": 44.727,
      "lon": 4.597,
      "cp": "07000",
      "ville": "PRIVAS",
      "prix": {
        "Gazole": 0.001951,
        "E85": 0.000798,
        "E10": 0.002009,
        "SP98": 0.002129
      },
      "maj_gouv": {
        "Gazole": "2026-06-09 16:16:15",
        "E85": "2026-06-05 09:32:11",
        "E10": "2026-06-05 09:32:11",
        "SP98": "2026-06-05 09:32:11"
      }
    },
    {
      "id": "7110004",
      "lat": 44.538,
      "lon": 4.293,
      "cp": "07110",
      "ville": "Largentière",
      "prix": {
        "Gazole": 0.0019790000000000003,
        "E10": 0.001939,
        "SP98": 0.002049
      },
      "maj_gouv": {
        "Gazole": "2026-06-11 05:00:00",
        "E10": "2026-06-11 05:00:00",
        "SP98": "2026-06-11 05:00:00"
      }
    },
    {
      "id": "7340002",
      "lat": 45.257,
      "lon": 4.696,
      "cp": "07430",
      "ville": "Davézieux",
      "prix": {
        "Gazole": 0.001965,
        "E85": 0.000819,
        "E10": 0.0019590000000000002
      },
      "maj_gouv": {
        "Gazole": "2026-06-12 11:28:14",
        "E85": "2026-06-12 11:28:14",
        "E10": "2026-06-12 11:28:14"
      }
    },
    {
      "id": "7200007",
      "lat": 44.615471044958,
      "lon": 4.407391560974101,
      "cp": "07200",
      "ville": "Aubenas",
      "prix": {
        "Gazole": 0.001982,
        "E10": 0.001921,
        "SP98": 0.0020150000000000003
      },
      "maj_gouv": {
        "Gazole": "2026-06-13 09:38:59",
        "E10": "2026-06-13 09:38:59",
        "SP98": "2026-06-13 09:38:59"
      }
    },
    {
      "id": "7220003",
      "lat": 44.475896399999996,
      "lon": 4.692095800000001,
      "cp": "07220",
      "ville": "Viviers",
      "prix": {
        "Gazole": 0.0019790000000000003,
        "E85": 0.000859,
        "E10": 0.001899,
        "SP98": 0.002029
      },
      "maj_gouv": {
        "Gazole": "2026-06-09 10:00:05",
        "E85": "2026-05-29 14:09:19",
        "E10": "2026-06-10 15:31:07",
        "SP98": "2026-06-08 08:13:17"
      }
    },
    {
      "id": "7200015",
      "lat": 44.611234449354995,
      "lon": 4.4095038306401,
      "cp": "07200",
      "ville": "Saint-Didier-sous-Aubenas",
      "prix": {
        "Gazole": 0.001982,
        "E85": 0.000819,
        "E10": 0.001921
      },
      "maj_gouv": {
        "Gazole": "2026-06-13 08:06:34",
        "E85": "2026-04-21 08:50:53",
        "E10": "2026-06-12 13:19:06"
      }
    },
    {
      "id": "7800003",
      "lat": 44.807,
      "lon": 4.792,
      "cp": "07800",
      "ville": "LA VOULTE-SUR-RHôNE",
      "prix": {
        "Gazole": 0.0019690000000000003,
        "E10": 0.001909,
        "SP98": 0.002019
      },
      "maj_gouv": {
        "Gazole": "2026-06-12 09:20:46",
        "E10": "2026-06-12 09:20:46",
        "SP98": "2026-06-12 09:20:46"
      }
    },
    {
      "id": "7260002",
      "lat": 44.483,
      "lon": 4.267,
      "cp": "07260",
      "ville": "ROSIèRES",
      "prix": {
        "Gazole": 0.0019790000000000003,
        "E85": 0.000809,
        "GPLc": 0.001065,
        "E10": 0.0019190000000000001,
        "SP98": 0.002029
      },
      "maj_gouv": {
        "Gazole": "2026-06-12 08:00:00",
        "E85": "2026-06-12 08:00:00",
        "GPLc": "2026-04-10 03:00:00",
        "E10": "2026-06-12 08:00:00",
        "SP98": "2026-06-10 06:58:04"
      }
    },
    {
      "id": "7340001",
      "lat": 45.309,
      "lon": 4.742,
      "cp": "07340",
      "ville": "FéLINES",
      "prix": {
        "Gazole": 0.001996,
        "E10": 0.00199,
        "SP98": 0.00199
      },
      "maj_gouv": {
        "Gazole": "2026-06-13 07:00:00",
        "E10": "2026-06-11 06:30:00",
        "SP98": "2026-06-10 08:46:38"
      }
    },
    {
      "id": "7120004",
      "lat": 44.41,
      "lon": 4.294,
      "cp": "07120",
      "ville": "Grospierres",
      "prix": {
        "Gazole": 0.00209,
        "SP95": 0.00199
      },
      "maj_gouv": {
        "Gazole": "2026-06-03 09:05:38",
        "SP95": "2026-06-03 09:05:38"
      }
    },
    {
      "id": "7800007",
      "lat": 44.81,
      "lon": 4.787,
      "cp": "07800",
      "ville": "LA VOULTE SUR RHONE",
      "prix": {
        "Gazole": 0.0019790000000000003,
        "E10": 0.0019190000000000001,
        "SP98": 0.002029
      },
      "maj_gouv": {
        "Gazole": "2026-06-12 11:40:00",
        "E10": "2026-06-12 11:40:00",
        "SP98": "2026-06-12 11:40:00"
      }
    },
    {
      "id": "7190002",
      "lat": 44.819,
      "lon": 4.593,
      "cp": "07190",
      "ville": "ST SAUVEUR DE MONTAGUT",
      "prix": {
        "Gazole": 0.002109,
        "SP95": 0.002049
      },
      "maj_gouv": {
        "Gazole": "2026-06-11 11:40:11",
        "SP95": "2026-06-12 17:43:54"
      }
    },
    {
      "id": "7200016",
      "lat": 44.63203904349,
      "lon": 4.4218574056,
      "cp": "07200",
      "ville": "ST. PRIVAT",
      "prix": {
        "Gazole": 0.002099,
        "SP98": 0.00199
      },
      "maj_gouv": {
        "Gazole": "2026-06-09 07:54:51",
        "SP98": "2026-06-09 07:54:51"
      }
    },
    {
      "id": "7300003",
      "lat": 45.076,
      "lon": 4.814,
      "cp": "07300",
      "ville": "SAINT-JEAN-DE-MUZOLS",
      "prix": {
        "Gazole": 0.001976,
        "E85": 0.000809,
        "E10": 0.0019039999999999999,
        "SP98": 0.00202
      },
      "maj_gouv": {
        "Gazole": "2026-06-12 08:32:40",
        "E85": "2026-06-11 08:26:35",
        "E10": "2026-06-11 08:26:35",
        "SP98": "2026-06-11 08:26:35"
      }
    },
    {
      "id": "7700004",
      "lat": 44.382035163061005,
      "lon": 4.6416007385629,
      "cp": "07700",
      "ville": "Bourg-Saint-Andéol",
      "prix": {
        "Gazole": 0.002019,
        "E85": 0.000798,
        "E10": 0.001939,
        "SP98": 0.002049
      },
      "maj_gouv": {
        "Gazole": "2026-06-10 09:01:50",
        "E85": "2026-06-09 08:37:21",
        "E10": "2026-06-09 08:37:21",
        "SP98": "2026-06-09 08:37:21"
      }
    },
    {
      "id": "7400006",
      "lat": 44.61,
      "lon": 4.725,
      "cp": "07400",
      "ville": "MEYSSE",
      "prix": {
        "Gazole": 0.0019790000000000003,
        "E85": 0.000809,
        "E10": 0.001909,
        "SP98": 0.002029
      },
      "maj_gouv": {
        "Gazole": "2026-06-12 11:06:25",
        "E85": "2026-06-12 11:06:25",
        "E10": "2026-06-12 11:06:25",
        "SP98": "2026-06-12 11:06:25"
      }
    },
    {
      "id": "7300006",
      "lat": 45.057,
      "lon": 4.84,
      "cp": "07300",
      "ville": "Tournon-sur-Rhône",
      "prix": {
        "Gazole": 0.001991,
        "E10": 0.001987,
        "SP98": 0.00199
      },
      "maj_gouv": {
        "Gazole": "2026-06-14 00:01:00",
        "E10": "2026-06-14 00:01:00",
        "SP98": "2026-06-14 00:01:00"
      }
    },
    {
      "id": "7110006",
      "lat": 44.537373090372995,
      "lon": 4.3467285781021,
      "cp": "07110",
      "ville": "Vinezac",
      "prix": {
        "Gazole": 0.001993,
        "E10": 0.001999,
        "SP98": 0.002079
      },
      "maj_gouv": {
        "Gazole": "2026-06-08 10:49:10",
        "E10": "2026-06-08 10:49:10",
        "SP98": "2026-06-08 10:49:11"
      }
    },
    {
      "id": "7130006",
      "lat": 44.943,
      "lon": 4.859,
      "cp": "07130",
      "ville": "SAINT PERAY",
      "prix": {
        "Gazole": 0.002059,
        "GPLc": 0.001095,
        "E10": 0.002019,
        "SP98": 0.002069
      },
      "maj_gouv": {
        "Gazole": "2026-06-12 20:00:00",
        "GPLc": "2026-05-06 20:00:00",
        "E10": "2026-06-12 20:00:00",
        "SP98": "2026-06-12 20:00:00"
      }
    },
    {
      "id": "7120001",
      "lat": 44.4434055985,
      "lon": 4.348132517390001,
      "cp": "07120",
      "ville": "RUOMS",
      "prix": {
        "Gazole": 0.001994,
        "SP95": 0.001971,
        "E85": 0.000833,
        "E10": 0.001944,
        "SP98": 0.002032
      },
      "maj_gouv": {
        "Gazole": "2026-06-13 07:49:37",
        "SP95": "2026-06-13 07:49:37",
        "E85": "2026-06-10 07:51:05",
        "E10": "2026-06-12 07:49:05",
        "SP98": "2026-06-13 07:49:37"
      }
    },
    {
      "id": "7700003",
      "lat": 44.305,
      "lon": 4.612,
      "cp": "07700",
      "ville": "Saint-Just-d'Ardèche",
      "prix": {
        "Gazole": 0.002059,
        "SP95": 0.002089,
        "E10": 0.0019950000000000002
      },
      "maj_gouv": {
        "Gazole": "2026-06-06 09:43:56",
        "SP95": "2026-06-02 11:59:40",
        "E10": "2026-06-02 11:59:41"
      }
    },
    {
      "id": "7500001",
      "lat": 44.93828,
      "lon": 4.86654,
      "cp": "07500",
      "ville": "Guilherand-Granges",
      "prix": {
        "Gazole": 0.001931,
        "E85": 0.000809,
        "E10": 0.0019,
        "SP98": 0.002064
      },
      "maj_gouv": {
        "Gazole": "2026-06-13 10:24:00",
        "E85": "2026-06-12 12:22:16",
        "E10": "2026-06-13 10:24:00",
        "SP98": "2026-06-13 10:24:00"
      }
    },
    {
      "id": "7430006",
      "lat": 45.25171400000001,
      "lon": 4.696600999999999,
      "cp": "07430",
      "ville": "DAVEZIEUX",
      "prix": {
        "Gazole": 0.002059,
        "E10": 0.002019,
        "SP98": 0.002059
      },
      "maj_gouv": {
        "Gazole": "2026-06-12 20:00:00",
        "E10": "2026-06-12 20:00:00",
        "SP98": "2026-06-12 20:00:00"
      }
    }
  ]
}