{
  "departement": "44",
  "date": "2026-06-14",
  "stations": [
    {
      "id": "44260003",
      "lat": 47.35931,
      "lon": -1.86116,
      "cp": "44260",
      "ville": "Malville",
      "prix": {
        "Gazole": 0.001999,
        "SP95": 0.001999,
        "SP98": 0.0020510000000000003
      },
      "maj_gouv": {
        "Gazole": "2026-06-03 18:45:11",
        "SP95": "2026-06-03 18:45:30",
        "SP98": "2026-06-03 18:45:49"
      }
    },
    {
      "id": "44720005",
      "lat": 47.386232393331,
      "lon": -2.2034903965863997,
      "cp": "44720",
      "ville": "Saint-Joachim",
      "prix": {
        "Gazole": 0.002019,
        "SP95": 0.001999,
        "SP98": 0.002059
      },
      "maj_gouv": {
        "Gazole": "2026-06-09 09:30:00",
        "SP95": "2026-06-09 09:30:00",
        "SP98": "2026-06-09 09:30:00"
      }
    },
    {
      "id": "44220005",
      "lat": 47.21363,
      "lon": -1.72222,
      "cp": "44220",
      "ville": "COUERON",
      "prix": {
        "Gazole": 0.001949,
        "SP95": 0.0019590000000000002,
        "E10": 0.001899
      },
      "maj_gouv": {
        "Gazole": "2026-06-12 08:23:15",
        "SP95": "2026-06-12 08:23:15",
        "E10": "2026-06-12 08:23:15"
      }
    },
    {
      "id": "44120005",
      "lat": 47.173,
      "lon": -1.474,
      "cp": "44120",
      "ville": "VERTOU",
      "prix": {
        "Gazole": 0.001885,
        "E85": 0.000812,
        "E10": 0.001883,
        "SP98": 0.00199
      },
      "maj_gouv": {
        "Gazole": "2026-06-14 00:01:00",
        "E85": "2026-06-14 00:01:00",
        "E10": "2026-06-14 00:01:00",
        "SP98": "2026-06-14 00:01:00"
      }
    },
    {
      "id": "44780002",
      "lat": 47.482822997313995,
      "lon": -2.1613944821039,
      "cp": "44780",
      "ville": "MISSILLAC",
      "prix": {
        "Gazole": 0.0020729999999999998,
        "E10": 0.0019890000000000003
      },
      "maj_gouv": {
        "Gazole": "2026-06-08 11:22:53",
        "E10": "2026-06-08 11:22:53"
      }
    },
    {
      "id": "44270001",
      "lat": 46.999,
      "lon": -1.817,
      "cp": "44270",
      "ville": "MACHECOUL",
      "prix": {
        "Gazole": 0.0019479999999999999,
        "SP95": 0.0019590000000000002,
        "E85": 0.0007790000000000001,
        "SP98": 0.0019950000000000002
      },
      "maj_gouv": {
        "Gazole": "2026-06-13 08:50:00",
        "SP95": "2026-06-04 08:36:55",
        "E85": "2026-06-10 08:35:51",
        "SP98": "2026-06-10 08:35:51"
      }
    },
    {
      "id": "44110002",
      "lat": 47.705,
      "lon": -1.389,
      "cp": "44110",
      "ville": "CHâTEAUBRIANT",
      "prix": {
        "Gazole": 0.001974,
        "E10": 0.001963
      },
      "maj_gouv": {
        "Gazole": "2026-06-13 08:59:11",
        "E10": "2026-06-13 08:59:11"
      }
    },
    {
      "id": "44360007",
      "lat": 47.278,
      "lon": -1.721,
      "cp": "44360",
      "ville": "Saint-Étienne-de-Montluc",
      "prix": {
        "Gazole": 0.001939,
        "E85": 0.000759,
        "E10": 0.001899,
        "SP98": 0.0019790000000000003
      },
      "maj_gouv": {
        "Gazole": "2026-06-12 09:27:20",
        "E85": "2026-06-12 09:27:20",
        "E10": "2026-06-12 09:27:20",
        "SP98": "2026-06-12 09:27:20"
      }
    },
    {
      "id": "44400006",
      "lat": 47.18,
      "lon": -1.533,
      "cp": "44400",
      "ville": "REZé",
      "prix": {
        "Gazole": 0.0019890000000000003,
        "E10": 0.001939,
        "SP98": 0.001999
      },
      "maj_gouv": {
        "Gazole": "2026-06-11 07:28:07",
        "E10": "2026-06-11 07:28:07",
        "SP98": "2026-06-11 07:28:07"
      }
    },
    {
      "id": "44530003",
      "lat": 47.50937,
      "lon": -2.04035,
      "cp": "44530",
      "ville": "Saint-Gildas-des-Bois",
      "prix": {
        "Gazole": 0.0019590000000000002,
        "SP95": 0.0019890000000000003,
        "SP98": 0.002019
      },
      "maj_gouv": {
        "Gazole": "2026-06-12 08:32:43",
        "SP95": "2026-06-12 08:32:43",
        "SP98": "2026-06-12 08:32:43"
      }
    },
    {
      "id": "44118003",
      "lat": 47.09,
      "lon": -1.611,
      "cp": "44118",
      "ville": "La Chevrolière",
      "prix": {
        "Gazole": 0.002099,
        "SP95": 0.002099,
        "SP98": 0.0022589999999999997
      },
      "maj_gouv": {
        "Gazole": "2026-05-26 12:41:42",
        "SP95": "2026-05-26 12:41:42",
        "SP98": "2026-05-26 12:41:42"
      }
    },
    {
      "id": "44700005",
      "lat": 47.24,
      "lon": -1.59,
      "cp": "44700",
      "ville": "ORVAULT",
      "prix": {
        "Gazole": 0.0019890000000000003,
        "E10": 0.0019590000000000002,
        "SP98": 0.002109
      },
      "maj_gouv": {
        "Gazole": "2026-06-12 11:13:06",
        "E10": "2026-06-12 11:13:06",
        "SP98": "2026-06-12 11:13:06"
      }
    },
    {
      "id": "44430003",
      "lat": 47.237,
      "lon": -1.35,
      "cp": "44430",
      "ville": "Le Loroux-Bottereau",
      "prix": {
        "Gazole": 0.001999,
        "E10": 0.0019590000000000002,
        "SP98": 0.002069
      },
      "maj_gouv": {
        "Gazole": "2026-06-02 07:14:49",
        "E10": "2026-06-02 07:14:49",
        "SP98": "2026-06-02 07:14:49"
      }
    },
    {
      "id": "44300020",
      "lat": 47.26,
      "lon": -1.576,
      "cp": "44300",
      "ville": "Nantes",
      "prix": {
        "Gazole": 0.002099,
        "E85": 0.000945,
        "GPLc": 0.001089,
        "E10": 0.002059,
        "SP98": 0.002159
      },
      "maj_gouv": {
        "Gazole": "2026-06-12 07:54:34",
        "E85": "2026-06-12 07:54:34",
        "GPLc": "2026-06-12 07:54:34",
        "E10": "2026-06-12 07:54:34",
        "SP98": "2026-06-12 07:54:34"
      }
    },
    {
      "id": "44700003",
      "lat": 47.24624,
      "lon": -1.58938,
      "cp": "44700",
      "ville": "Orvault",
      "prix": {
        "Gazole": 0.002009,
        "E85": 0.000798,
        "E10": 0.001949,
        "SP98": 0.0021190000000000002
      },
      "maj_gouv": {
        "Gazole": "2026-06-09 07:23:07",
        "E85": "2026-06-02 07:01:39",
        "E10": "2026-06-02 07:01:39",
        "SP98": "2026-06-09 07:23:07"
      }
    },
    {
      "id": "44630002",
      "lat": 47.5425428,
      "lon": -1.8827017000000001,
      "cp": "44630",
      "ville": "Plessé",
      "prix": {
        "Gazole": 0.0020459999999999996,
        "SP95": 0.001993,
        "SP98": 0.002078
      },
      "maj_gouv": {
        "Gazole": "2026-06-11 08:33:23",
        "SP95": "2026-06-11 08:33:23",
        "SP98": "2026-06-11 08:33:24"
      }
    },
    {
      "id": "44850002",
      "lat": 47.361,
      "lon": -1.408,
      "cp": "44850",
      "ville": "SAINT-MARS-DU-DéSERT",
      "prix": {
        "Gazole": 0.0019690000000000003,
        "SP95": 0.0019690000000000003,
        "SP98": 0.001999
      },
      "maj_gouv": {
        "Gazole": "2026-06-11 09:32:04",
        "SP95": "2026-06-11 09:32:04",
        "SP98": "2026-06-11 09:32:05"
      }
    },
    {
      "id": "44880001",
      "lat": 47.26,
      "lon": -1.655,
      "cp": "44880",
      "ville": "SAUTRON",
      "prix": {
        "Gazole": 0.0019690000000000003,
        "SP95": 0.0019790000000000003,
        "E85": 0.0008309999999999999
      },
      "maj_gouv": {
        "Gazole": "2026-06-12 08:46:35",
        "SP95": "2026-06-12 08:46:35",
        "E85": "2026-06-10 09:12:12"
      }
    },
    {
      "id": "44120007",
      "lat": 47.187,
      "lon": -1.485,
      "cp": "44120",
      "ville": "VERTOU",
      "prix": {
        "Gazole": 0.0019790000000000003,
        "GPLc": 0.000999,
        "E10": 0.0019190000000000001,
        "SP98": 0.001999
      },
      "maj_gouv": {
        "Gazole": "2026-06-11 15:58:16",
        "GPLc": "2026-06-11 15:58:16",
        "E10": "2026-06-11 15:58:16",
        "SP98": "2026-06-11 15:58:16"
      }
    },
    {
      "id": "44830002",
      "lat": 47.144,
      "lon": -1.679,
      "cp": "44830",
      "ville": "BOUAYE",
      "prix": {
        "Gazole": 0.0019790000000000003,
        "SP95": 0.0019890000000000003,
        "SP98": 0.002029
      },
      "maj_gouv": {
        "Gazole": "2026-06-10 10:47:10",
        "SP95": "2026-06-12 11:24:31",
        "SP98": "2026-06-12 11:24:55"
      }
    },
    {
      "id": "44810001",
      "lat": 47.41492,
      "lon": -1.66024,
      "cp": "44810",
      "ville": "Héric",
      "prix": {
        "Gazole": 0.0019790000000000003,
        "E10": 0.001929,
        "SP98": 0.002029
      },
      "maj_gouv": {
        "Gazole": "2026-06-11 09:00:00",
        "E10": "2026-06-11 09:00:00",
        "SP98": "2026-06-11 09:00:00"
      }
    },
    {
      "id": "44400009",
      "lat": 47.16,
      "lon": -1.551,
      "cp": "44400",
      "ville": "REZE",
      "prix": {
        "Gazole": 0.001885,
        "E85": 0.0008129999999999999,
        "GPLc": 0.000979,
        "E10": 0.0018839999999999998,
        "SP98": 0.00199
      },
      "maj_gouv": {
        "Gazole": "2026-06-14 00:01:00",
        "E85": "2026-06-14 00:01:00",
        "GPLc": "2026-06-14 00:01:00",
        "E10": "2026-06-14 00:01:00",
        "SP98": "2026-06-14 00:01:00"
      }
    },
    {
      "id": "44150001",
      "lat": 47.397,
      "lon": -1.19,
      "cp": "44150",
      "ville": "ANCENIS",
      "prix": {
        "Gazole": 0.00207,
        "SP95": 0.00214,
        "GPLc": 0.0011790000000000001,
        "SP98": 0.00217
      },
      "maj_gouv": {
        "Gazole": "2026-06-08 15:17:27",
        "SP95": "2026-06-08 15:17:28",
        "GPLc": "2026-06-05 14:05:27",
        "SP98": "2026-06-08 15:17:28"
      }
    },
    {
      "id": "44000009",
      "lat": 47.204,
      "lon": -1.547,
      "cp": "44200",
      "ville": "NANTES",
      "prix": {
        "Gazole": 0.001977,
        "E10": 0.001976,
        "SP98": 0.00199
      },
      "maj_gouv": {
        "Gazole": "2026-06-14 00:01:00",
        "E10": "2026-06-14 00:01:00",
        "SP98": "2026-06-14 00:01:00"
      }
    },
    {
      "id": "44190008",
      "lat": 47.099,
      "lon": -1.282,
      "cp": "44190",
      "ville": "Clisson",
      "prix": {
        "Gazole": 0.001944,
        "SP95": 0.001954,
        "E85": 0.0007740000000000001,
        "E10": 0.0019039999999999999,
        "SP98": 0.001998
      },
      "maj_gouv": {
        "Gazole": "2026-06-14 01:17:00",
        "SP95": "2026-06-14 01:17:00",
        "E85": "2026-06-14 01:17:00",
        "E10": "2026-06-14 01:17:00",
        "SP98": "2026-06-14 01:17:00"
      }
    },
    {
      "id": "44480002",
      "lat": 47.32906,
      "lon": -2.08771,
      "cp": "44480",
      "ville": "DONGES",
      "prix": {
        "Gazole": 0.001999,
        "E10": 0.001939,
        "SP98": 0.002049
      },
      "maj_gouv": {
        "Gazole": "2026-06-12 07:57:03",
        "E10": "2026-06-12 07:57:03",
        "SP98": "2026-06-12 07:57:03"
      }
    },
    {
      "id": "44320007",
      "lat": 47.2063373,
      "lon": -2.0440813,
      "cp": "44320",
      "ville": "Saint Pere En Retz",
      "prix": {
        "Gazole": 0.001982,
        "SP95": 0.001999,
        "SP98": 0.00204
      },
      "maj_gouv": {
        "Gazole": "2026-06-05 11:42:11",
        "SP95": "2026-06-05 11:42:11",
        "SP98": "2026-06-05 11:42:12"
      }
    },
    {
      "id": "44300013",
      "lat": 47.235,
      "lon": -1.52,
      "cp": "44300",
      "ville": "NANTES",
      "prix": {
        "Gazole": 0.0019690000000000003,
        "E10": 0.001939,
        "SP98": 0.002059
      },
      "maj_gouv": {
        "Gazole": "2026-06-12 11:14:05",
        "E10": "2026-06-12 11:14:05",
        "SP98": "2026-06-12 11:14:05"
      }
    },
    {
      "id": "44560001",
      "lat": 47.284,
      "lon": -2.016,
      "cp": "44560",
      "ville": "PAIMBOEUF",
      "prix": {
        "Gazole": 0.001982,
        "SP95": 0.001999,
        "E10": 0.001965,
        "SP98": 0.00204
      },
      "maj_gouv": {
        "Gazole": "2026-06-05 10:25:46",
        "SP95": "2026-06-05 10:25:46",
        "E10": "2026-06-05 10:25:46",
        "SP98": "2026-06-05 10:25:46"
      }
    },
    {
      "id": "44340004",
      "lat": 47.159,
      "lon": -1.6,
      "cp": "44340",
      "ville": "Bouguenais",
      "prix": {
        "Gazole": 0.00209,
        "SP95": 0.00199
      },
      "maj_gouv": {
        "Gazole": "2026-06-02 09:20:07",
        "SP95": "2026-06-02 09:20:07"
      }
    },
    {
      "id": "44340006",
      "lat": 47.186,
      "lon": -1.602,
      "cp": "44340",
      "ville": "BOUGUENAIS",
      "prix": {
        "Gazole": 0.001885,
        "E85": 0.0008110000000000001,
        "E10": 0.0018839999999999998,
        "SP98": 0.00199
      },
      "maj_gouv": {
        "Gazole": "2026-06-14 00:01:00",
        "E85": "2026-06-14 00:01:00",
        "E10": "2026-06-14 00:01:00",
        "SP98": "2026-06-14 00:01:00"
      }
    },
    {
      "id": "44420002",
      "lat": 47.353,
      "lon": -2.512,
      "cp": "44420",
      "ville": "LA TURBALLE",
      "prix": {
        "Gazole": 0.001939,
        "E10": 0.0019190000000000001,
        "SP98": 0.00199
      },
      "maj_gouv": {
        "Gazole": "2026-06-13 08:30:00",
        "E10": "2026-06-13 08:30:00",
        "SP98": "2026-06-13 08:30:00"
      }
    },
    {
      "id": "44250005",
      "lat": 47.22914,
      "lon": -2.15541,
      "cp": "44250",
      "ville": "Saint-Brevin-les-Pins",
      "prix": {
        "Gazole": 0.001888,
        "E85": 0.000839,
        "GPLc": 0.000999,
        "E10": 0.001889
      },
      "maj_gouv": {
        "Gazole": "2026-06-14 00:01:00",
        "E85": "2026-06-14 00:01:00",
        "GPLc": "2026-06-14 00:01:00",
        "E10": "2026-06-14 00:01:00"
      }
    },
    {
      "id": "44130001",
      "lat": 47.473061839157,
      "lon": -1.7469807605743002,
      "cp": "44130",
      "ville": "BLAIN",
      "prix": {
        "Gazole": 0.001939,
        "SP95": 0.0019690000000000003,
        "E10": 0.001889,
        "SP98": 0.0019790000000000003
      },
      "maj_gouv": {
        "Gazole": "2026-06-12 13:28:00",
        "SP95": "2026-06-12 13:28:00",
        "E10": "2026-06-12 13:28:00",
        "SP98": "2026-06-12 13:28:00"
      }
    },
    {
      "id": "44860002",
      "lat": 47.129,
      "lon": -1.583,
      "cp": "44860",
      "ville": "PONT-SAINT-MARTIN",
      "prix": {
        "Gazole": 0.0019590000000000002,
        "SP95": 0.0019890000000000003,
        "E10": 0.0019590000000000002,
        "SP98": 0.002029
      },
      "maj_gouv": {
        "Gazole": "2026-06-13 07:55:37",
        "SP95": "2026-06-13 07:55:37",
        "E10": "2026-06-13 07:55:37",
        "SP98": "2026-06-13 07:55:37"
      }
    },
    {
      "id": "44420003",
      "lat": 47.397,
      "lon": -2.462,
      "cp": "44420",
      "ville": "MESQUER",
      "prix": {
        "Gazole": 0.002099,
        "E10": 0.002029,
        "SP98": 0.002169
      },
      "maj_gouv": {
        "Gazole": "2026-05-30 11:42:05",
        "E10": "2026-05-05 05:57:07",
        "SP98": "2026-05-05 05:57:08"
      }
    },
    {
      "id": "44400001",
      "lat": 47.177,
      "lon": -1.559,
      "cp": "44400",
      "ville": "Rezé",
      "prix": {
        "Gazole": 0.0019590000000000002,
        "E10": 0.0019010000000000001,
        "SP98": 0.0019890000000000003
      },
      "maj_gouv": {
        "Gazole": "2026-06-11 09:36:20",
        "E10": "2026-06-11 09:36:20",
        "SP98": "2026-06-11 09:36:21"
      }
    },
    {
      "id": "44430004",
      "lat": 47.234,
      "lon": -1.367,
      "cp": "44430",
      "ville": "Loroux-Bottereau",
      "prix": {
        "Gazole": 0.0019190000000000001,
        "E85": 0.000775,
        "E10": 0.001889,
        "SP98": 0.0019790000000000003
      },
      "maj_gouv": {
        "Gazole": "2026-06-14 01:16:00",
        "E85": "2026-06-14 01:16:00",
        "E10": "2026-06-14 01:16:00",
        "SP98": "2026-06-14 01:16:00"
      }
    },
    {
      "id": "44110004",
      "lat": 47.706,
      "lon": -1.385,
      "cp": "44110",
      "ville": "CHâTEAUBRIANT",
      "prix": {
        "Gazole": 0.0019690000000000003,
        "E85": 0.000809,
        "E10": 0.0019370000000000001,
        "SP98": 0.002027
      },
      "maj_gouv": {
        "Gazole": "2026-06-13 16:51:39",
        "E85": "2026-06-12 17:14:31",
        "E10": "2026-06-13 16:51:39",
        "SP98": "2026-06-12 17:14:31"
      }
    },
    {
      "id": "44800008",
      "lat": 47.211,
      "lon": -1.619,
      "cp": "44800",
      "ville": "Saint-Herblain",
      "prix": {
        "Gazole": 0.001887,
        "GPLc": 0.000979,
        "E10": 0.001881,
        "SP98": 0.00199
      },
      "maj_gouv": {
        "Gazole": "2026-06-14 00:01:00",
        "GPLc": "2026-06-14 00:01:00",
        "E10": "2026-06-14 00:01:00",
        "SP98": "2026-06-14 00:01:00"
      }
    },
    {
      "id": "44470005",
      "lat": 47.3,
      "lon": -1.498,
      "cp": "44470",
      "ville": "Carquefou",
      "prix": {
        "Gazole": 0.0019690000000000003,
        "E85": 0.000809,
        "E10": 0.001929,
        "SP98": 0.001999
      },
      "maj_gouv": {
        "Gazole": "2026-06-10 11:20:00",
        "E85": "2026-06-10 11:20:00",
        "E10": "2026-06-10 11:20:00",
        "SP98": "2026-06-10 11:20:00"
      }
    },
    {
      "id": "44160006",
      "lat": 47.45,
      "lon": -2.127,
      "cp": "44160",
      "ville": "PONTCHATEAU",
      "prix": {
        "Gazole": 0.00209,
        "SP95": 0.00199,
        "SP98": 0.00199
      },
      "maj_gouv": {
        "Gazole": "2026-06-10 09:27:56",
        "SP95": "2026-06-10 09:27:56",
        "SP98": "2026-06-10 09:27:56"
      }
    },
    {
      "id": "44590001",
      "lat": 47.668,
      "lon": -1.663,
      "cp": "44590",
      "ville": "DERVAL",
      "prix": {
        "Gazole": 0.001949,
        "E10": 0.001949,
        "SP98": 0.0020299999999999997
      },
      "maj_gouv": {
        "Gazole": "2026-06-13 19:30:00",
        "E10": "2026-06-13 19:30:00",
        "SP98": "2026-06-13 19:30:00"
      }
    },
    {
      "id": "44220001",
      "lat": 47.194,
      "lon": -1.53,
      "cp": "44200",
      "ville": "NANTES",
      "prix": {
        "Gazole": 0.00198,
        "SP95": 0.002019,
        "SP98": 0.002023
      },
      "maj_gouv": {
        "Gazole": "2026-06-13 07:46:18",
        "SP95": "2026-06-13 07:46:18",
        "SP98": "2026-06-13 07:46:18"
      }
    },
    {
      "id": "44170003",
      "lat": 47.564,
      "lon": -1.618,
      "cp": "44170",
      "ville": "NOZAY",
      "prix": {},
      "maj_gouv": {}
    },
    {
      "id": "44390001",
      "lat": 47.439,
      "lon": -1.48,
      "cp": "44390",
      "ville": "NORT-SUR-ERDRE",
      "prix": {
        "Gazole": 0.0019590000000000002,
        "E85": 0.000798,
        "GPLc": 0.001099,
        "E10": 0.0019190000000000001,
        "SP98": 0.002019
      },
      "maj_gouv": {
        "Gazole": "2026-06-13 08:30:00",
        "E85": "2026-05-26 09:00:00",
        "GPLc": "2026-04-24 08:16:38",
        "E10": "2026-06-12 08:54:27",
        "SP98": "2026-06-08 09:00:00"
      }
    },
    {
      "id": "44230003",
      "lat": 47.192,
      "lon": -1.492,
      "cp": "44230",
      "ville": "Saint-Sébastien-sur-Loire",
      "prix": {
        "Gazole": 0.0019790000000000003,
        "E85": 0.000799,
        "GPLc": 0.000999,
        "E10": 0.0019190000000000001,
        "SP98": 0.001999
      },
      "maj_gouv": {
        "Gazole": "2026-06-12 11:49:11",
        "E85": "2026-03-24 09:31:08",
        "GPLc": "2026-04-29 09:07:20",
        "E10": "2026-06-12 11:49:12",
        "SP98": "2026-06-12 11:49:12"
      }
    },
    {
      "id": "44490002",
      "lat": 47.286,
      "lon": -2.507,
      "cp": "44490",
      "ville": "LE CROISIC",
      "prix": {
        "Gazole": 0.001999,
        "E85": 0.000798,
        "E10": 0.001929,
        "SP98": 0.002049
      },
      "maj_gouv": {
        "Gazole": "2026-06-10 08:54:31",
        "E85": "2026-05-27 08:15:25",
        "E10": "2026-06-12 08:39:31",
        "SP98": "2026-06-12 08:39:31"
      }
    },
    {
      "id": "44220002",
      "lat": 47.215,
      "lon": -1.685,
      "cp": "44220",
      "ville": "Couëron",
      "prix": {
        "Gazole": 0.001949,
        "E10": 0.0019190000000000001,
        "SP98": 0.001999
      },
      "maj_gouv": {
        "Gazole": "2026-06-12 11:19:20",
        "E10": "2026-06-12 11:19:20",
        "SP98": "2026-06-12 11:19:20"
      }
    },
    {
      "id": "44240012",
      "lat": 47.285,
      "lon": -1.55,
      "cp": "44240",
      "ville": "La chapelle sur Erdre",
      "prix": {
        "Gazole": 0.0019590000000000002,
        "E85": 0.000809,
        "GPLc": 0.0010689999999999999,
        "E10": 0.001929,
        "SP98": 0.001999
      },
      "maj_gouv": {
        "Gazole": "2026-06-11 10:55:00",
        "E85": "2026-06-11 10:55:00",
        "GPLc": "2026-06-11 10:55:00",
        "E10": "2026-06-11 10:55:00",
        "SP98": "2026-06-11 10:55:00"
      }
    },
    {
      "id": "44350003",
      "lat": 47.322,
      "lon": -2.424,
      "cp": "44350",
      "ville": "Guérande",
      "prix": {},
      "maj_gouv": {}
    },
    {
      "id": "44350001",
      "lat": 47.291,
      "lon": -2.398,
      "cp": "44350",
      "ville": "GUERANDE",
      "prix": {
        "Gazole": 0.0019950000000000002,
        "E85": 0.000798,
        "E10": 0.0019190000000000001,
        "SP98": 0.002042
      },
      "maj_gouv": {
        "Gazole": "2026-06-10 09:41:00",
        "E85": "2026-06-02 09:39:38",
        "E10": "2026-06-10 09:41:00",
        "SP98": "2026-06-10 09:41:00"
      }
    },
    {
      "id": "44170001",
      "lat": 47.57,
      "lon": -1.629,
      "cp": "44170",
      "ville": "NOZAY",
      "prix": {
        "Gazole": 0.0019790000000000003,
        "E85": 0.000799,
        "E10": 0.001929,
        "SP98": 0.002029
      },
      "maj_gouv": {
        "Gazole": "2026-06-11 06:30:00",
        "E85": "2026-06-11 06:30:00",
        "E10": "2026-06-11 06:30:00",
        "SP98": "2026-06-11 06:30:00"
      }
    },
    {
      "id": "44650001",
      "lat": 46.8886,
      "lon": -1.59155,
      "cp": "44650",
      "ville": "LEGE",
      "prix": {
        "Gazole": 0.001949,
        "E85": 0.0007790000000000001,
        "E10": 0.0019,
        "SP98": 0.0019790000000000003
      },
      "maj_gouv": {
        "Gazole": "2026-06-12 06:00:00",
        "E85": "2026-06-08 05:11:27",
        "E10": "2026-06-08 05:11:27",
        "SP98": "2026-06-08 05:11:28"
      }
    },
    {
      "id": "44370008",
      "lat": 47.418,
      "lon": -1.018,
      "cp": "44370",
      "ville": "VARADES",
      "prix": {
        "Gazole": 0.002132,
        "E85": 0.000999,
        "E10": 0.00199
      },
      "maj_gouv": {
        "Gazole": "2026-06-14 00:01:00",
        "E85": "2026-06-14 00:01:00",
        "E10": "2026-06-14 00:01:00"
      }
    },
    {
      "id": "44290001",
      "lat": 47.635,
      "lon": -1.805,
      "cp": "44290",
      "ville": "Guémené-Penfao",
      "prix": {
        "Gazole": 0.0019590000000000002,
        "E85": 0.000769,
        "E10": 0.001929,
        "SP98": 0.002029
      },
      "maj_gouv": {
        "Gazole": "2026-06-13 09:20:42",
        "E85": "2026-05-21 18:27:45",
        "E10": "2026-06-13 09:20:42",
        "SP98": "2026-06-08 10:42:30"
      }
    },
    {
      "id": "44570001",
      "lat": 47.301882584606,
      "lon": -2.212697736,
      "cp": "44570",
      "ville": "Trignac",
      "prix": {
        "Gazole": 0.001939,
        "GPLc": 0.000998,
        "E10": 0.001882,
        "SP98": 0.001977
      },
      "maj_gouv": {
        "Gazole": "2026-06-12 08:54:32",
        "GPLc": "2026-06-12 08:54:32",
        "E10": "2026-06-12 08:54:32",
        "SP98": "2026-06-12 08:54:32"
      }
    },
    {
      "id": "44570006",
      "lat": 47.293,
      "lon": -2.209,
      "cp": "44570",
      "ville": "TRIGNAC",
      "prix": {
        "Gazole": 0.0018859999999999999,
        "E85": 0.000842,
        "E10": 0.001885,
        "SP98": 0.00199
      },
      "maj_gouv": {
        "Gazole": "2026-06-14 00:01:00",
        "E85": "2026-06-14 00:01:00",
        "E10": "2026-06-14 00:01:00",
        "SP98": "2026-06-14 00:01:00"
      }
    },
    {
      "id": "44410007",
      "lat": 47.448,
      "lon": -2.241,
      "cp": "44410",
      "ville": "LA CHAPELLE DES MARAIS",
      "prix": {
        "Gazole": 0.0019790000000000003,
        "E10": 0.0019190000000000001,
        "SP98": 0.001999
      },
      "maj_gouv": {
        "Gazole": "2026-06-03 08:08:54",
        "E10": "2026-06-11 07:09:02",
        "SP98": "2026-06-10 10:44:24"
      }
    },
    {
      "id": "44320002",
      "lat": 47.114543249043,
      "lon": -1.9511237760851,
      "cp": "44320",
      "ville": "Arthon-en-Retz",
      "prix": {
        "Gazole": 0.0019790000000000003,
        "E85": 0.000839,
        "E10": 0.001949,
        "SP98": 0.001999
      },
      "maj_gouv": {
        "Gazole": "2026-06-02 10:32:32",
        "E85": "2026-05-21 12:20:13",
        "E10": "2026-06-08 09:40:48",
        "SP98": "2026-06-08 09:40:48"
      }
    },
    {
      "id": "44240004",
      "lat": 47.302,
      "lon": -1.548,
      "cp": "44240",
      "ville": "La Chapelle-sur-Erdre",
      "prix": {
        "Gazole": 0.0019619999999999998,
        "E10": 0.001939,
        "SP98": 0.002039
      },
      "maj_gouv": {
        "Gazole": "2026-06-08 09:10:52",
        "E10": "2026-06-08 09:10:52",
        "SP98": "2026-06-08 09:10:52"
      }
    },
    {
      "id": "44190007",
      "lat": 47.095,
      "lon": -1.292,
      "cp": "44190",
      "ville": "Clisson",
      "prix": {
        "Gazole": 0.002019,
        "SP95": 0.002019,
        "SP98": 0.002069
      },
      "maj_gouv": {
        "Gazole": "2026-06-11 07:23:19",
        "SP95": "2026-06-11 07:23:19",
        "SP98": "2026-06-11 07:23:20"
      }
    },
    {
      "id": "44410001",
      "lat": 47.45,
      "lon": -2.314,
      "cp": "44410",
      "ville": "HERBIGNAC",
      "prix": {
        "Gazole": 0.001952,
        "E85": 0.000809,
        "E10": 0.001921,
        "SP98": 0.001996
      },
      "maj_gouv": {
        "Gazole": "2026-06-14 01:17:00",
        "E85": "2026-06-14 01:17:00",
        "E10": "2026-06-14 01:17:00",
        "SP98": "2026-06-14 01:17:00"
      }
    },
    {
      "id": "44470006",
      "lat": 47.266,
      "lon": -1.488,
      "cp": "44470",
      "ville": "CARQUEFOU",
      "prix": {
        "Gazole": 0.001877,
        "E85": 0.000815,
        "GPLc": 0.000979,
        "E10": 0.001875,
        "SP98": 0.001988
      },
      "maj_gouv": {
        "Gazole": "2026-06-14 00:01:00",
        "E85": "2026-06-14 00:01:00",
        "GPLc": "2026-06-14 00:01:00",
        "E10": "2026-06-14 00:01:00",
        "SP98": "2026-06-14 00:01:00"
      }
    },
    {
      "id": "44100006",
      "lat": 47.216,
      "lon": -1.606,
      "cp": "44100",
      "ville": "NANTES",
      "prix": {
        "Gazole": 0.001887,
        "E10": 0.001882,
        "SP98": 0.00199
      },
      "maj_gouv": {
        "Gazole": "2026-06-14 00:01:00",
        "E10": "2026-06-14 00:01:00",
        "SP98": "2026-06-14 00:01:00"
      }
    },
    {
      "id": "44119005",
      "lat": 47.336,
      "lon": -1.652,
      "cp": "44119",
      "ville": "TREILLIERES",
      "prix": {
        "Gazole": 0.002072,
        "E85": 0.000998,
        "GPLc": 0.001048,
        "E10": 0.00199,
        "SP98": 0.00199
      },
      "maj_gouv": {
        "Gazole": "2026-06-14 00:01:00",
        "E85": "2026-06-14 00:01:00",
        "GPLc": "2026-06-14 00:01:00",
        "E10": "2026-06-14 00:01:00",
        "SP98": "2026-06-14 00:01:00"
      }
    },
    {
      "id": "44450002",
      "lat": 47.269,
      "lon": -1.335,
      "cp": "44450",
      "ville": "LA CHAPELLE-BASSE-MER",
      "prix": {
        "Gazole": 0.001949,
        "E10": 0.001929,
        "SP98": 0.002009
      },
      "maj_gouv": {
        "Gazole": "2026-06-13 09:26:07",
        "E10": "2026-06-12 07:32:30",
        "SP98": "2026-06-12 07:32:30"
      }
    },
    {
      "id": "44450003",
      "lat": 47.248,
      "lon": -1.371,
      "cp": "44450",
      "ville": "SAINT-JULIEN-DE-CONCELLES",
      "prix": {
        "Gazole": 0.001999,
        "SP95": 0.001999,
        "SP98": 0.002009
      },
      "maj_gouv": {
        "Gazole": "2026-06-10 09:59:15",
        "SP95": "2026-06-10 09:59:15",
        "SP98": "2026-06-10 09:59:15"
      }
    },
    {
      "id": "44210004",
      "lat": 47.124357,
      "lon": -2.103635,
      "cp": "44210",
      "ville": "Pornic",
      "prix": {
        "Gazole": 0.0020310000000000003,
        "E85": 0.0008449999999999999,
        "E10": 0.001984,
        "SP98": 0.00199
      },
      "maj_gouv": {
        "Gazole": "2026-06-12 07:57:55",
        "E85": "2026-06-11 07:29:54",
        "E10": "2026-06-12 07:57:55",
        "SP98": "2026-06-09 08:10:50"
      }
    },
    {
      "id": "44370005",
      "lat": 47.38927,
      "lon": -1.0203,
      "cp": "44370",
      "ville": "Varades",
      "prix": {
        "Gazole": 0.0019590000000000002,
        "SP95": 0.0019590000000000002,
        "E85": 0.0007970000000000001,
        "GPLc": 0.001049,
        "SP98": 0.001999
      },
      "maj_gouv": {
        "Gazole": "2026-06-12 06:55:51",
        "SP95": "2026-06-12 06:55:51",
        "E85": "2026-05-23 06:48:31",
        "GPLc": "2026-04-29 06:59:17",
        "SP98": "2026-06-06 07:04:02"
      }
    },
    {
      "id": "44522002",
      "lat": 47.435,
      "lon": -1.236,
      "cp": "44522",
      "ville": "MESANGER",
      "prix": {
        "Gazole": 0.0019890000000000003,
        "E85": 0.000749,
        "E10": 0.001929,
        "SP98": 0.002009
      },
      "maj_gouv": {
        "Gazole": "2026-06-12 12:01:04",
        "E85": "2026-06-09 05:41:54",
        "E10": "2026-06-12 12:01:04",
        "SP98": "2026-06-12 12:01:04"
      }
    },
    {
      "id": "44740002",
      "lat": 47.278,
      "lon": -2.468,
      "cp": "44740",
      "ville": "Batz-sur-Mer",
      "prix": {
        "Gazole": 0.0021190000000000002,
        "E10": 0.002069,
        "SP98": 0.002179
      },
      "maj_gouv": {
        "Gazole": "2026-06-11 00:00:00",
        "E10": "2026-06-12 00:00:00",
        "SP98": "2026-06-11 00:00:00"
      }
    },
    {
      "id": "44120004",
      "lat": 47.162,
      "lon": -1.513,
      "cp": "44120",
      "ville": "VERTOU",
      "prix": {
        "Gazole": 0.001971,
        "E85": 0.000825,
        "GPLc": 0.000989,
        "E10": 0.001964,
        "SP98": 0.00199
      },
      "maj_gouv": {
        "Gazole": "2026-06-14 00:01:00",
        "E85": "2026-06-14 00:01:00",
        "GPLc": "2026-06-14 00:01:00",
        "E10": "2026-06-14 00:01:00",
        "SP98": "2026-06-14 00:01:00"
      }
    },
    {
      "id": "44150007",
      "lat": 47.373105051321,
      "lon": -1.1783565175484,
      "cp": "44150",
      "ville": "ANCENIS",
      "prix": {
        "Gazole": 0.001935,
        "E10": 0.001885,
        "SP98": 0.0019850000000000002
      },
      "maj_gouv": {
        "Gazole": "2026-06-12 16:00:36",
        "E10": "2026-06-12 16:00:36",
        "SP98": "2026-06-12 16:00:36"
      }
    },
    {
      "id": "44410006",
      "lat": 47.395,
      "lon": -2.305,
      "cp": "44410",
      "ville": "Saint-Lyphard",
      "prix": {
        "Gazole": 0.001949,
        "E85": 0.000809,
        "E10": 0.001909,
        "SP98": 0.0019950000000000002
      },
      "maj_gouv": {
        "Gazole": "2026-06-12 11:50:30",
        "E85": "2026-06-12 11:50:30",
        "E10": "2026-06-12 11:50:30",
        "SP98": "2026-06-12 11:50:31"
      }
    },
    {
      "id": "44580001",
      "lat": 47.041,
      "lon": -1.956,
      "cp": "44580",
      "ville": "Bourgneuf-en-Retz",
      "prix": {
        "Gazole": 0.0019790000000000003,
        "SP95": 0.00199
      },
      "maj_gouv": {
        "Gazole": "2026-06-13 11:18:39",
        "SP95": "2026-06-13 11:18:39"
      }
    },
    {
      "id": "44370009",
      "lat": 47.419621,
      "lon": -1.0145410000000001,
      "cp": "44370",
      "ville": "VARADES",
      "prix": {
        "Gazole": 0.002125,
        "E85": 0.000999,
        "GPLc": 0.0010680000000000002,
        "E10": 0.00199,
        "SP98": 0.00199
      },
      "maj_gouv": {
        "Gazole": "2026-06-14 00:01:00",
        "E85": "2026-06-14 00:01:00",
        "GPLc": "2026-06-14 00:01:00",
        "E10": "2026-06-14 00:01:00",
        "SP98": "2026-06-14 00:01:00"
      }
    },
    {
      "id": "44521001",
      "lat": 47.39123,
      "lon": -1.29207,
      "cp": "44521",
      "ville": "COUFFé",
      "prix": {
        "Gazole": 0.002048,
        "SP95": 0.00199
      },
      "maj_gouv": {
        "Gazole": "2026-06-03 11:45:14",
        "SP95": "2026-06-03 11:45:26"
      }
    },
    {
      "id": "44800004",
      "lat": 47.226,
      "lon": -1.635,
      "cp": "44800",
      "ville": "Saint-Herblain",
      "prix": {
        "Gazole": 0.0019190000000000001,
        "E85": 0.000759,
        "GPLc": 0.000991,
        "E10": 0.001889,
        "SP98": 0.0019790000000000003
      },
      "maj_gouv": {
        "Gazole": "2026-06-14 01:17:00",
        "E85": "2026-06-14 01:17:00",
        "GPLc": "2026-06-14 01:17:00",
        "E10": "2026-06-14 01:17:00",
        "SP98": "2026-06-14 01:17:00"
      }
    },
    {
      "id": "44510001",
      "lat": 47.27503,
      "lon": -2.44083,
      "cp": "44510",
      "ville": "LE POULIGUEN",
      "prix": {
        "Gazole": 0.001956,
        "E10": 0.001897,
        "SP98": 0.002008
      },
      "maj_gouv": {
        "Gazole": "2026-06-11 09:00:00",
        "E10": "2026-06-11 09:00:00",
        "SP98": "2026-06-11 09:00:00"
      }
    },
    {
      "id": "44600002",
      "lat": 47.28,
      "lon": -2.228,
      "cp": "44600",
      "ville": "SAINT-NAZAIRE",
      "prix": {
        "Gazole": 0.001934,
        "E10": 0.001895,
        "SP98": 0.001977
      },
      "maj_gouv": {
        "Gazole": "2026-06-13 08:20:33",
        "E10": "2026-06-13 08:20:34",
        "SP98": "2026-06-13 08:20:34"
      }
    },
    {
      "id": "44390004",
      "lat": 47.517434238999,
      "lon": -1.3012053214615,
      "cp": "44440",
      "ville": "Riaille",
      "prix": {
        "Gazole": 0.001999,
        "SP95": 0.001975,
        "SP98": 0.002045
      },
      "maj_gouv": {
        "Gazole": "2026-06-09 11:49:14",
        "SP95": "2026-06-09 11:49:15",
        "SP98": "2026-06-09 11:49:15"
      }
    },
    {
      "id": "44220003",
      "lat": 47.21344,
      "lon": -1.719,
      "cp": "44220",
      "ville": "COUëRON",
      "prix": {
        "Gazole": 0.001968,
        "SP95": 0.00199
      },
      "maj_gouv": {
        "Gazole": "2026-06-12 19:40:51",
        "SP95": "2026-06-12 19:40:51"
      }
    },
    {
      "id": "44850001",
      "lat": 47.414,
      "lon": -1.392,
      "cp": "44850",
      "ville": "LIGNE",
      "prix": {
        "Gazole": 0.0019690000000000003,
        "E85": 0.000795,
        "E10": 0.001929,
        "SP98": 0.002019
      },
      "maj_gouv": {
        "Gazole": "2026-06-11 09:22:51",
        "E85": "2026-06-11 09:22:51",
        "E10": "2026-06-11 09:22:51",
        "SP98": "2026-06-11 09:22:51"
      }
    },
    {
      "id": "44360008",
      "lat": 47.33,
      "lon": -1.781,
      "cp": "44360",
      "ville": "Vigneux-de-Bretagne",
      "prix": {
        "Gazole": 0.001968,
        "SP95": 0.001976,
        "E10": 0.001961,
        "SP98": 0.00199
      },
      "maj_gouv": {
        "Gazole": "2026-06-14 00:01:00",
        "SP95": "2026-06-03 17:37:46",
        "E10": "2026-06-14 00:01:00",
        "SP98": "2026-06-14 00:01:00"
      }
    },
    {
      "id": "44210002",
      "lat": 47.11293,
      "lon": -2.08468,
      "cp": "44210",
      "ville": "PORNIC",
      "prix": {
        "Gazole": 0.001998,
        "SP95": 0.001978,
        "E85": 0.0008179999999999999,
        "GPLc": 0.000999,
        "E10": 0.001906
      },
      "maj_gouv": {
        "Gazole": "2026-06-10 10:08:48",
        "SP95": "2026-06-04 10:44:18",
        "E85": "2026-04-21 10:09:01",
        "GPLc": "2026-04-04 09:13:15",
        "E10": "2026-06-04 10:44:18"
      }
    },
    {
      "id": "44800007",
      "lat": 47.2412179839,
      "lon": -1.59335907484,
      "cp": "44800",
      "ville": "Saint-Herblain",
      "prix": {
        "Gazole": 0.001987,
        "E10": 0.001982,
        "SP98": 0.00199
      },
      "maj_gouv": {
        "Gazole": "2026-06-14 00:01:00",
        "E10": "2026-06-14 00:01:00",
        "SP98": "2026-06-14 00:01:00"
      }
    },
    {
      "id": "44300015",
      "lat": 47.2377,
      "lon": -1.56947,
      "cp": "44300",
      "ville": "NANTES",
      "prix": {
        "Gazole": 0.0019790000000000003,
        "E85": 0.000829,
        "E10": 0.001975,
        "SP98": 0.00199
      },
      "maj_gouv": {
        "Gazole": "2026-06-14 00:01:00",
        "E85": "2026-06-14 00:01:00",
        "E10": "2026-06-14 00:01:00",
        "SP98": "2026-06-14 00:01:00"
      }
    },
    {
      "id": "44700002",
      "lat": 47.262,
      "lon": -1.588,
      "cp": "44700",
      "ville": "Orvault",
      "prix": {
        "Gazole": 0.001929,
        "E10": 0.001899,
        "SP98": 0.0019790000000000003
      },
      "maj_gouv": {
        "Gazole": "2026-06-14 01:17:00",
        "E10": "2026-06-14 01:17:00",
        "SP98": "2026-06-14 01:17:00"
      }
    },
    {
      "id": "44000005",
      "lat": 47.23769,
      "lon": -1.53264,
      "cp": "44300",
      "ville": "Nantes",
      "prix": {
        "Gazole": 0.00215,
        "SP95": 0.00199,
        "SP98": 0.00199
      },
      "maj_gouv": {
        "Gazole": "2026-06-04 08:06:49",
        "SP95": "2026-05-04 07:50:44",
        "SP98": "2026-05-04 07:50:44"
      }
    },
    {
      "id": "44260005",
      "lat": 47.368621940000004,
      "lon": -1.96231179,
      "cp": "44260",
      "ville": "SAVENAY",
      "prix": {
        "Gazole": 0.001939,
        "E85": 0.000759,
        "GPLc": 0.000995,
        "E10": 0.0019190000000000001,
        "SP98": 0.0019890000000000003
      },
      "maj_gouv": {
        "Gazole": "2026-06-13 08:48:09",
        "E85": "2026-06-09 09:30:53",
        "GPLc": "2026-06-09 09:46:15",
        "E10": "2026-06-10 18:32:03",
        "SP98": "2026-06-10 08:45:11"
      }
    },
    {
      "id": "44170002",
      "lat": 47.564,
      "lon": -1.62,
      "cp": "44170",
      "ville": "NOZAY",
      "prix": {
        "Gazole": 0.0020499999999999997,
        "SP95": 0.00199
      },
      "maj_gouv": {
        "Gazole": "2026-06-11 08:29:45",
        "SP95": "2026-06-11 08:29:45"
      }
    },
    {
      "id": "44300017",
      "lat": 47.251,
      "lon": -1.518,
      "cp": "44300",
      "ville": "NANTES",
      "prix": {
        "Gazole": 0.001949,
        "E10": 0.001889,
        "SP98": 0.0019790000000000003
      },
      "maj_gouv": {
        "Gazole": "2026-06-14 01:17:00",
        "E10": "2026-06-14 01:17:00",
        "SP98": "2026-06-14 01:17:00"
      }
    },
    {
      "id": "44750002",
      "lat": 47.412902747675005,
      "lon": -1.9705121262687,
      "cp": "44750",
      "ville": "CAMPBON",
      "prix": {
        "Gazole": 0.002029,
        "SP95": 0.002059,
        "SP98": 0.002149
      },
      "maj_gouv": {
        "Gazole": "2026-06-02 10:40:09",
        "SP95": "2026-06-02 10:40:09",
        "SP98": "2026-06-02 10:40:09"
      }
    },
    {
      "id": "44000001",
      "lat": 47.257,
      "lon": -1.513,
      "cp": "44300",
      "ville": "NANTES",
      "prix": {
        "Gazole": 0.001956,
        "SP95": 0.0019470000000000002,
        "GPLc": 0.000979,
        "E10": 0.001913
      },
      "maj_gouv": {
        "Gazole": "2026-06-12 07:04:24",
        "SP95": "2026-06-12 07:04:25",
        "GPLc": "2026-06-12 07:04:25",
        "E10": "2026-06-12 07:04:25"
      }
    },
    {
      "id": "44730002",
      "lat": 47.17027,
      "lon": -2.14844,
      "cp": "44730",
      "ville": "SAINT-MICHEL-CHEF-CHEF",
      "prix": {
        "Gazole": 0.001965,
        "SP95": 0.0019850000000000002,
        "E10": 0.001909,
        "SP98": 0.001999
      },
      "maj_gouv": {
        "Gazole": "2026-06-11 10:34:20",
        "SP95": "2026-06-11 10:34:20",
        "E10": "2026-06-11 10:34:20",
        "SP98": "2026-06-11 10:34:21"
      }
    },
    {
      "id": "44115003",
      "lat": 47.222,
      "lon": -1.473,
      "cp": "44115",
      "ville": "Basse-Goulaine",
      "prix": {
        "Gazole": 0.001882,
        "GPLc": 0.000979,
        "E10": 0.001882,
        "SP98": 0.00199
      },
      "maj_gouv": {
        "Gazole": "2026-06-14 00:01:00",
        "GPLc": "2026-06-14 00:01:00",
        "E10": "2026-06-14 00:01:00",
        "SP98": "2026-06-14 00:01:00"
      }
    },
    {
      "id": "44460001",
      "lat": 47.647,
      "lon": -2.078,
      "cp": "44460",
      "ville": "Saint-Nicolas-de-Redon",
      "prix": {
        "Gazole": 0.001939,
        "E85": 0.000759,
        "GPLc": 0.001049,
        "E10": 0.0019190000000000001,
        "SP98": 0.001999
      },
      "maj_gouv": {
        "Gazole": "2026-06-14 01:17:00",
        "E85": "2026-06-14 01:17:00",
        "GPLc": "2026-06-14 01:17:00",
        "E10": "2026-06-14 01:17:00",
        "SP98": "2026-06-14 01:17:00"
      }
    },
    {
      "id": "44250003",
      "lat": 47.242,
      "lon": -2.158,
      "cp": "44250",
      "ville": "Saint-Brevin-les-Pins",
      "prix": {
        "Gazole": 0.001908,
        "E10": 0.001889,
        "SP98": 0.001999
      },
      "maj_gouv": {
        "Gazole": "2026-06-14 01:17:00",
        "E10": "2026-06-14 01:17:00",
        "SP98": "2026-06-14 01:17:00"
      }
    },
    {
      "id": "44300016",
      "lat": 47.241,
      "lon": -1.508,
      "cp": "44300",
      "ville": "NANTES",
      "prix": {
        "Gazole": 0.0018839999999999998,
        "E85": 0.000815,
        "GPLc": 0.000979,
        "E10": 0.001875,
        "SP98": 0.001987
      },
      "maj_gouv": {
        "Gazole": "2026-06-14 00:01:00",
        "E85": "2026-06-14 00:01:00",
        "GPLc": "2026-06-14 00:01:00",
        "E10": "2026-06-14 00:01:00",
        "SP98": "2026-06-14 00:01:00"
      }
    },
    {
      "id": "44200002",
      "lat": 47.125,
      "lon": -2.123,
      "cp": "44210",
      "ville": "Pornic",
      "prix": {
        "Gazole": 0.001917,
        "E10": 0.001899,
        "SP98": 0.00199
      },
      "maj_gouv": {
        "Gazole": "2026-06-14 01:17:00",
        "E10": "2026-06-14 01:17:00",
        "SP98": "2026-06-14 01:17:00"
      }
    },
    {
      "id": "44710002",
      "lat": 47.131,
      "lon": -1.753,
      "cp": "44710",
      "ville": "PORT SAINT-PERE",
      "prix": {},
      "maj_gouv": {}
    },
    {
      "id": "44100004",
      "lat": 47.214,
      "lon": -1.586,
      "cp": "44100",
      "ville": "NANTES",
      "prix": {
        "Gazole": 0.0021190000000000002,
        "E10": 0.002069,
        "SP98": 0.002169
      },
      "maj_gouv": {
        "Gazole": "2026-06-09 08:49:33",
        "E10": "2026-06-09 08:49:33",
        "SP98": "2026-06-09 08:49:33"
      }
    },
    {
      "id": "44412001",
      "lat": 47.16,
      "lon": -1.545,
      "cp": "44400",
      "ville": "REZé",
      "prix": {
        "Gazole": 0.001918,
        "GPLc": 0.000983,
        "E10": 0.001897,
        "SP98": 0.0019890000000000003
      },
      "maj_gouv": {
        "Gazole": "2026-06-14 01:16:00",
        "GPLc": "2026-06-14 01:16:00",
        "E10": "2026-06-14 01:16:00",
        "SP98": "2026-06-14 01:16:00"
      }
    },
    {
      "id": "44110003",
      "lat": 47.706,
      "lon": -1.388,
      "cp": "44110",
      "ville": "CHâTEAUBRIANT",
      "prix": {
        "Gazole": 0.00196,
        "E85": 0.000762,
        "GPLc": 0.000957,
        "E10": 0.001934,
        "SP98": 0.002018
      },
      "maj_gouv": {
        "Gazole": "2026-06-14 01:17:00",
        "E85": "2026-06-14 01:17:00",
        "GPLc": "2026-06-14 01:17:00",
        "E10": "2026-06-14 01:17:00",
        "SP98": "2026-06-14 01:17:00"
      }
    },
    {
      "id": "44210003",
      "lat": 47.12229,
      "lon": -2.11717,
      "cp": "44210",
      "ville": "PORNIC",
      "prix": {
        "Gazole": 0.001957,
        "E85": 0.000815,
        "E10": 0.001906,
        "SP98": 0.00199
      },
      "maj_gouv": {
        "Gazole": "2026-06-12 10:01:06",
        "E85": "2026-05-27 08:26:04",
        "E10": "2026-06-08 08:49:06",
        "SP98": "2026-06-09 08:49:48"
      }
    },
    {
      "id": "44240011",
      "lat": 47.256759,
      "lon": -1.546015,
      "cp": "44240",
      "ville": "La Chapelle-sur-Erdre",
      "prix": {
        "Gazole": 0.001879,
        "E85": 0.000815,
        "GPLc": 0.000979,
        "E10": 0.001881,
        "SP98": 0.00199
      },
      "maj_gouv": {
        "Gazole": "2026-06-14 00:01:00",
        "E85": "2026-06-14 00:01:00",
        "GPLc": "2026-06-14 00:01:00",
        "E10": "2026-06-14 00:01:00",
        "SP98": "2026-06-14 00:01:00"
      }
    },
    {
      "id": "44380001",
      "lat": 47.258,
      "lon": -2.318,
      "cp": "44380",
      "ville": "PORNICHET",
      "prix": {
        "Gazole": 0.002012,
        "E10": 0.001929,
        "SP98": 0.002049
      },
      "maj_gouv": {
        "Gazole": "2026-06-10 11:54:59",
        "E10": "2026-06-10 11:54:59",
        "SP98": "2026-06-10 11:54:59"
      }
    },
    {
      "id": "44000006",
      "lat": 47.24459,
      "lon": -1.53364,
      "cp": "44300",
      "ville": "Nantes",
      "prix": {
        "Gazole": 0.001954,
        "E85": 0.000809,
        "E10": 0.00189,
        "SP98": 0.001999
      },
      "maj_gouv": {
        "Gazole": "2026-06-12 09:26:47",
        "E85": "2026-06-13 09:05:35",
        "E10": "2026-06-12 09:26:47",
        "SP98": "2026-06-12 09:26:47"
      }
    },
    {
      "id": "44330003",
      "lat": 47.158229280939,
      "lon": -1.2747920508980999,
      "cp": "44330",
      "ville": "Vallet",
      "prix": {
        "Gazole": 0.0019450000000000001,
        "SP95": 0.001955,
        "E85": 0.0007790000000000001,
        "GPLc": 0.000999,
        "E10": 0.001905,
        "SP98": 0.001999
      },
      "maj_gouv": {
        "Gazole": "2026-06-13 09:15:00",
        "SP95": "2026-06-11 09:15:00",
        "E85": "2026-06-13 09:15:00",
        "GPLc": "2026-06-05 12:00:55",
        "E10": "2026-06-11 09:15:00",
        "SP98": "2026-06-13 09:00:00"
      }
    },
    {
      "id": "44000010",
      "lat": 47.247,
      "lon": -1.555,
      "cp": "44000",
      "ville": "NANTES",
      "prix": {
        "Gazole": 0.001888,
        "E10": 0.001882,
        "SP98": 0.00199
      },
      "maj_gouv": {
        "Gazole": "2026-06-14 00:01:00",
        "E10": "2026-06-14 00:01:00",
        "SP98": "2026-06-14 00:01:00"
      }
    },
    {
      "id": "44300018",
      "lat": 47.248,
      "lon": -1.512,
      "cp": "44300",
      "ville": "NANTES",
      "prix": {
        "Gazole": 0.001949,
        "E10": 0.001889,
        "SP98": 0.0019790000000000003
      },
      "maj_gouv": {
        "Gazole": "2026-06-14 01:17:00",
        "E10": "2026-06-14 01:17:00",
        "SP98": "2026-06-14 01:17:00"
      }
    },
    {
      "id": "44260006",
      "lat": 47.362,
      "lon": -1.956,
      "cp": "44260",
      "ville": "Savenay",
      "prix": {
        "Gazole": 0.001949,
        "GPLc": 0.000995,
        "E10": 0.0019190000000000001,
        "SP98": 0.001999
      },
      "maj_gouv": {
        "Gazole": "2026-06-13 09:04:21",
        "GPLc": "2026-05-22 08:56:08",
        "E10": "2026-06-13 09:04:22",
        "SP98": "2026-06-03 09:28:14"
      }
    },
    {
      "id": "44130003",
      "lat": 47.476,
      "lon": -1.75,
      "cp": "44130",
      "ville": "BLAIN",
      "prix": {
        "Gazole": 0.001929,
        "E85": 0.000795,
        "E10": 0.001889,
        "SP98": 0.0019790000000000003
      },
      "maj_gouv": {
        "Gazole": "2026-06-14 01:16:00",
        "E85": "2026-06-14 01:16:00",
        "E10": "2026-06-14 01:16:00",
        "SP98": "2026-06-14 01:16:00"
      }
    },
    {
      "id": "44802001",
      "lat": 47.222,
      "lon": -1.606,
      "cp": "44800",
      "ville": "SAINT-HERBLAIN",
      "prix": {
        "Gazole": 0.001942,
        "SP95": 0.001983,
        "E85": 0.0007199999999999999,
        "E10": 0.001899,
        "SP98": 0.0020440000000000002
      },
      "maj_gouv": {
        "Gazole": "2026-06-12 22:46:00",
        "SP95": "2026-06-12 22:46:00",
        "E85": "2026-06-12 22:46:00",
        "E10": "2026-06-12 22:46:00",
        "SP98": "2026-06-12 22:46:00"
      }
    },
    {
      "id": "44272001",
      "lat": 47.206,
      "lon": -1.535,
      "cp": "44200",
      "ville": "NANTES",
      "prix": {
        "Gazole": 0.0019790000000000003,
        "SP95": 0.0019950000000000002,
        "E85": 0.000815,
        "E10": 0.001934,
        "SP98": 0.0020510000000000003
      },
      "maj_gouv": {
        "Gazole": "2026-06-13 09:17:57",
        "SP95": "2026-06-13 09:17:57",
        "E85": "2026-06-08 10:31:21",
        "E10": "2026-06-13 09:17:57",
        "SP98": "2026-06-13 09:17:58"
      }
    },
    {
      "id": "44540001",
      "lat": 47.53,
      "lon": -1.186,
      "cp": "44540",
      "ville": "SAINT-MARS-LA-JAILLE",
      "prix": {
        "Gazole": 0.0019890000000000003,
        "E85": 0.000789,
        "E10": 0.0019790000000000003,
        "SP98": 0.002049
      },
      "maj_gouv": {
        "Gazole": "2026-06-05 12:11:59",
        "E85": "2026-05-06 08:51:24",
        "E10": "2026-06-02 08:00:33",
        "SP98": "2026-06-02 08:00:33"
      }
    },
    {
      "id": "44116001",
      "lat": 46.971,
      "lon": -1.434,
      "cp": "44116",
      "ville": "VIEILLEVIGNE",
      "prix": {
        "Gazole": 0.002005,
        "E85": 0.000798,
        "E10": 0.0019119999999999999,
        "SP98": 0.002022
      },
      "maj_gouv": {
        "Gazole": "2026-06-08 07:46:55",
        "E85": "2026-05-27 08:39:55",
        "E10": "2026-06-06 09:26:28",
        "SP98": "2026-06-08 16:53:16"
      }
    },
    {
      "id": "44600007",
      "lat": 47.29,
      "lon": -2.257,
      "cp": "44600",
      "ville": "SAINT-NAZAIRE",
      "prix": {
        "Gazole": 0.001905,
        "E85": 0.000828,
        "GPLc": 0.000998,
        "E10": 0.001878,
        "SP98": 0.001976
      },
      "maj_gouv": {
        "Gazole": "2026-06-14 01:17:00",
        "E85": "2026-06-14 01:17:00",
        "GPLc": "2026-06-14 01:17:00",
        "E10": "2026-06-14 01:17:00",
        "SP98": "2026-06-14 01:17:00"
      }
    },
    {
      "id": "44160005",
      "lat": 47.436,
      "lon": -2.077,
      "cp": "44160",
      "ville": "Sainte-Anne-sur-Brivet",
      "prix": {
        "Gazole": 0.001939,
        "E85": 0.000759,
        "E10": 0.0019190000000000001,
        "SP98": 0.001999
      },
      "maj_gouv": {
        "Gazole": "2026-06-12 10:20:44",
        "E85": "2026-06-08 18:00:00",
        "E10": "2026-06-10 18:00:00",
        "SP98": "2026-06-08 08:00:00"
      }
    },
    {
      "id": "44380007",
      "lat": 47.265467051322005,
      "lon": -2.3335748698712,
      "cp": "44380",
      "ville": "PORNICHET",
      "prix": {
        "Gazole": 0.001999,
        "SP95": 0.001999,
        "E85": 0.000798,
        "E10": 0.0019190000000000001,
        "SP98": 0.002039
      },
      "maj_gouv": {
        "Gazole": "2026-06-02 08:07:47",
        "SP95": "2026-06-11 08:01:00",
        "E85": "2026-05-26 10:08:02",
        "E10": "2026-06-11 08:01:00",
        "SP98": "2026-06-12 08:06:41"
      }
    },
    {
      "id": "44110005",
      "lat": 47.719,
      "lon": -1.364,
      "cp": "44110",
      "ville": "CHâTEAUBRIANT",
      "prix": {
        "Gazole": 0.002164,
        "SP95": 0.0021520000000000003,
        "SP98": 0.0021880000000000003
      },
      "maj_gouv": {
        "Gazole": "2026-06-08 09:00:49",
        "SP95": "2026-06-09 09:35:48",
        "SP98": "2026-06-09 09:35:48"
      }
    },
    {
      "id": "44340005",
      "lat": 47.167,
      "lon": -1.575,
      "cp": "44340",
      "ville": "BOUGUENAIS",
      "prix": {
        "Gazole": 0.001885,
        "GPLc": 0.000979,
        "E10": 0.0018839999999999998,
        "SP98": 0.00199
      },
      "maj_gouv": {
        "Gazole": "2026-06-14 00:01:00",
        "GPLc": "2026-06-14 00:01:00",
        "E10": "2026-06-14 00:01:00",
        "SP98": "2026-06-14 00:01:00"
      }
    },
    {
      "id": "44290002",
      "lat": 47.628,
      "lon": -1.831,
      "cp": "44290",
      "ville": "Guémené-Penfao",
      "prix": {
        "Gazole": 0.002033,
        "E10": 0.00199,
        "SP98": 0.00199
      },
      "maj_gouv": {
        "Gazole": "2026-06-12 06:29:38",
        "E10": "2026-06-12 06:29:39",
        "SP98": "2026-06-11 09:06:51"
      }
    },
    {
      "id": "44580002",
      "lat": 47.04693,
      "lon": -1.95644,
      "cp": "44580",
      "ville": "BOURGNEUF-EN-RETZ",
      "prix": {
        "Gazole": 0.0019790000000000003,
        "E10": 0.0019590000000000002,
        "SP98": 0.002029
      },
      "maj_gouv": {
        "Gazole": "2026-06-12 14:34:22",
        "E10": "2026-06-08 16:41:37",
        "SP98": "2026-06-05 07:47:42"
      }
    },
    {
      "id": "44119004",
      "lat": 47.33220773084601,
      "lon": -1.6174122928930001,
      "cp": "44119",
      "ville": "TREILLIèRES",
      "prix": {
        "Gazole": 0.001925,
        "E85": 0.000795,
        "E10": 0.001889,
        "SP98": 0.0019790000000000003
      },
      "maj_gouv": {
        "Gazole": "2026-06-13 09:22:26",
        "E85": "2026-06-04 11:00:33",
        "E10": "2026-06-08 07:10:23",
        "SP98": "2026-06-12 07:32:43"
      }
    },
    {
      "id": "44310001",
      "lat": 47.04729577,
      "lon": -1.6403904800000002,
      "cp": "44310",
      "ville": "SAINT-PHILBERT-DE-GRAND-LIEU",
      "prix": {
        "Gazole": 0.0019590000000000002,
        "GPLc": 0.000999,
        "E10": 0.001909,
        "SP98": 0.001999
      },
      "maj_gouv": {
        "Gazole": "2026-06-13 08:07:03",
        "GPLc": "2026-06-12 08:03:27",
        "E10": "2026-06-13 08:07:03",
        "SP98": "2026-06-13 08:07:03"
      }
    },
    {
      "id": "44230004",
      "lat": 47.199,
      "lon": -1.519,
      "cp": "44230",
      "ville": "SAINT-SéBASTIEN-SUR-LOIRE",
      "prix": {
        "Gazole": 0.0019590000000000002,
        "E10": 0.0019190000000000001,
        "SP98": 0.001999
      },
      "maj_gouv": {
        "Gazole": "2026-06-10 08:48:21",
        "E10": "2026-06-11 10:37:43",
        "SP98": "2026-06-12 14:24:28"
      }
    },
    {
      "id": "44800001",
      "lat": 47.247,
      "lon": -1.606,
      "cp": "44800",
      "ville": "SAINT-HERBLAIN",
      "prix": {
        "Gazole": 0.001949,
        "E85": 0.000798,
        "GPLc": 0.001085,
        "E10": 0.001899,
        "SP98": 0.0019790000000000003
      },
      "maj_gouv": {
        "Gazole": "2026-06-11 11:15:03",
        "E85": "2026-06-11 11:15:03",
        "GPLc": "2026-06-11 11:15:03",
        "E10": "2026-06-11 11:15:03",
        "SP98": "2026-06-11 11:15:03"
      }
    },
    {
      "id": "44360005",
      "lat": 47.32,
      "lon": -1.738,
      "cp": "44360",
      "ville": "Vigneux-de-Bretagne",
      "prix": {
        "Gazole": 0.001965,
        "E10": 0.001955,
        "SP98": 0.002043
      },
      "maj_gouv": {
        "Gazole": "2026-06-12 11:52:58",
        "E10": "2026-06-12 11:52:58",
        "SP98": "2026-06-12 11:52:58"
      }
    },
    {
      "id": "44190002",
      "lat": 47.098,
      "lon": -1.296,
      "cp": "44190",
      "ville": "GORGES",
      "prix": {
        "Gazole": 0.00204,
        "E10": 0.00196,
        "SP98": 0.00199
      },
      "maj_gouv": {
        "Gazole": "2026-06-08 12:05:03",
        "E10": "2026-06-08 12:05:03",
        "SP98": "2026-06-08 12:05:03"
      }
    },
    {
      "id": "44400005",
      "lat": 47.155,
      "lon": -1.537,
      "cp": "44400",
      "ville": "Rezé",
      "prix": {
        "Gazole": 0.001885
      },
      "maj_gouv": {
        "Gazole": "2026-06-13 00:01:00"
      }
    },
    {
      "id": "44190001",
      "lat": 47.084,
      "lon": -1.263,
      "cp": "44190",
      "ville": "GETIGNE",
      "prix": {
        "Gazole": 0.001944,
        "SP95": 0.001954,
        "E10": 0.0019039999999999999,
        "SP98": 0.001998
      },
      "maj_gouv": {
        "Gazole": "2026-06-13 12:40:00",
        "SP95": "2026-06-13 12:40:00",
        "E10": "2026-06-13 12:40:00",
        "SP98": "2026-06-13 12:40:00"
      }
    },
    {
      "id": "44570007",
      "lat": 47.305033,
      "lon": -2.212259,
      "cp": "44570",
      "ville": "TRIGNAC",
      "prix": {
        "Gazole": 0.002139,
        "E85": 0.0009649999999999999,
        "GPLc": 0.001089,
        "E10": 0.002099,
        "SP98": 0.002199
      },
      "maj_gouv": {
        "Gazole": "2026-06-11 20:57:00",
        "E85": "2026-06-06 07:17:28",
        "GPLc": "2026-06-06 07:17:28",
        "E10": "2026-06-06 07:16:00",
        "SP98": "2026-06-06 07:16:00"
      }
    },
    {
      "id": "44600011",
      "lat": 47.258910992176,
      "lon": -2.2650246791612,
      "cp": "44600",
      "ville": "ST NAZAIRE",
      "prix": {
        "Gazole": 0.001926,
        "E85": 0.0008349999999999999,
        "GPLc": 0.000999,
        "E10": 0.001882,
        "SP98": 0.001978
      },
      "maj_gouv": {
        "Gazole": "2026-06-13 07:50:25",
        "E85": "2026-06-06 13:30:59",
        "GPLc": "2026-06-13 19:17:58",
        "E10": "2026-06-12 07:37:53",
        "SP98": "2026-06-10 08:03:32"
      }
    },
    {
      "id": "44150004",
      "lat": 47.373,
      "lon": -1.185,
      "cp": "44150",
      "ville": "ANCENIS",
      "prix": {
        "Gazole": 0.001949,
        "E10": 0.001909,
        "SP98": 0.001999
      },
      "maj_gouv": {
        "Gazole": "2026-06-12 08:00:21",
        "E10": "2026-06-13 08:32:38",
        "SP98": "2026-06-13 08:32:38"
      }
    },
    {
      "id": "44770001",
      "lat": 47.141,
      "lon": -2.189,
      "cp": "44770",
      "ville": "LA PLAINE-SUR-MER",
      "prix": {
        "Gazole": 0.002,
        "E85": 0.000798,
        "E10": 0.001906,
        "SP98": 0.001996
      },
      "maj_gouv": {
        "Gazole": "2026-06-04 16:14:19",
        "E85": "2026-06-11 09:44:38",
        "E10": "2026-06-08 11:01:57",
        "SP98": "2026-06-08 11:01:57"
      }
    },
    {
      "id": "44500004",
      "lat": 47.287,
      "lon": -2.381,
      "cp": "44500",
      "ville": "LA BAULE-ESCOUBLAC",
      "prix": {
        "Gazole": 0.002009,
        "E10": 0.0019790000000000003,
        "SP98": 0.002099
      },
      "maj_gouv": {
        "Gazole": "2026-06-12 11:13:49",
        "E10": "2026-06-12 11:13:49",
        "SP98": "2026-06-12 11:13:49"
      }
    },
    {
      "id": "44119006",
      "lat": 47.357050659966006,
      "lon": -1.6016296214263999,
      "cp": "44119",
      "ville": "Grandchamp-des-Fontaines",
      "prix": {
        "Gazole": 0.001997,
        "E10": 0.001896,
        "SP98": 0.00202
      },
      "maj_gouv": {
        "Gazole": "2026-06-10 06:59:03",
        "E10": "2026-06-10 06:59:03",
        "SP98": "2026-06-10 06:59:03"
      }
    },
    {
      "id": "44550001",
      "lat": 47.327,
      "lon": -2.152,
      "cp": "44550",
      "ville": "MONTOIR-DE-BRETAGNE",
      "prix": {
        "Gazole": 0.001939,
        "E85": 0.000999,
        "E10": 0.001889,
        "SP98": 0.001977
      },
      "maj_gouv": {
        "Gazole": "2026-06-13 08:55:21",
        "E85": "2026-06-13 08:55:21",
        "E10": "2026-06-13 08:55:21",
        "SP98": "2026-06-13 08:55:21"
      }
    },
    {
      "id": "44230002",
      "lat": 47.209033556831,
      "lon": -1.5109141112012,
      "cp": "44230",
      "ville": "Saint-Sébastien-sur-Loire",
      "prix": {
        "Gazole": 0.001954,
        "SP95": 0.0020169999999999997,
        "E10": 0.001914,
        "SP98": 0.001999
      },
      "maj_gouv": {
        "Gazole": "2026-06-13 09:10:00",
        "SP95": "2026-06-13 09:10:00",
        "E10": "2026-06-13 09:10:00",
        "SP98": "2026-06-13 09:10:00"
      }
    },
    {
      "id": "44350006",
      "lat": 47.304,
      "lon": -2.409,
      "cp": "44350",
      "ville": "GUéRANDE",
      "prix": {
        "Gazole": 0.001999,
        "E85": 0.000809,
        "E10": 0.001929,
        "SP98": 0.002049
      },
      "maj_gouv": {
        "Gazole": "2026-06-10 11:10:10",
        "E85": "2026-06-13 07:59:21",
        "E10": "2026-06-10 11:10:11",
        "SP98": "2026-06-13 07:59:21"
      }
    },
    {
      "id": "44600009",
      "lat": 47.271,
      "lon": -2.25,
      "cp": "44600",
      "ville": "Saint-Nazaire",
      "prix": {
        "Gazole": 0.0018859999999999999,
        "E85": 0.000839,
        "GPLc": 0.000999,
        "E10": 0.0018939999999999999,
        "SP98": 0.00199
      },
      "maj_gouv": {
        "Gazole": "2026-06-14 00:01:00",
        "E85": "2026-06-14 00:01:00",
        "GPLc": "2026-06-14 00:01:00",
        "E10": "2026-06-14 00:01:00",
        "SP98": "2026-06-14 00:01:00"
      }
    },
    {
      "id": "44140002",
      "lat": 47.055,
      "lon": -1.511,
      "cp": "44140",
      "ville": "Geneston",
      "prix": {
        "Gazole": 0.001933,
        "E85": 0.000798,
        "E10": 0.0019119999999999999,
        "SP98": 0.002021
      },
      "maj_gouv": {
        "Gazole": "2026-06-13 07:09:03",
        "E85": "2026-06-13 07:09:03",
        "E10": "2026-06-13 07:09:03",
        "SP98": "2026-06-13 07:09:03"
      }
    },
    {
      "id": "44350007",
      "lat": 47.39,
      "lon": -2.432,
      "cp": "44350",
      "ville": "Saint-Molf",
      "prix": {
        "Gazole": 0.0019690000000000003,
        "E85": 0.000809,
        "E10": 0.001929,
        "SP98": 0.001999
      },
      "maj_gouv": {
        "Gazole": "2026-06-10 17:11:03",
        "E85": "2026-06-11 00:00:00",
        "E10": "2026-06-10 17:11:03",
        "SP98": "2026-06-10 17:11:03"
      }
    },
    {
      "id": "44110001",
      "lat": 47.716,
      "lon": -1.392,
      "cp": "44110",
      "ville": "Châteaubriant",
      "prix": {
        "Gazole": 0.00196,
        "SP95": 0.002099,
        "E10": 0.001934
      },
      "maj_gouv": {
        "Gazole": "2026-06-13 10:44:57",
        "SP95": "2026-06-02 15:53:46",
        "E10": "2026-06-13 10:44:57"
      }
    },
    {
      "id": "44330001",
      "lat": 47.17,
      "lon": -1.267,
      "cp": "44330",
      "ville": "Vallet",
      "prix": {
        "Gazole": 0.0019450000000000001,
        "SP95": 0.001955,
        "SP98": 0.001999
      },
      "maj_gouv": {
        "Gazole": "2026-06-13 09:15:00",
        "SP95": "2026-06-11 09:15:00",
        "SP98": "2026-06-13 09:15:00"
      }
    },
    {
      "id": "44140004",
      "lat": 47.082,
      "lon": -1.412,
      "cp": "44140",
      "ville": "Aigrefeuille-sur-Maine",
      "prix": {
        "Gazole": 0.001949,
        "E10": 0.00191,
        "SP98": 0.002027
      },
      "maj_gouv": {
        "Gazole": "2026-06-13 12:55:16",
        "E10": "2026-06-13 12:55:17",
        "SP98": "2026-06-13 12:55:17"
      }
    },
    {
      "id": "44140006",
      "lat": 47.052,
      "lon": -1.509,
      "cp": "44140",
      "ville": "Geneston",
      "prix": {
        "Gazole": 0.00209,
        "E10": 0.00199,
        "SP98": 0.00199
      },
      "maj_gouv": {
        "Gazole": "2026-06-11 08:57:01",
        "E10": "2026-06-10 09:47:54",
        "SP98": "2026-06-11 09:03:32"
      }
    },
    {
      "id": "44150003",
      "lat": 47.373,
      "lon": -1.194,
      "cp": "44150",
      "ville": "ANCENIS",
      "prix": {
        "Gazole": 0.001929,
        "SP95": 0.001957,
        "E85": 0.000795,
        "E10": 0.001883,
        "SP98": 0.001983
      },
      "maj_gouv": {
        "Gazole": "2026-06-14 01:16:00",
        "SP95": "2026-06-14 01:16:00",
        "E85": "2026-06-14 01:16:00",
        "E10": "2026-06-14 01:16:00",
        "SP98": "2026-06-14 01:16:00"
      }
    },
    {
      "id": "44190004",
      "lat": 47.078,
      "lon": -1.24,
      "cp": "44190",
      "ville": "GéTIGNé",
      "prix": {
        "Gazole": 0.001968,
        "E85": 0.0008489999999999999,
        "E10": 0.0019619999999999998,
        "SP98": 0.00199
      },
      "maj_gouv": {
        "Gazole": "2026-06-13 09:09:02",
        "E85": "2026-06-11 09:00:00",
        "E10": "2026-06-13 09:09:03",
        "SP98": "2026-06-02 08:46:22"
      }
    },
    {
      "id": "44370003",
      "lat": 47.3863,
      "lon": -1.03342,
      "cp": "44370",
      "ville": "Varades",
      "prix": {
        "SP95": 0.00219,
        "SP98": 0.00225
      },
      "maj_gouv": {
        "SP95": "2026-06-02 08:56:29",
        "SP98": "2026-06-02 08:56:07"
      }
    },
    {
      "id": "44350004",
      "lat": 47.32944,
      "lon": -2.41115,
      "cp": "44350",
      "ville": "Guérande",
      "prix": {
        "Gazole": 0.001939,
        "GPLc": 0.001029,
        "E10": 0.0019190000000000001,
        "SP98": 0.00199
      },
      "maj_gouv": {
        "Gazole": "2026-06-11 09:03:50",
        "GPLc": "2026-05-22 08:47:46",
        "E10": "2026-06-12 08:32:26",
        "SP98": "2026-06-12 08:32:27"
      }
    },
    {
      "id": "44420004",
      "lat": 47.348292,
      "lon": -2.5016629999999997,
      "cp": "44420",
      "ville": "LA TURBALLE",
      "prix": {
        "Gazole": 0.002053,
        "E10": 0.00199,
        "SP98": 0.00199
      },
      "maj_gouv": {
        "Gazole": "2026-06-12 08:19:36",
        "E10": "2026-06-12 08:19:36",
        "SP98": "2026-06-12 08:19:36"
      }
    },
    {
      "id": "44340011",
      "lat": 47.16772400000001,
      "lon": -1.643608,
      "cp": "44340",
      "ville": "BOUGUENAIS",
      "prix": {
        "Gazole": 0.002099,
        "E85": 0.000955,
        "E10": 0.002059,
        "SP98": 0.002169
      },
      "maj_gouv": {
        "Gazole": "2026-06-10 08:37:13",
        "E85": "2026-06-10 08:37:13",
        "E10": "2026-06-10 08:37:13",
        "SP98": "2026-06-10 08:37:13"
      }
    },
    {
      "id": "44360009",
      "lat": 47.274,
      "lon": -1.78,
      "cp": "44360",
      "ville": "Saint-Étienne-de-Montluc",
      "prix": {
        "Gazole": 0.00196,
        "E10": 0.00195,
        "SP98": 0.00199
      },
      "maj_gouv": {
        "Gazole": "2026-06-13 08:31:01",
        "E10": "2026-06-13 08:31:02",
        "SP98": "2026-06-08 07:41:50"
      }
    },
    {
      "id": "44640002",
      "lat": 47.198,
      "lon": -1.758,
      "cp": "44640",
      "ville": "LE PELLERIN",
      "prix": {
        "Gazole": 0.001934,
        "E10": 0.001899,
        "SP98": 0.001999
      },
      "maj_gouv": {
        "Gazole": "2026-06-12 08:18:00",
        "E10": "2026-06-12 08:18:00",
        "SP98": "2026-06-12 08:18:00"
      }
    },
    {
      "id": "44160003",
      "lat": 47.432,
      "lon": -2.083,
      "cp": "44160",
      "ville": "Pontchâteau",
      "prix": {
        "Gazole": 0.001939,
        "GPLc": 0.0011339999999999998,
        "E10": 0.0019190000000000001,
        "SP98": 0.001999
      },
      "maj_gouv": {
        "Gazole": "2026-06-12 10:21:05",
        "GPLc": "2026-05-19 10:51:59",
        "E10": "2026-06-10 18:00:00",
        "SP98": "2026-06-08 08:00:00"
      }
    },
    {
      "id": "44470002",
      "lat": 47.262,
      "lon": -1.447,
      "cp": "44470",
      "ville": "Thouaré-sur-Loire",
      "prix": {
        "Gazole": 0.0019690000000000003,
        "SP95": 0.0019890000000000003,
        "E10": 0.0019190000000000001,
        "SP98": 0.001999
      },
      "maj_gouv": {
        "Gazole": "2026-06-10 11:20:00",
        "SP95": "2026-06-10 11:20:00",
        "E10": "2026-06-10 11:20:00",
        "SP98": "2026-06-10 11:20:00"
      }
    },
    {
      "id": "44390003",
      "lat": 47.437,
      "lon": -1.517,
      "cp": "44390",
      "ville": "Nort-sur-Erdre",
      "prix": {
        "Gazole": 0.0019590000000000002,
        "E10": 0.001929,
        "SP98": 0.002029
      },
      "maj_gouv": {
        "Gazole": "2026-06-12 17:00:00",
        "E10": "2026-06-09 17:00:00",
        "SP98": "2026-06-09 17:00:00"
      }
    },
    {
      "id": "44840002",
      "lat": 47.159,
      "lon": -1.513,
      "cp": "44840",
      "ville": "LES SORINIERES",
      "prix": {
        "Gazole": 0.001971,
        "E85": 0.000825,
        "GPLc": 0.000989,
        "E10": 0.001964,
        "SP98": 0.00199
      },
      "maj_gouv": {
        "Gazole": "2026-06-14 00:01:00",
        "E85": "2026-06-14 00:01:00",
        "GPLc": "2026-06-14 00:01:00",
        "E10": "2026-06-14 00:01:00",
        "SP98": "2026-06-14 00:01:00"
      }
    },
    {
      "id": "44250004",
      "lat": 47.243,
      "lon": -2.157,
      "cp": "44250",
      "ville": "Saint-Brevin-les-Pins",
      "prix": {
        "Gazole": 0.002025,
        "E10": 0.00198
      },
      "maj_gouv": {
        "Gazole": "2026-06-11 19:14:10",
        "E10": "2026-06-11 19:14:11"
      }
    },
    {
      "id": "44130004",
      "lat": 47.476667007029,
      "lon": -1.7614514139338,
      "cp": "44130",
      "ville": "BLAIN",
      "prix": {
        "Gazole": 0.002023,
        "E10": 0.001976
      },
      "maj_gouv": {
        "Gazole": "2026-06-12 08:01:30",
        "E10": "2026-06-12 08:01:30"
      }
    },
    {
      "id": "44119008",
      "lat": 47.33780346813,
      "lon": -1.6548672204172,
      "cp": "44119",
      "ville": "Treillieres",
      "prix": {},
      "maj_gouv": {}
    },
    {
      "id": "44680001",
      "lat": 47.10399,
      "lon": -1.80297,
      "cp": "44680",
      "ville": "SAINTE-PAZANNE",
      "prix": {
        "Gazole": 0.0019690000000000003,
        "E10": 0.001949,
        "SP98": 0.001999
      },
      "maj_gouv": {
        "Gazole": "2026-06-10 08:54:21",
        "E10": "2026-06-05 09:03:37",
        "SP98": "2026-06-02 08:59:39"
      }
    },
    {
      "id": "44360010",
      "lat": 47.270007987698,
      "lon": -1.7750433764143,
      "cp": "44360",
      "ville": "Saint-Étienne-de-Montluc",
      "prix": {
        "Gazole": 0.001949,
        "SP95": 0.0019590000000000002,
        "E85": 0.000759,
        "GPLc": 0.000999,
        "E10": 0.001899,
        "SP98": 0.0019790000000000003
      },
      "maj_gouv": {
        "Gazole": "2026-06-12 08:33:20",
        "SP95": "2026-06-12 09:38:42",
        "E85": "2026-06-09 08:19:47",
        "GPLc": "2026-06-09 08:19:47",
        "E10": "2026-06-12 08:33:21",
        "SP98": "2026-06-12 09:38:42"
      }
    },
    {
      "id": "44600010",
      "lat": 47.287,
      "lon": -2.299,
      "cp": "44600",
      "ville": "SAINT NAZAIRE",
      "prix": {
        "Gazole": 0.0018859999999999999,
        "E85": 0.000829,
        "E10": 0.001889
      },
      "maj_gouv": {
        "Gazole": "2026-06-14 00:01:00",
        "E85": "2026-06-14 00:01:00",
        "E10": "2026-06-14 00:01:00"
      }
    },
    {
      "id": "44590002",
      "lat": 47.648,
      "lon": -1.669,
      "cp": "44590",
      "ville": "Derval",
      "prix": {
        "Gazole": 0.002199
      },
      "maj_gouv": {
        "Gazole": "2026-06-05 14:03:48"
      }
    },
    {
      "id": "44620002",
      "lat": 47.176,
      "lon": -1.678,
      "cp": "44620",
      "ville": "La Montagne",
      "prix": {
        "Gazole": 0.0019790000000000003,
        "SP95": 0.0019790000000000003,
        "E85": 0.000819,
        "GPLc": 0.001085,
        "E10": 0.0019890000000000003,
        "SP98": 0.001999
      },
      "maj_gouv": {
        "Gazole": "2026-06-10 08:10:41",
        "SP95": "2026-06-10 08:10:41",
        "E85": "2026-06-09 08:09:18",
        "GPLc": "2026-06-05 08:00:59",
        "E10": "2026-06-10 08:10:41",
        "SP98": "2026-06-10 08:10:41"
      }
    },
    {
      "id": "44540002",
      "lat": 47.516056,
      "lon": -1.187332,
      "cp": "44540",
      "ville": "ANGERS",
      "prix": {
        "Gazole": 0.00211,
        "E10": 0.00195
      },
      "maj_gouv": {
        "Gazole": "2026-06-09 12:24:07",
        "E10": "2026-06-09 12:24:07"
      }
    }
  ]
}