{
  "departement": "06",
  "date": "2026-06-04",
  "stations": [
    {
      "id": "6110002",
      "lat": 43.572,
      "lon": 7.016,
      "cp": "06110",
      "ville": "Le Cannet",
      "prix": {
        "Gazole": 0.002089,
        "E10": 0.002019,
        "SP98": 0.002099
      },
      "maj_gouv": {
        "Gazole": "2026-06-03 06:37:54",
        "E10": "2026-06-03 06:37:54",
        "SP98": "2026-06-03 06:37:54"
      }
    },
    {
      "id": "6201001",
      "lat": 43.73,
      "lon": 7.186,
      "cp": "06200",
      "ville": "Nice",
      "prix": {
        "Gazole": 0.001992,
        "SP95": 0.001977,
        "GPLc": 0.000953,
        "E10": 0.001909,
        "SP98": 0.00209
      },
      "maj_gouv": {
        "Gazole": "2026-06-03 22:54:00",
        "SP95": "2026-06-03 22:54:00",
        "GPLc": "2026-06-03 22:54:00",
        "E10": "2026-06-03 22:54:00",
        "SP98": "2026-06-03 22:54:00"
      }
    },
    {
      "id": "6580001",
      "lat": 43.592,
      "lon": 6.93,
      "cp": "06580",
      "ville": "PéGOMAS",
      "prix": {
        "Gazole": 0.002019,
        "SP95": 0.002069,
        "E85": 0.000759,
        "E10": 0.002025,
        "SP98": 0.002079
      },
      "maj_gouv": {
        "Gazole": "2026-06-02 08:52:07",
        "SP95": "2026-06-02 08:52:07",
        "E85": "2026-06-02 08:52:08",
        "E10": "2026-06-02 08:52:08",
        "SP98": "2026-06-02 08:52:08"
      }
    },
    {
      "id": "6600008",
      "lat": 43.574,
      "lon": 7.124,
      "cp": "06600",
      "ville": "Antibes",
      "prix": {
        "Gazole": 0.0020150000000000003,
        "E85": 0.000964,
        "E10": 0.00195,
        "SP98": 0.002034
      },
      "maj_gouv": {
        "Gazole": "2026-06-04 06:30:00",
        "E85": "2026-06-04 06:30:00",
        "E10": "2026-06-04 06:30:00",
        "SP98": "2026-06-04 06:30:00"
      }
    },
    {
      "id": "6540002",
      "lat": 43.964,
      "lon": 7.524,
      "cp": "06540",
      "ville": "Breil-sur-Roya",
      "prix": {
        "Gazole": 0.002199,
        "E10": 0.0022,
        "SP98": 0.002251
      },
      "maj_gouv": {
        "Gazole": "2026-05-27 07:20:34",
        "E10": "2026-05-27 07:20:35",
        "SP98": "2026-05-27 07:20:35"
      }
    },
    {
      "id": "6640002",
      "lat": 43.743572997273,
      "lon": 7.1463555621190995,
      "cp": "06640",
      "ville": "SAINT JEANNET",
      "prix": {
        "Gazole": 0.002199,
        "E10": 0.002154,
        "SP98": 0.0022029999999999997
      },
      "maj_gouv": {
        "Gazole": "2026-05-18 10:51:27",
        "E10": "2026-05-04 08:16:08",
        "SP98": "2026-05-04 08:16:08"
      }
    },
    {
      "id": "6670010",
      "lat": 43.855493454462994,
      "lon": 7.1973328111143005,
      "cp": "06670",
      "ville": "PLAN DU VAR",
      "prix": {
        "Gazole": 0.00225,
        "SP95": 0.00199,
        "SP98": 0.00199
      },
      "maj_gouv": {
        "Gazole": "2026-05-18 16:17:33",
        "SP95": "2026-05-18 16:18:49",
        "SP98": "2026-05-18 16:18:49"
      }
    },
    {
      "id": "6150011",
      "lat": 43.5506,
      "lon": 6.9923,
      "cp": "06150",
      "ville": "CANNES LA BOCCA",
      "prix": {
        "Gazole": 0.002129,
        "E10": 0.002129,
        "SP98": 0.002199
      },
      "maj_gouv": {
        "Gazole": "2026-06-03 20:00:00",
        "E10": "2026-06-03 20:00:00",
        "SP98": "2026-06-03 20:00:00"
      }
    },
    {
      "id": "6370002",
      "lat": 43.61390093000001,
      "lon": 6.97646643,
      "cp": "06370",
      "ville": "Mouans Sartoux",
      "prix": {
        "Gazole": 0.001999,
        "E85": 0.000754,
        "E10": 0.001952,
        "SP98": 0.0020800000000000003
      },
      "maj_gouv": {
        "Gazole": "2026-06-03 11:57:25",
        "E85": "2026-06-03 11:57:25",
        "E10": "2026-06-03 11:57:25",
        "SP98": "2026-06-03 11:57:25"
      }
    },
    {
      "id": "6200031",
      "lat": 43.665,
      "lon": 7.201,
      "cp": "06200",
      "ville": "Nice",
      "prix": {
        "Gazole": 0.002089,
        "E85": 0.000869,
        "E10": 0.002029,
        "SP98": 0.002109
      },
      "maj_gouv": {
        "Gazole": "2026-06-03 14:00:00",
        "E85": "2026-06-03 14:00:00",
        "E10": "2026-06-03 14:00:00",
        "SP98": "2026-06-03 14:00:00"
      }
    },
    {
      "id": "6100006",
      "lat": 43.724,
      "lon": 7.256,
      "cp": "06100",
      "ville": "Nice",
      "prix": {
        "Gazole": 0.002099,
        "E10": 0.002009,
        "SP98": 0.002159
      },
      "maj_gouv": {
        "Gazole": "2026-06-04 06:22:26",
        "E10": "2026-06-04 06:22:27",
        "SP98": "2026-06-04 06:22:26"
      }
    },
    {
      "id": "6510003",
      "lat": 43.764,
      "lon": 7.2,
      "cp": "06510",
      "ville": "GATTIERES",
      "prix": {
        "Gazole": 0.001907,
        "E10": 0.001926,
        "SP98": 0.002041
      },
      "maj_gouv": {
        "Gazole": "2026-06-02 10:55:57",
        "E10": "2026-06-02 10:55:57",
        "SP98": "2026-06-02 10:55:57"
      }
    },
    {
      "id": "6200014",
      "lat": 43.759,
      "lon": 7.2,
      "cp": "06200",
      "ville": "Nice",
      "prix": {
        "Gazole": 0.001994,
        "E10": 0.001987,
        "SP98": 0.0020670000000000003
      },
      "maj_gouv": {
        "Gazole": "2026-06-04 00:30:00",
        "E10": "2026-06-04 00:30:00",
        "SP98": "2026-06-04 00:30:00"
      }
    },
    {
      "id": "6110010",
      "lat": 43.569,
      "lon": 6.996,
      "cp": "06110",
      "ville": "Le Cannet",
      "prix": {
        "Gazole": 0.001973,
        "E85": 0.0008179999999999999,
        "E10": 0.0019190000000000001
      },
      "maj_gouv": {
        "Gazole": "2026-06-03 07:54:20",
        "E85": "2026-04-21 08:29:03",
        "E10": "2026-06-03 07:54:21"
      }
    },
    {
      "id": "6300018",
      "lat": 43.72,
      "lon": 7.286,
      "cp": "06300",
      "ville": "NICE",
      "prix": {
        "Gazole": 0.002058,
        "E10": 0.00195,
        "SP98": 0.00199
      },
      "maj_gouv": {
        "Gazole": "2026-06-04 00:01:00",
        "E10": "2026-06-04 00:01:00",
        "SP98": "2026-06-04 00:01:00"
      }
    },
    {
      "id": "6410003",
      "lat": 43.62474,
      "lon": 7.10244,
      "cp": "06410",
      "ville": "BIOT",
      "prix": {
        "Gazole": 0.002099,
        "SP95": 0.002129,
        "SP98": 0.002189
      },
      "maj_gouv": {
        "Gazole": "2026-05-29 11:52:51",
        "SP95": "2026-05-29 11:52:51",
        "SP98": "2026-05-29 11:52:51"
      }
    },
    {
      "id": "6800031",
      "lat": 43.654,
      "lon": 7.147,
      "cp": "06800",
      "ville": "Cagnes-sur-Mer",
      "prix": {
        "Gazole": 0.002129,
        "E85": 0.000929,
        "E10": 0.002099,
        "SP98": 0.002199
      },
      "maj_gouv": {
        "Gazole": "2026-06-03 21:00:00",
        "E85": "2026-06-03 21:00:00",
        "E10": "2026-06-03 21:00:00",
        "SP98": "2026-06-03 21:00:00"
      }
    },
    {
      "id": "6150005",
      "lat": 43.55,
      "lon": 6.97,
      "cp": "06150",
      "ville": "CANNES",
      "prix": {
        "Gazole": 0.001909,
        "E85": 0.000798,
        "E10": 0.001925,
        "SP98": 0.00199
      },
      "maj_gouv": {
        "Gazole": "2026-06-02 09:22:26",
        "E85": "2026-06-02 09:22:26",
        "E10": "2026-06-02 09:22:26",
        "SP98": "2026-06-02 09:22:26"
      }
    },
    {
      "id": "6600012",
      "lat": 43.607,
      "lon": 7.124,
      "cp": "06600",
      "ville": "ANTIBES",
      "prix": {
        "Gazole": 0.00225,
        "SP95": 0.00199
      },
      "maj_gouv": {
        "Gazole": "2026-04-09 11:01:12",
        "SP95": "2026-04-09 11:01:12"
      }
    },
    {
      "id": "6800018",
      "lat": 43.66223,
      "lon": 7.14933,
      "cp": "06800",
      "ville": "Cagnes-sur-Mer",
      "prix": {
        "Gazole": 0.002121,
        "E10": 0.00199,
        "SP98": 0.00199
      },
      "maj_gouv": {
        "Gazole": "2026-06-04 00:01:00",
        "E10": "2026-06-04 00:01:00",
        "SP98": "2026-06-04 00:01:00"
      }
    },
    {
      "id": "6190011",
      "lat": 43.762348422213,
      "lon": 7.457574677783099,
      "cp": "06190",
      "ville": "ROQUEBRUNE CAP MARTIN",
      "prix": {
        "Gazole": 0.002169,
        "E10": 0.002129,
        "SP98": 0.002229
      },
      "maj_gouv": {
        "Gazole": "2026-06-04 06:00:00",
        "E10": "2026-06-04 06:00:00",
        "SP98": "2026-06-04 06:00:00"
      }
    },
    {
      "id": "6140005",
      "lat": 43.7251854,
      "lon": 7.0962481,
      "cp": "06140",
      "ville": "vence",
      "prix": {
        "Gazole": 0.002099,
        "E10": 0.002029,
        "SP98": 0.002169
      },
      "maj_gouv": {
        "Gazole": "2026-06-03 06:55:34",
        "E10": "2026-06-03 06:55:35",
        "SP98": "2026-06-03 06:55:35"
      }
    },
    {
      "id": "6200026",
      "lat": 43.68588,
      "lon": 7.23677,
      "cp": "06200",
      "ville": "NICE",
      "prix": {
        "Gazole": 0.0021379999999999997,
        "E10": 0.00199,
        "SP98": 0.00199
      },
      "maj_gouv": {
        "Gazole": "2026-06-04 00:01:00",
        "E10": "2026-06-04 00:01:00",
        "SP98": "2026-06-04 00:01:00"
      }
    },
    {
      "id": "6460002",
      "lat": 43.698,
      "lon": 6.841,
      "cp": "06460",
      "ville": "Saint-Vallier-de-Thiey",
      "prix": {
        "Gazole": 0.002048,
        "E85": 0.000798,
        "E10": 0.001996,
        "SP98": 0.002126
      },
      "maj_gouv": {
        "Gazole": "2026-06-02 14:25:35",
        "E85": "2026-06-02 14:25:35",
        "E10": "2026-06-02 14:25:35",
        "SP98": "2026-06-02 14:25:35"
      }
    },
    {
      "id": "6700006",
      "lat": 43.669,
      "lon": 7.192,
      "cp": "06700",
      "ville": "Saint-Laurent-du-Var",
      "prix": {},
      "maj_gouv": {}
    },
    {
      "id": "6000028",
      "lat": 43.706,
      "lon": 7.251,
      "cp": "06000",
      "ville": "NICE",
      "prix": {
        "Gazole": 0.002143,
        "E85": 0.000879,
        "E10": 0.00199,
        "SP98": 0.00199
      },
      "maj_gouv": {
        "Gazole": "2026-06-04 00:01:00",
        "E85": "2026-06-04 00:01:00",
        "E10": "2026-06-04 00:01:00",
        "SP98": "2026-06-04 00:01:00"
      }
    },
    {
      "id": "6530002",
      "lat": 43.64464,
      "lon": 6.88496,
      "cp": "06530",
      "ville": "Peymeinade",
      "prix": {
        "Gazole": 0.0019790000000000003,
        "E85": 0.000798,
        "E10": 0.00196,
        "SP98": 0.0020800000000000003
      },
      "maj_gouv": {
        "Gazole": "2026-06-01 19:51:04",
        "E85": "2026-05-20 07:49:20",
        "E10": "2026-05-30 11:09:38",
        "SP98": "2026-05-30 11:09:38"
      }
    },
    {
      "id": "6110008",
      "lat": 43.581,
      "lon": 7.007,
      "cp": "06110",
      "ville": "Le Cannet",
      "prix": {
        "Gazole": 0.002129,
        "E85": 0.000989,
        "E10": 0.002059,
        "SP98": 0.002196
      },
      "maj_gouv": {
        "Gazole": "2026-06-01 16:37:52",
        "E85": "2026-05-13 07:37:52",
        "E10": "2026-06-01 16:37:53",
        "SP98": "2026-06-01 16:37:53"
      }
    },
    {
      "id": "6530008",
      "lat": 43.650151177447,
      "lon": 6.8105790964874,
      "cp": "06530",
      "ville": "SAINT-CEZAIRE-SUR-SIAGNE",
      "prix": {
        "Gazole": 0.001999,
        "SP95": 0.001999,
        "SP98": 0.00211
      },
      "maj_gouv": {
        "Gazole": "2026-06-01 05:02:00",
        "SP95": "2026-06-01 05:02:00",
        "SP98": "2026-06-01 05:02:00"
      }
    },
    {
      "id": "6500005",
      "lat": 43.805,
      "lon": 7.487,
      "cp": "06500",
      "ville": "MENTON",
      "prix": {
        "Gazole": 0.0020510000000000003,
        "SP95": 0.002078,
        "E85": 0.000798,
        "E10": 0.001999,
        "SP98": 0.00212
      },
      "maj_gouv": {
        "Gazole": "2026-06-03 08:47:58",
        "SP95": "2026-06-03 08:47:59",
        "E85": "2026-06-03 08:47:59",
        "E10": "2026-06-03 08:47:59",
        "SP98": "2026-06-03 08:47:59"
      }
    },
    {
      "id": "6250012",
      "lat": 43.593875,
      "lon": 7.035736,
      "cp": "06250",
      "ville": "MOUGINS",
      "prix": {
        "Gazole": 0.002335,
        "E10": 0.002326,
        "SP98": 0.002476
      },
      "maj_gouv": {
        "Gazole": "2026-06-03 09:30:00",
        "E10": "2026-06-03 09:30:00",
        "SP98": "2026-06-03 09:30:00"
      }
    },
    {
      "id": "6210009",
      "lat": 43.522,
      "lon": 6.899,
      "cp": "06210",
      "ville": "Mandelieu-la-Napoule",
      "prix": {
        "Gazole": 0.002019,
        "E85": 0.000929,
        "E10": 0.0019790000000000003,
        "SP98": 0.002089
      },
      "maj_gouv": {
        "Gazole": "2026-06-04 06:18:04",
        "E85": "2026-06-04 06:18:03",
        "E10": "2026-06-04 06:18:03",
        "SP98": "2026-06-04 06:18:03"
      }
    },
    {
      "id": "6430001",
      "lat": 44.087683067888,
      "lon": 7.5937221262687,
      "cp": "06430",
      "ville": "Tende",
      "prix": {
        "Gazole": 0.00219,
        "SP95": 0.0022299999999999998
      },
      "maj_gouv": {
        "Gazole": "2026-05-22 16:30:56",
        "SP95": "2026-05-22 16:30:56"
      }
    },
    {
      "id": "6560001",
      "lat": 43.645,
      "lon": 7.049,
      "cp": "06560",
      "ville": "VALBONNE",
      "prix": {
        "Gazole": 0.002036,
        "SP95": 0.002054,
        "SP98": 0.002141
      },
      "maj_gouv": {
        "Gazole": "2026-05-28 12:00:59",
        "SP95": "2026-05-28 12:00:59",
        "SP98": "2026-05-28 12:01:00"
      }
    },
    {
      "id": "6650003",
      "lat": 43.668,
      "lon": 6.985,
      "cp": "06650",
      "ville": "Opio",
      "prix": {
        "Gazole": 0.00249,
        "E10": 0.00239
      },
      "maj_gouv": {
        "Gazole": "2026-04-10 08:51:03",
        "E10": "2026-04-10 08:51:04"
      }
    },
    {
      "id": "6156001",
      "lat": 43.571,
      "lon": 6.959,
      "cp": "06150",
      "ville": "Cannes",
      "prix": {
        "Gazole": 0.0020099999999999996,
        "E85": 0.000839,
        "GPLc": 0.000979,
        "E10": 0.001932,
        "SP98": 0.002053
      },
      "maj_gouv": {
        "Gazole": "2026-06-04 00:41:00",
        "E85": "2026-06-04 00:41:00",
        "GPLc": "2026-01-29 12:08:45",
        "E10": "2026-06-04 00:41:00",
        "SP98": "2026-06-04 00:41:00"
      }
    },
    {
      "id": "6310002",
      "lat": 43.70743,
      "lon": 7.33406,
      "cp": "06310",
      "ville": "Beaulieu-sur-Mer",
      "prix": {
        "Gazole": 0.002159,
        "E10": 0.00199,
        "SP98": 0.00199
      },
      "maj_gouv": {
        "Gazole": "2026-06-04 00:01:00",
        "E10": "2026-06-04 00:01:00",
        "SP98": "2026-06-04 00:01:00"
      }
    },
    {
      "id": "6300012",
      "lat": 43.702,
      "lon": 7.294,
      "cp": "06300",
      "ville": "Nice",
      "prix": {
        "Gazole": 0.002238,
        "E10": 0.00218,
        "SP98": 0.00228
      },
      "maj_gouv": {
        "Gazole": "2026-05-22 15:59:20",
        "E10": "2026-05-06 07:51:28",
        "SP98": "2026-05-06 07:51:28"
      }
    },
    {
      "id": "6270004",
      "lat": 43.64,
      "lon": 7.139,
      "cp": "06270",
      "ville": "VILLENEUVE LOUBET",
      "prix": {
        "Gazole": 0.0019619999999999998,
        "GPLc": 0.000955,
        "E10": 0.001909,
        "SP98": 0.001999
      },
      "maj_gouv": {
        "Gazole": "2026-06-03 08:32:47",
        "GPLc": "2026-06-01 08:38:52",
        "E10": "2026-06-03 08:32:47",
        "SP98": "2026-06-03 08:32:47"
      }
    },
    {
      "id": "6750002",
      "lat": 43.764,
      "lon": 6.656,
      "cp": "06750",
      "ville": "Séranon",
      "prix": {
        "Gazole": 0.0020499999999999997,
        "E10": 0.00204,
        "SP98": 0.00212
      },
      "maj_gouv": {
        "Gazole": "2026-06-02 11:40:02",
        "E10": "2026-06-02 11:40:03",
        "SP98": "2026-06-02 11:40:03"
      }
    },
    {
      "id": "6150007",
      "lat": 43.569,
      "lon": 6.966,
      "cp": "06150",
      "ville": "Cannes",
      "prix": {
        "Gazole": 0.001954,
        "E10": 0.001907,
        "SP98": 0.0019890000000000003
      },
      "maj_gouv": {
        "Gazole": "2026-06-02 08:55:38",
        "E10": "2026-06-03 08:49:07",
        "SP98": "2026-06-03 08:49:07"
      }
    },
    {
      "id": "6110011",
      "lat": 43.570509,
      "lon": 7.002945,
      "cp": "06110",
      "ville": "LE CANNET",
      "prix": {
        "Gazole": 0.00196,
        "SP95": 0.00202,
        "E10": 0.00195,
        "SP98": 0.00204
      },
      "maj_gouv": {
        "Gazole": "2026-06-03 08:00:00",
        "SP95": "2026-06-03 08:00:00",
        "E10": "2026-06-03 08:00:00",
        "SP98": "2026-06-03 08:00:00"
      }
    },
    {
      "id": "6700008",
      "lat": 43.686012971315996,
      "lon": 7.1871525112118,
      "cp": "06700",
      "ville": "Saint-Laurent-du-Var",
      "prix": {
        "Gazole": 0.002176,
        "E85": 0.000889,
        "E10": 0.00199,
        "SP98": 0.00199
      },
      "maj_gouv": {
        "Gazole": "2026-05-20 20:00:29",
        "E85": "2026-05-19 19:50:00",
        "E10": "2026-05-19 19:50:00",
        "SP98": "2026-05-19 19:50:00"
      }
    },
    {
      "id": "6500004",
      "lat": 43.78,
      "lon": 7.482,
      "cp": "06500",
      "ville": "MENTON",
      "prix": {
        "Gazole": 0.0020510000000000003,
        "E85": 0.000798,
        "E10": 0.001999,
        "SP98": 0.00212
      },
      "maj_gouv": {
        "Gazole": "2026-06-03 09:05:27",
        "E85": "2026-06-03 09:05:27",
        "E10": "2026-06-03 09:05:27",
        "SP98": "2026-06-03 09:05:27"
      }
    },
    {
      "id": "6600022",
      "lat": 43.589,
      "lon": 7.12,
      "cp": "06600",
      "ville": "ANTIBES",
      "prix": {
        "Gazole": 0.00217,
        "E85": 0.000869,
        "E10": 0.00199,
        "SP98": 0.00199
      },
      "maj_gouv": {
        "Gazole": "2026-06-04 00:01:00",
        "E85": "2026-06-04 00:01:00",
        "E10": "2026-06-04 00:01:00",
        "SP98": "2026-06-04 00:01:00"
      }
    },
    {
      "id": "6600023",
      "lat": 43.598,
      "lon": 7.088,
      "cp": "06600",
      "ville": "ANTIBES",
      "prix": {
        "Gazole": 0.002134,
        "E10": 0.00199,
        "SP98": 0.00199
      },
      "maj_gouv": {
        "Gazole": "2026-06-04 00:01:00",
        "E10": "2026-06-04 00:01:00",
        "SP98": "2026-06-04 00:01:00"
      }
    },
    {
      "id": "6220006",
      "lat": 43.593,
      "lon": 7.057,
      "cp": "06220",
      "ville": "VALLAURIS",
      "prix": {
        "Gazole": 0.001939,
        "E85": 0.000778,
        "E10": 0.0019190000000000001,
        "SP98": 0.001999
      },
      "maj_gouv": {
        "Gazole": "2026-06-02 08:20:21",
        "E85": "2026-05-27 08:32:05",
        "E10": "2026-06-02 08:20:22",
        "SP98": "2026-06-02 08:20:22"
      }
    },
    {
      "id": "6610002",
      "lat": 43.732,
      "lon": 7.163,
      "cp": "06610",
      "ville": "LA GAUDE",
      "prix": {
        "Gazole": 0.002199,
        "SP95": 0.002176,
        "E85": 0.0009599999999999999,
        "SP98": 0.002231
      },
      "maj_gouv": {
        "Gazole": "2026-05-13 10:27:58",
        "SP95": "2026-05-13 10:27:59",
        "E85": "2026-05-13 10:27:59",
        "SP98": "2026-05-13 10:27:59"
      }
    },
    {
      "id": "6110004",
      "lat": 43.575,
      "lon": 7.012,
      "cp": "06110",
      "ville": "Le Cannet",
      "prix": {
        "Gazole": 0.001981,
        "E85": 0.0009739999999999999,
        "E10": 0.001918,
        "SP98": 0.002043
      },
      "maj_gouv": {
        "Gazole": "2026-06-04 06:30:00",
        "E85": "2026-06-04 06:30:00",
        "E10": "2026-06-04 06:30:00",
        "SP98": "2026-06-04 06:30:00"
      }
    },
    {
      "id": "6300016",
      "lat": 43.715,
      "lon": 7.287,
      "cp": "06300",
      "ville": "NICE",
      "prix": {
        "Gazole": 0.0021669999999999997,
        "E10": 0.00199,
        "SP98": 0.00199
      },
      "maj_gouv": {
        "Gazole": "2026-06-04 06:00:00",
        "E10": "2026-06-04 06:00:00",
        "SP98": "2026-06-04 06:00:00"
      }
    },
    {
      "id": "6420001",
      "lat": 44.184,
      "lon": 7.056,
      "cp": "06420",
      "ville": "ISOLA",
      "prix": {
        "Gazole": 0.002457,
        "SP95": 0.002169,
        "SP98": 0.002206
      },
      "maj_gouv": {
        "Gazole": "2026-04-10 04:00:00",
        "SP95": "2026-04-10 04:00:00",
        "SP98": "2026-04-10 04:00:00"
      }
    },
    {
      "id": "6190008",
      "lat": 43.764,
      "lon": 7.481,
      "cp": "06190",
      "ville": "Roquebrune-Cap-Martin",
      "prix": {
        "Gazole": 0.002099,
        "E85": 0.0008539999999999999,
        "E10": 0.001983,
        "SP98": 0.00199
      },
      "maj_gouv": {
        "Gazole": "2026-06-04 00:01:00",
        "E85": "2026-06-04 00:01:00",
        "E10": "2026-06-04 00:01:00",
        "SP98": "2026-06-04 00:01:00"
      }
    },
    {
      "id": "6550002",
      "lat": 43.576,
      "lon": 6.952,
      "cp": "06550",
      "ville": "La Roquette-sur-Siagne",
      "prix": {
        "Gazole": 0.002059,
        "E85": 0.000798,
        "E10": 0.002059,
        "SP98": 0.002109
      },
      "maj_gouv": {
        "Gazole": "2026-05-29 17:32:23",
        "E85": "2026-05-29 17:32:23",
        "E10": "2026-05-29 17:32:23",
        "SP98": "2026-05-29 17:32:23"
      }
    },
    {
      "id": "6300019",
      "lat": 43.702,
      "lon": 7.293,
      "cp": "06300",
      "ville": "Nice",
      "prix": {
        "Gazole": 0.00225,
        "E10": 0.00199,
        "SP98": 0.00199
      },
      "maj_gouv": {
        "Gazole": "2026-06-03 16:19:00",
        "E10": "2026-06-03 16:19:00",
        "SP98": "2026-06-03 16:19:00"
      }
    },
    {
      "id": "6220003",
      "lat": 43.56968,
      "lon": 7.04684,
      "cp": "06220",
      "ville": "VALLAURIS",
      "prix": {
        "Gazole": 0.001977,
        "E85": 0.000798,
        "E10": 0.001949,
        "SP98": 0.002058
      },
      "maj_gouv": {
        "Gazole": "2026-06-02 06:04:37",
        "E85": "2026-05-22 05:48:40",
        "E10": "2026-06-02 06:04:37",
        "SP98": "2026-06-02 06:04:37"
      }
    },
    {
      "id": "6130013",
      "lat": 43.641,
      "lon": 6.909,
      "cp": "06130",
      "ville": "Grasse",
      "prix": {
        "Gazole": 0.002039,
        "E85": 0.000939,
        "E10": 0.002029,
        "SP98": 0.002099
      },
      "maj_gouv": {
        "Gazole": "2026-05-29 10:25:05",
        "E85": "2026-04-16 16:27:58",
        "E10": "2026-05-29 10:25:05",
        "SP98": "2026-05-29 10:25:05"
      }
    },
    {
      "id": "6520001",
      "lat": 43.681,
      "lon": 6.969,
      "cp": "06520",
      "ville": "Grasse",
      "prix": {
        "Gazole": 0.002008,
        "E10": 0.001961,
        "SP98": 0.002089
      },
      "maj_gouv": {
        "Gazole": "2026-06-02 15:40:00",
        "E10": "2026-06-02 15:40:00",
        "SP98": "2026-06-02 15:40:00"
      }
    },
    {
      "id": "6700005",
      "lat": 43.66001,
      "lon": 7.18354,
      "cp": "06700",
      "ville": "Saint-Laurent-du-Var",
      "prix": {
        "Gazole": 0.0023,
        "SP95": 0.00225,
        "E10": 0.00219,
        "SP98": 0.0023
      },
      "maj_gouv": {
        "Gazole": "2026-04-29 05:58:35",
        "SP95": "2026-04-29 05:58:35",
        "E10": "2026-04-29 05:58:35",
        "SP98": "2026-04-29 05:58:35"
      }
    },
    {
      "id": "6670011",
      "lat": 43.762,
      "lon": 7.203,
      "cp": "06670",
      "ville": "Colomars",
      "prix": {
        "Gazole": 0.002029,
        "E10": 0.002049,
        "SP98": 0.002149
      },
      "maj_gouv": {
        "Gazole": "2026-06-03 21:00:00",
        "E10": "2026-06-03 21:00:00",
        "SP98": "2026-06-03 21:00:00"
      }
    },
    {
      "id": "6160008",
      "lat": 43.572753662013,
      "lon": 7.101651755897599,
      "cp": "06160",
      "ville": "Antibes",
      "prix": {
        "Gazole": 0.002199,
        "E10": 0.002149,
        "SP98": 0.002249
      },
      "maj_gouv": {
        "Gazole": "2026-06-04 05:45:00",
        "E10": "2026-06-04 05:45:00",
        "SP98": "2026-06-04 05:45:00"
      }
    },
    {
      "id": "6240004",
      "lat": 43.744768107496,
      "lon": 7.4266167809815995,
      "cp": "06240",
      "ville": "Beausoleil",
      "prix": {
        "Gazole": 0.002129,
        "SP95": 0.0021190000000000002,
        "SP98": 0.002189
      },
      "maj_gouv": {
        "Gazole": "2026-06-01 06:33:34",
        "SP95": "2026-06-01 06:33:35",
        "SP98": "2026-06-01 06:33:35"
      }
    },
    {
      "id": "6400005",
      "lat": 43.54738,
      "lon": 7.04418,
      "cp": "06400",
      "ville": "Cannes",
      "prix": {
        "Gazole": 0.00226,
        "SP95": 0.00228,
        "SP98": 0.0023
      },
      "maj_gouv": {
        "Gazole": "2026-05-27 17:34:24",
        "SP95": "2026-05-27 17:34:24",
        "SP98": "2026-05-27 17:34:24"
      }
    },
    {
      "id": "6300008",
      "lat": 43.722,
      "lon": 7.292,
      "cp": "06300",
      "ville": "Nice",
      "prix": {
        "Gazole": 0.002019,
        "E10": 0.001967,
        "SP98": 0.002047
      },
      "maj_gouv": {
        "Gazole": "2026-06-03 07:40:00",
        "E10": "2026-06-03 07:40:00",
        "SP98": "2026-06-03 07:40:00"
      }
    },
    {
      "id": "6296001",
      "lat": 43.6775,
      "lon": 7.22636,
      "cp": "06200",
      "ville": "Nice",
      "prix": {
        "Gazole": 0.002175,
        "SP95": 0.002182
      },
      "maj_gouv": {
        "Gazole": "2026-05-29 11:52:44",
        "SP95": "2026-04-29 08:55:20"
      }
    },
    {
      "id": "6320006",
      "lat": 43.72306286293401,
      "lon": 7.3977043091927,
      "cp": "06320",
      "ville": "Cap-d'Ail",
      "prix": {
        "Gazole": 0.00216,
        "E10": 0.00199,
        "SP98": 0.00199
      },
      "maj_gouv": {
        "Gazole": "2026-06-04 00:01:00",
        "E10": "2026-06-04 00:01:00",
        "SP98": "2026-06-04 00:01:00"
      }
    },
    {
      "id": "6400004",
      "lat": 43.547,
      "lon": 7.046,
      "cp": "06400",
      "ville": "Cannes",
      "prix": {
        "Gazole": 0.001981,
        "E10": 0.001954,
        "SP98": 0.002055
      },
      "maj_gouv": {
        "Gazole": "2026-06-04 06:30:00",
        "E10": "2026-06-04 06:30:00",
        "SP98": "2026-06-04 06:30:00"
      }
    },
    {
      "id": "6600009",
      "lat": 43.587,
      "lon": 7.119,
      "cp": "06600",
      "ville": "Antibes",
      "prix": {
        "Gazole": 0.0020150000000000003,
        "E10": 0.00195,
        "SP98": 0.00209
      },
      "maj_gouv": {
        "Gazole": "2026-06-03 11:10:00",
        "E10": "2026-06-03 11:10:00",
        "SP98": "2026-06-03 11:10:00"
      }
    },
    {
      "id": "6600010",
      "lat": 43.592,
      "lon": 7.105,
      "cp": "06600",
      "ville": "Antibes",
      "prix": {
        "Gazole": 0.001993,
        "E10": 0.002028,
        "SP98": 0.002108
      },
      "maj_gouv": {
        "Gazole": "2026-06-03 07:40:00",
        "E10": "2026-06-03 07:40:00",
        "SP98": "2026-06-03 07:40:00"
      }
    },
    {
      "id": "6650002",
      "lat": 43.65814,
      "lon": 6.99578,
      "cp": "06650",
      "ville": "OPIO",
      "prix": {
        "Gazole": 0.0024,
        "SP95": 0.00215,
        "E85": 0.0011200000000000001,
        "SP98": 0.00226
      },
      "maj_gouv": {
        "Gazole": "2026-04-07 09:22:01",
        "SP95": "2026-04-07 09:22:02",
        "E85": "2026-03-16 13:19:41",
        "SP98": "2026-04-07 09:22:02"
      }
    },
    {
      "id": "6800006",
      "lat": 43.657,
      "lon": 7.174,
      "cp": "06800",
      "ville": "Cagnes-sur-Mer",
      "prix": {
        "Gazole": 0.002129,
        "E10": 0.002099,
        "SP98": 0.002199
      },
      "maj_gouv": {
        "Gazole": "2026-06-03 20:00:00",
        "E10": "2026-06-03 20:00:00",
        "SP98": "2026-06-03 20:00:00"
      }
    },
    {
      "id": "6130008",
      "lat": 43.648,
      "lon": 6.915,
      "cp": "06130",
      "ville": "Grasse",
      "prix": {
        "Gazole": 0.002008,
        "E85": 0.000962,
        "E10": 0.001961,
        "SP98": 0.002089
      },
      "maj_gouv": {
        "Gazole": "2026-06-02 15:40:00",
        "E85": "2026-06-02 15:40:00",
        "E10": "2026-06-02 15:40:00",
        "SP98": "2026-06-02 15:40:00"
      }
    },
    {
      "id": "62000015",
      "lat": 43.678,
      "lon": 7.219,
      "cp": "06200",
      "ville": "NICE",
      "prix": {
        "Gazole": 0.002169,
        "E10": 0.002129,
        "SP98": 0.002229
      },
      "maj_gouv": {
        "Gazole": "2026-06-03 20:00:00",
        "E10": "2026-06-03 20:00:00",
        "SP98": "2026-06-03 20:00:00"
      }
    },
    {
      "id": "6800025",
      "lat": 43.67,
      "lon": 7.125,
      "cp": "06800",
      "ville": "Cagnes-sur-Mer",
      "prix": {
        "Gazole": 0.002029,
        "E85": 0.000959,
        "E10": 0.0019590000000000002,
        "SP98": 0.002049
      },
      "maj_gouv": {
        "Gazole": "2026-06-03 10:53:47",
        "E85": "2026-06-03 10:53:47",
        "E10": "2026-06-03 10:53:46",
        "SP98": "2026-06-03 10:53:46"
      }
    },
    {
      "id": "6200032",
      "lat": 43.67,
      "lon": 7.217,
      "cp": "06200",
      "ville": "NICE",
      "prix": {
        "Gazole": 0.002049,
        "E85": 0.000909,
        "E10": 0.0019690000000000003,
        "SP98": 0.002059
      },
      "maj_gouv": {
        "Gazole": "2026-06-04 06:23:06",
        "E85": "2026-06-04 06:23:05",
        "E10": "2026-06-04 06:23:05",
        "SP98": "2026-06-04 06:23:05"
      }
    },
    {
      "id": "6130009",
      "lat": 43.633,
      "lon": 6.958,
      "cp": "06130",
      "ville": "GRASSE",
      "prix": {
        "Gazole": 0.002226,
        "E85": 0.000989,
        "E10": 0.0021739999999999997,
        "SP98": 0.0023639999999999998
      },
      "maj_gouv": {
        "Gazole": "2026-06-03 11:04:27",
        "E85": "2026-06-03 11:04:28",
        "E10": "2026-06-03 11:04:28",
        "SP98": "2026-06-03 11:04:27"
      }
    },
    {
      "id": "6250011",
      "lat": 43.612,
      "lon": 6.978,
      "cp": "06250",
      "ville": "MOUGINS",
      "prix": {
        "Gazole": 0.002049,
        "E85": 0.000929,
        "E10": 0.002029,
        "SP98": 0.002199
      },
      "maj_gouv": {
        "Gazole": "2026-06-04 06:26:31",
        "E85": "2026-06-04 06:26:31",
        "E10": "2026-06-04 06:26:31",
        "SP98": "2026-06-04 06:26:31"
      }
    },
    {
      "id": "6500010",
      "lat": 43.766,
      "lon": 7.487,
      "cp": "06500",
      "ville": "MENTON",
      "prix": {
        "Gazole": 0.002069,
        "E85": 0.000939,
        "E10": 0.002009,
        "SP98": 0.002159
      },
      "maj_gouv": {
        "Gazole": "2026-06-04 06:19:43",
        "E85": "2026-06-04 06:19:43",
        "E10": "2026-06-04 06:19:44",
        "SP98": "2026-06-04 06:19:43"
      }
    },
    {
      "id": "6600001",
      "lat": 43.603,
      "lon": 7.085,
      "cp": "06600",
      "ville": "ANTIBES",
      "prix": {
        "Gazole": 0.001981,
        "SP95": 0.001983,
        "E10": 0.00191,
        "SP98": 0.002072
      },
      "maj_gouv": {
        "Gazole": "2026-06-03 22:41:00",
        "SP95": "2026-06-03 22:41:00",
        "E10": "2026-06-03 22:41:00",
        "SP98": "2026-06-03 22:41:00"
      }
    },
    {
      "id": "6000032",
      "lat": 43.71,
      "lon": 7.256,
      "cp": "06000",
      "ville": "Nice",
      "prix": {
        "Gazole": 0.002099,
        "E85": 0.000909,
        "E10": 0.002009,
        "SP98": 0.002159
      },
      "maj_gouv": {
        "Gazole": "2026-06-04 06:21:09",
        "E85": "2026-06-04 06:21:10",
        "E10": "2026-06-04 06:21:10",
        "SP98": "2026-06-04 06:21:10"
      }
    },
    {
      "id": "6400010",
      "lat": 43.559,
      "lon": 7.002,
      "cp": "06400",
      "ville": "CANNES",
      "prix": {
        "Gazole": 0.0021230000000000003,
        "E85": 0.000864,
        "E10": 0.00199,
        "SP98": 0.00199
      },
      "maj_gouv": {
        "Gazole": "2026-06-04 00:01:00",
        "E85": "2026-06-04 00:01:00",
        "E10": "2026-06-04 00:01:00",
        "SP98": "2026-06-04 00:01:00"
      }
    },
    {
      "id": "6560006",
      "lat": 43.626985999999995,
      "lon": 6.99861,
      "cp": "06560",
      "ville": "Valbonne",
      "prix": {
        "Gazole": 0.00212,
        "E85": 0.000869,
        "E10": 0.00199,
        "SP98": 0.00199
      },
      "maj_gouv": {
        "Gazole": "2026-06-03 19:57:21",
        "E85": "2026-06-03 19:57:21",
        "E10": "2026-06-03 19:57:21",
        "SP98": "2026-06-03 19:57:21"
      }
    },
    {
      "id": "6000007",
      "lat": 43.69233,
      "lon": 7.24991,
      "cp": "06000",
      "ville": "NICE",
      "prix": {
        "Gazole": 0.002089,
        "E10": 0.002018,
        "SP98": 0.002065
      },
      "maj_gouv": {
        "Gazole": "2026-06-02 08:37:11",
        "E10": "2026-06-02 08:37:11",
        "SP98": "2026-06-02 08:37:12"
      }
    },
    {
      "id": "6140004",
      "lat": 43.715025979924,
      "lon": 7.117118026644899,
      "cp": "06140",
      "ville": "VENCE",
      "prix": {
        "Gazole": 0.002176,
        "GPLc": 0.001019,
        "E10": 0.00199,
        "SP98": 0.00199
      },
      "maj_gouv": {
        "Gazole": "2026-06-04 00:01:00",
        "GPLc": "2026-06-04 00:01:00",
        "E10": "2026-06-04 00:01:00",
        "SP98": "2026-06-04 00:01:00"
      }
    },
    {
      "id": "6480002",
      "lat": 43.674,
      "lon": 7.123,
      "cp": "06480",
      "ville": "LA COLLE-SUR-LOUP",
      "prix": {
        "Gazole": 0.001939,
        "SP95": 0.0019690000000000003,
        "E10": 0.0019019999999999998,
        "SP98": 0.0019890000000000003
      },
      "maj_gouv": {
        "Gazole": "2026-06-03 22:15:00",
        "SP95": "2026-06-03 22:15:00",
        "E10": "2026-06-03 22:15:00",
        "SP98": "2026-06-03 22:15:00"
      }
    },
    {
      "id": "6320003",
      "lat": 43.755,
      "lon": 7.398,
      "cp": "06320",
      "ville": "La Turbie",
      "prix": {
        "Gazole": 0.002195,
        "GPLc": 0.001063,
        "E10": 0.002141,
        "SP98": 0.002241
      },
      "maj_gouv": {
        "Gazole": "2026-06-04 00:30:00",
        "GPLc": "2026-06-04 00:30:00",
        "E10": "2026-06-04 00:30:00",
        "SP98": "2026-06-04 00:30:00"
      }
    },
    {
      "id": "6500008",
      "lat": 43.784,
      "lon": 7.521,
      "cp": "06500",
      "ville": "MENTON",
      "prix": {
        "Gazole": 0.002173,
        "E10": 0.00199
      },
      "maj_gouv": {
        "Gazole": "2026-06-04 06:00:00",
        "E10": "2026-06-04 06:00:00"
      }
    },
    {
      "id": "6250010",
      "lat": 43.5833864141,
      "lon": 7.009567855869999,
      "cp": "06250",
      "ville": "MOUGINS",
      "prix": {
        "Gazole": 0.002016,
        "E85": 0.000885,
        "E10": 0.001911,
        "SP98": 0.00199
      },
      "maj_gouv": {
        "Gazole": "2026-06-04 00:01:00",
        "E85": "2026-06-04 00:01:00",
        "E10": "2026-06-04 00:01:00",
        "SP98": "2026-06-04 00:01:00"
      }
    },
    {
      "id": "6110009",
      "lat": 43.562,
      "lon": 6.967,
      "cp": "06110",
      "ville": "LE CANNET",
      "prix": {
        "Gazole": 0.00202,
        "E10": 0.0019010000000000001,
        "SP98": 0.00199
      },
      "maj_gouv": {
        "Gazole": "2026-06-04 00:01:00",
        "E10": "2026-06-04 00:01:00",
        "SP98": "2026-06-04 00:01:00"
      }
    },
    {
      "id": "6320004",
      "lat": 43.745,
      "lon": 7.392,
      "cp": "06320",
      "ville": "LA TURBIE",
      "prix": {
        "Gazole": 0.002359,
        "SP95": 0.002225,
        "E85": 0.001038,
        "SP98": 0.0022660000000000002
      },
      "maj_gouv": {
        "Gazole": "2026-05-09 18:44:29",
        "SP95": "2026-05-09 18:44:29",
        "E85": "2026-05-09 18:44:29",
        "SP98": "2026-05-09 18:44:29"
      }
    },
    {
      "id": "6190004",
      "lat": 43.764,
      "lon": 7.48,
      "cp": "06190",
      "ville": "Roquebrune-Cap-Martin",
      "prix": {
        "Gazole": 0.002209,
        "E85": 0.001139,
        "E10": 0.002149,
        "SP98": 0.0022789999999999998
      },
      "maj_gouv": {
        "Gazole": "2026-05-26 09:58:22",
        "E85": "2026-04-19 17:45:10",
        "E10": "2026-05-26 09:58:22",
        "SP98": "2026-05-26 09:58:22"
      }
    },
    {
      "id": "6770002",
      "lat": 43.767,
      "lon": 7.201,
      "cp": "06770",
      "ville": "GATTIERES",
      "prix": {
        "Gazole": 0.002033,
        "E85": 0.000884,
        "E10": 0.001938,
        "SP98": 0.00199
      },
      "maj_gouv": {
        "Gazole": "2026-06-04 00:01:00",
        "E85": "2026-06-04 00:01:00",
        "E10": "2026-06-04 00:01:00",
        "SP98": "2026-06-04 00:01:00"
      }
    },
    {
      "id": "6400001",
      "lat": 43.5553,
      "lon": 7.02483,
      "cp": "06400",
      "ville": "Cannes",
      "prix": {
        "Gazole": 0.002075,
        "E10": 0.00199,
        "SP98": 0.00199
      },
      "maj_gouv": {
        "Gazole": "2026-06-03 08:26:40",
        "E10": "2026-04-08 08:19:53",
        "SP98": "2026-04-08 08:19:53"
      }
    },
    {
      "id": "6600007",
      "lat": 43.600876047599996,
      "lon": 7.12225595196,
      "cp": "06600",
      "ville": "ANTIBES",
      "prix": {
        "Gazole": 0.002089,
        "GPLc": 0.001045,
        "E10": 0.002059,
        "SP98": 0.002109
      },
      "maj_gouv": {
        "Gazole": "2026-06-02 06:30:05",
        "GPLc": "2026-06-04 06:25:02",
        "E10": "2026-06-02 06:30:23",
        "SP98": "2026-06-02 06:30:23"
      }
    },
    {
      "id": "6000026",
      "lat": 43.707,
      "lon": 7.292,
      "cp": "06300",
      "ville": "NICE",
      "prix": {
        "Gazole": 0.002164,
        "E85": 0.000874,
        "GPLc": 0.001019,
        "E10": 0.00199,
        "SP98": 0.00199
      },
      "maj_gouv": {
        "Gazole": "2026-06-04 00:01:00",
        "E85": "2026-06-04 00:01:00",
        "GPLc": "2026-06-04 00:01:00",
        "E10": "2026-06-04 00:01:00",
        "SP98": "2026-06-04 00:01:00"
      }
    },
    {
      "id": "6260002",
      "lat": 43.954755139463,
      "lon": 6.89044101879,
      "cp": "06260",
      "ville": "PUGET-THENIERS",
      "prix": {
        "Gazole": 0.001999,
        "SP95": 0.0019890000000000003,
        "SP98": 0.001999
      },
      "maj_gouv": {
        "Gazole": "2026-05-30 07:47:16",
        "SP95": "2026-05-02 08:00:19",
        "SP98": "2026-05-02 08:00:19"
      }
    },
    {
      "id": "6450002",
      "lat": 43.993,
      "lon": 7.319,
      "cp": "06450",
      "ville": "La Bollène-Vésubie",
      "prix": {
        "Gazole": 0.002129,
        "SP95": 0.0021070000000000004,
        "E10": 0.002059,
        "SP98": 0.002139
      },
      "maj_gouv": {
        "Gazole": "2026-06-03 13:16:55",
        "SP95": "2026-06-03 13:16:55",
        "E10": "2026-06-03 13:16:55",
        "SP98": "2026-06-03 13:16:55"
      }
    },
    {
      "id": "6200027",
      "lat": 43.68801625970001,
      "lon": 7.197364288269999,
      "cp": "06200",
      "ville": "NICE",
      "prix": {
        "Gazole": 0.002016,
        "E85": 0.000865,
        "E10": 0.001907,
        "SP98": 0.00199
      },
      "maj_gouv": {
        "Gazole": "2026-06-04 00:01:00",
        "E85": "2026-06-04 00:01:00",
        "E10": "2026-06-04 00:01:00",
        "SP98": "2026-06-04 00:01:00"
      }
    },
    {
      "id": "6600024",
      "lat": 43.599,
      "lon": 7.087,
      "cp": "06600",
      "ville": "ANTIBES",
      "prix": {
        "Gazole": 0.002032,
        "E85": 0.0008449999999999999,
        "E10": 0.001923,
        "SP98": 0.00199
      },
      "maj_gouv": {
        "Gazole": "2026-06-04 00:01:00",
        "E85": "2026-06-04 00:01:00",
        "E10": "2026-06-04 00:01:00",
        "SP98": "2026-06-04 00:01:00"
      }
    },
    {
      "id": "6150008",
      "lat": 43.55,
      "lon": 6.958,
      "cp": "06150",
      "ville": "Cannes",
      "prix": {
        "Gazole": 0.00202,
        "E85": 0.000839,
        "E10": 0.001928,
        "SP98": 0.00199
      },
      "maj_gouv": {
        "Gazole": "2026-06-04 00:01:00",
        "E85": "2026-06-04 00:01:00",
        "E10": "2026-06-04 00:01:00",
        "SP98": "2026-06-04 00:01:00"
      }
    },
    {
      "id": "6260001",
      "lat": 43.95599,
      "lon": 6.89387,
      "cp": "06260",
      "ville": "PUGET-THéNIERS",
      "prix": {
        "Gazole": 0.0020800000000000003,
        "E10": 0.00199,
        "SP98": 0.00199
      },
      "maj_gouv": {
        "Gazole": "2026-06-03 06:30:00",
        "E10": "2026-06-02 20:17:27",
        "SP98": "2026-06-02 20:17:27"
      }
    },
    {
      "id": "6510001",
      "lat": 43.776,
      "lon": 7.199,
      "cp": "06510",
      "ville": "Carros",
      "prix": {
        "Gazole": 0.002079,
        "E10": 0.00199,
        "SP98": 0.00199
      },
      "maj_gouv": {
        "Gazole": "2026-06-03 08:00:00",
        "E10": "2026-06-01 15:09:26",
        "SP98": "2026-06-01 15:09:26"
      }
    },
    {
      "id": "6700002",
      "lat": 43.666,
      "lon": 7.193,
      "cp": "06700",
      "ville": "SAINT-LAURENT-DU-VAR",
      "prix": {
        "Gazole": 0.002079,
        "E85": 0.0008990000000000001,
        "GPLc": 0.001045,
        "E10": 0.0020150000000000003,
        "SP98": 0.002089
      },
      "maj_gouv": {
        "Gazole": "2026-06-02 23:05:00",
        "E85": "2026-06-02 23:05:00",
        "GPLc": "2026-06-02 23:05:00",
        "E10": "2026-06-02 23:05:00",
        "SP98": "2026-06-02 23:05:00"
      }
    },
    {
      "id": "6230003",
      "lat": 43.706,
      "lon": 7.32,
      "cp": "06230",
      "ville": "Villefranche-sur-Mer",
      "prix": {
        "Gazole": 0.002159,
        "E10": 0.00199,
        "SP98": 0.00199
      },
      "maj_gouv": {
        "Gazole": "2026-06-04 00:01:00",
        "E10": "2026-06-04 00:01:00",
        "SP98": "2026-06-04 00:01:00"
      }
    },
    {
      "id": "6530009",
      "lat": 43.634466130711,
      "lon": 6.8536449026235,
      "cp": "06530",
      "ville": "LE TIGNET",
      "prix": {
        "Gazole": 0.001999,
        "SP95": 0.002039
      },
      "maj_gouv": {
        "Gazole": "2026-05-29 09:56:47",
        "SP95": "2026-05-29 09:56:47"
      }
    },
    {
      "id": "6600026",
      "lat": 43.590643167347004,
      "lon": 7.109473952493801,
      "cp": "06600",
      "ville": "Antibes",
      "prix": {
        "Gazole": 0.002006,
        "E85": 0.0008449999999999999,
        "E10": 0.001941,
        "SP98": 0.0020819999999999996
      },
      "maj_gouv": {
        "Gazole": "2026-06-03 09:39:44",
        "E85": "2026-04-10 09:03:10",
        "E10": "2026-06-03 09:39:44",
        "SP98": "2026-06-03 09:39:45"
      }
    },
    {
      "id": "6220005",
      "lat": 43.58,
      "lon": 7.062,
      "cp": "06220",
      "ville": "Golfe-Juan",
      "prix": {
        "Gazole": 0.002134,
        "E10": 0.00199,
        "SP98": 0.00199
      },
      "maj_gouv": {
        "Gazole": "2026-06-04 00:01:00",
        "E10": "2026-06-04 00:01:00",
        "SP98": "2026-06-04 00:01:00"
      }
    },
    {
      "id": "6610005",
      "lat": 43.717648206695,
      "lon": 7.1522485398704,
      "cp": "06610",
      "ville": "LA GAUDE",
      "prix": {
        "Gazole": 0.002199,
        "E10": 0.002059,
        "SP98": 0.002199
      },
      "maj_gouv": {
        "Gazole": "2026-05-27 12:21:48",
        "E10": "2026-05-27 12:21:48",
        "SP98": "2026-05-27 12:21:48"
      }
    },
    {
      "id": "6340001",
      "lat": 43.757,
      "lon": 7.32,
      "cp": "06340",
      "ville": "Drap",
      "prix": {
        "Gazole": 0.0020499999999999997,
        "SP95": 0.00209,
        "SP98": 0.00213
      },
      "maj_gouv": {
        "Gazole": "2026-06-03 07:09:42",
        "SP95": "2026-06-03 07:09:42",
        "SP98": "2026-06-03 07:09:42"
      }
    },
    {
      "id": "6110006",
      "lat": 43.573,
      "lon": 7.001,
      "cp": "06110",
      "ville": "Le Cannet",
      "prix": {
        "Gazole": 0.00198,
        "E10": 0.00195,
        "SP98": 0.00204
      },
      "maj_gouv": {
        "Gazole": "2026-06-03 08:00:00",
        "E10": "2026-06-03 08:00:00",
        "SP98": "2026-06-03 08:00:00"
      }
    },
    {
      "id": "6210010",
      "lat": 43.534,
      "lon": 6.934,
      "cp": "06210",
      "ville": "MANDELIEU LA NAPOULE",
      "prix": {
        "Gazole": 0.0019590000000000002,
        "E85": 0.000959,
        "GPLc": 0.000999,
        "E10": 0.001909,
        "SP98": 0.0020369999999999997
      },
      "maj_gouv": {
        "Gazole": "2026-06-03 09:49:32",
        "E85": "2026-06-03 09:49:32",
        "GPLc": "2026-06-03 09:49:32",
        "E10": "2026-06-03 14:46:01",
        "SP98": "2026-06-03 09:49:32"
      }
    },
    {
      "id": "6330003",
      "lat": 43.667,
      "lon": 7.051,
      "cp": "06330",
      "ville": "Roquefort-les-Pins",
      "prix": {
        "Gazole": 0.00215,
        "E85": 0.000864,
        "E10": 0.00199
      },
      "maj_gouv": {
        "Gazole": "2026-06-04 06:08:51",
        "E85": "2026-06-03 06:28:27",
        "E10": "2026-05-27 06:18:08"
      }
    },
    {
      "id": "6240006",
      "lat": 43.75,
      "lon": 7.423,
      "cp": "06240",
      "ville": "Beausoleil",
      "prix": {
        "Gazole": 0.00212,
        "GPLc": 0.00115,
        "E10": 0.00212,
        "SP98": 0.00219
      },
      "maj_gouv": {
        "Gazole": "2026-06-02 11:00:34",
        "GPLc": "2026-05-30 09:56:14",
        "E10": "2026-05-30 09:56:14",
        "SP98": "2026-05-30 09:56:14"
      }
    },
    {
      "id": "6345001",
      "lat": 43.743310338554004,
      "lon": 7.3213261846714,
      "cp": "06345",
      "ville": "La Trinité",
      "prix": {
        "Gazole": 0.001975,
        "E85": 0.000798,
        "E10": 0.001974,
        "SP98": 0.002089
      },
      "maj_gouv": {
        "Gazole": "2026-06-03 08:33:00",
        "E85": "2026-06-03 08:33:01",
        "E10": "2026-06-03 08:33:01",
        "SP98": "2026-06-03 08:33:01"
      }
    },
    {
      "id": "6130012",
      "lat": 43.639023713571,
      "lon": 6.9763076001534,
      "cp": "06130",
      "ville": "PLASCASSIER - GRASSE",
      "prix": {
        "Gazole": 0.001999,
        "E85": 0.000754,
        "E10": 0.001952,
        "SP98": 0.0020800000000000003
      },
      "maj_gouv": {
        "Gazole": "2026-06-02 10:57:21",
        "E85": "2026-06-02 10:57:21",
        "E10": "2026-06-02 10:57:21",
        "SP98": "2026-06-02 10:57:21"
      }
    },
    {
      "id": "6270003",
      "lat": 43.629,
      "lon": 7.134,
      "cp": "06270",
      "ville": "Villeneuve-Loubet",
      "prix": {
        "Gazole": 0.001999,
        "E10": 0.0019590000000000002,
        "SP98": 0.002099
      },
      "maj_gouv": {
        "Gazole": "2026-06-03 07:31:27",
        "E10": "2026-06-03 07:31:27",
        "SP98": "2026-06-03 07:31:27"
      }
    },
    {
      "id": "6250009",
      "lat": 43.584,
      "lon": 7.025,
      "cp": "06250",
      "ville": "MOUGINS",
      "prix": {
        "Gazole": 0.0021709999999999998,
        "E85": 0.000998,
        "GPLc": 0.001078,
        "E10": 0.00199,
        "SP98": 0.00199
      },
      "maj_gouv": {
        "Gazole": "2026-06-04 00:01:00",
        "E85": "2026-06-04 00:01:00",
        "GPLc": "2026-06-04 00:01:00",
        "E10": "2026-06-04 00:01:00",
        "SP98": "2026-06-04 00:01:00"
      }
    },
    {
      "id": "6230002",
      "lat": 43.706,
      "lon": 7.301,
      "cp": "06230",
      "ville": "Villefranche-sur-Mer",
      "prix": {
        "Gazole": 0.002019,
        "E10": 0.001967,
        "SP98": 0.002047
      },
      "maj_gouv": {
        "Gazole": "2026-06-03 07:40:00",
        "E10": "2026-06-03 07:40:00",
        "SP98": "2026-06-03 07:40:00"
      }
    },
    {
      "id": "6600027",
      "lat": 43.577344000000004,
      "lon": 7.107005,
      "cp": "06600",
      "ville": "ANTIBES",
      "prix": {
        "Gazole": 0.001905,
        "E10": 0.001899
      },
      "maj_gouv": {
        "Gazole": "2026-06-02 13:26:32",
        "E10": "2026-06-02 13:26:32"
      }
    },
    {
      "id": "6620001",
      "lat": 43.79666099999999,
      "lon": 6.949831,
      "cp": "06620",
      "ville": "Gréolières",
      "prix": {
        "Gazole": 0.002321,
        "E10": 0.002101
      },
      "maj_gouv": {
        "Gazole": "2026-04-30 16:18:23",
        "E10": "2026-04-30 16:18:24"
      }
    },
    {
      "id": "6250001",
      "lat": 43.579827627633996,
      "lon": 6.9959674750295004,
      "cp": "06250",
      "ville": "MOUGINS",
      "prix": {
        "Gazole": 0.0019790000000000003,
        "E85": 0.000879,
        "E10": 0.001929,
        "SP98": 0.002049
      },
      "maj_gouv": {
        "Gazole": "2026-06-02 14:35:08",
        "E85": "2026-05-27 08:50:48",
        "E10": "2026-06-02 14:35:08",
        "SP98": "2026-06-02 14:35:08"
      }
    },
    {
      "id": "6400013",
      "lat": 43.552,
      "lon": 7.006,
      "cp": "06400",
      "ville": "CANNES",
      "prix": {
        "Gazole": 0.002029,
        "E10": 0.0019590000000000002,
        "SP98": 0.002109
      },
      "maj_gouv": {
        "Gazole": "2026-06-04 06:21:29",
        "E10": "2026-06-04 06:21:30",
        "SP98": "2026-06-04 06:21:30"
      }
    },
    {
      "id": "6800029",
      "lat": 43.66,
      "lon": 7.138,
      "cp": "06800",
      "ville": "Cagnes-sur-Mer",
      "prix": {
        "Gazole": 0.002079,
        "GPLc": 0.0011690000000000001,
        "E10": 0.001999,
        "SP98": 0.002149
      },
      "maj_gouv": {
        "Gazole": "2026-06-04 06:22:24",
        "GPLc": "2026-06-04 06:22:23",
        "E10": "2026-06-04 06:22:23",
        "SP98": "2026-06-04 06:22:23"
      }
    },
    {
      "id": "6130007",
      "lat": 43.652,
      "lon": 6.946,
      "cp": "06130",
      "ville": "Grasse",
      "prix": {
        "Gazole": 0.001998,
        "E85": 0.000753,
        "E10": 0.001951,
        "SP98": 0.002079
      },
      "maj_gouv": {
        "Gazole": "2026-06-02 10:49:03",
        "E85": "2026-06-02 10:49:03",
        "E10": "2026-06-02 10:49:03",
        "SP98": "2026-06-02 10:49:03"
      }
    },
    {
      "id": "6440001",
      "lat": 43.77850599999999,
      "lon": 7.338931,
      "cp": "06440",
      "ville": "BLAUSASC",
      "prix": {
        "Gazole": 0.001966,
        "E85": 0.000798,
        "E10": 0.001975,
        "SP98": 0.00209
      },
      "maj_gouv": {
        "Gazole": "2026-06-03 06:03:22",
        "E85": "2026-06-01 16:40:13",
        "E10": "2026-06-03 06:03:22",
        "SP98": "2026-06-03 06:03:22"
      }
    },
    {
      "id": "6800017",
      "lat": 43.665,
      "lon": 7.171,
      "cp": "06800",
      "ville": "Cagnes-sur-Mer",
      "prix": {
        "Gazole": 0.002124,
        "E85": 0.000884,
        "E10": 0.00199,
        "SP98": 0.00199
      },
      "maj_gouv": {
        "Gazole": "2026-06-04 00:01:00",
        "E85": "2026-06-04 00:01:00",
        "E10": "2026-06-04 00:01:00",
        "SP98": "2026-06-04 00:01:00"
      }
    },
    {
      "id": "6200028",
      "lat": 43.675,
      "lon": 7.229,
      "cp": "06200",
      "ville": "NICE",
      "prix": {
        "Gazole": 0.002132,
        "E85": 0.000884,
        "GPLc": 0.001019,
        "E10": 0.00199,
        "SP98": 0.00199
      },
      "maj_gouv": {
        "Gazole": "2026-06-04 00:01:00",
        "E85": "2026-06-04 00:01:00",
        "GPLc": "2026-06-04 00:01:00",
        "E10": "2026-06-04 00:01:00",
        "SP98": "2026-06-04 00:01:00"
      }
    },
    {
      "id": "6800019",
      "lat": 43.65936,
      "lon": 7.16732,
      "cp": "06800",
      "ville": "Cagnes-sur-Mer",
      "prix": {
        "Gazole": 0.002016,
        "E10": 0.001903,
        "SP98": 0.00199
      },
      "maj_gouv": {
        "Gazole": "2026-06-04 00:01:00",
        "E10": "2026-06-04 00:01:00",
        "SP98": "2026-06-04 00:01:00"
      }
    },
    {
      "id": "6670008",
      "lat": 43.856,
      "lon": 7.227,
      "cp": "06670",
      "ville": "Levens",
      "prix": {
        "Gazole": 0.0022240000000000003,
        "SP95": 0.002269
      },
      "maj_gouv": {
        "Gazole": "2026-05-27 18:00:00",
        "SP95": "2026-06-03 14:05:20"
      }
    },
    {
      "id": "6200033",
      "lat": 43.687258275145005,
      "lon": 7.2274375422793,
      "cp": "06200",
      "ville": "Nice",
      "prix": {
        "Gazole": 0.002085,
        "E10": 0.00199,
        "SP98": 0.00199
      },
      "maj_gouv": {
        "Gazole": "2026-06-03 15:14:11",
        "E10": "2026-06-03 15:14:11",
        "SP98": "2026-06-03 15:14:11"
      }
    },
    {
      "id": "6130001",
      "lat": 43.635,
      "lon": 6.952,
      "cp": "06130",
      "ville": "GRASSE",
      "prix": {
        "Gazole": 0.001999,
        "E85": 0.000754,
        "GPLc": 0.000999,
        "E10": 0.001952,
        "SP98": 0.0020800000000000003
      },
      "maj_gouv": {
        "Gazole": "2026-06-02 10:27:47",
        "E85": "2026-06-02 10:27:47",
        "GPLc": "2026-06-02 10:27:47",
        "E10": "2026-06-02 10:27:48",
        "SP98": "2026-06-02 10:27:48"
      }
    },
    {
      "id": "6201002",
      "lat": 43.71005,
      "lon": 7.18846,
      "cp": "06200",
      "ville": "Nice",
      "prix": {
        "Gazole": 0.0019399999999999999,
        "SP95": 0.001971,
        "GPLc": 0.00098,
        "E10": 0.001914,
        "SP98": 0.0019890000000000003
      },
      "maj_gouv": {
        "Gazole": "2026-06-03 13:49:31",
        "SP95": "2026-06-03 13:49:31",
        "GPLc": "2026-06-03 13:49:32",
        "E10": "2026-06-03 13:49:32",
        "SP98": "2026-06-03 13:49:32"
      }
    },
    {
      "id": "6910002",
      "lat": 43.874,
      "lon": 7.004,
      "cp": "06910",
      "ville": "Roquesteron",
      "prix": {
        "Gazole": 0.002589,
        "SP98": 0.0023090000000000003
      },
      "maj_gouv": {
        "Gazole": "2026-04-09 11:25:07",
        "SP98": "2026-04-09 11:25:07"
      }
    },
    {
      "id": "6660003",
      "lat": 44.226,
      "lon": 6.96,
      "cp": "06660",
      "ville": "SAINT ETIENNE DE TINEE",
      "prix": {
        "Gazole": 0.00225,
        "SP95": 0.00199
      },
      "maj_gouv": {
        "Gazole": "2026-06-01 17:28:39",
        "SP95": "2026-05-29 13:42:44"
      }
    },
    {
      "id": "6000037",
      "lat": 43.717,
      "lon": 7.282,
      "cp": "06000",
      "ville": "NICE",
      "prix": {
        "Gazole": 0.002089,
        "E85": 0.0008990000000000001,
        "E10": 0.0020150000000000003,
        "SP98": 0.002059
      },
      "maj_gouv": {
        "Gazole": "2026-06-02 00:00:00",
        "E85": "2026-06-03 23:59:00",
        "E10": "2026-06-02 00:00:00",
        "SP98": "2026-06-02 00:00:00"
      }
    },
    {
      "id": "6650004",
      "lat": 43.672993340900994,
      "lon": 6.9940596192009,
      "cp": "06650",
      "ville": "LE ROURET",
      "prix": {
        "Gazole": 0.002011,
        "E10": 0.002005,
        "SP98": 0.002095
      },
      "maj_gouv": {
        "Gazole": "2026-06-01 14:50:18",
        "E10": "2026-06-01 14:50:18",
        "SP98": "2026-06-01 14:50:18"
      }
    },
    {
      "id": "6670007",
      "lat": 43.76,
      "lon": 7.2,
      "cp": "06670",
      "ville": "COLOMARS",
      "prix": {
        "Gazole": 0.002033,
        "E10": 0.001938,
        "SP98": 0.00199
      },
      "maj_gouv": {
        "Gazole": "2026-06-04 00:01:00",
        "E10": "2026-06-04 00:01:00",
        "SP98": "2026-06-04 00:01:00"
      }
    },
    {
      "id": "6330002",
      "lat": 43.668,
      "lon": 7.043,
      "cp": "06330",
      "ville": "Roquefort-les-Pins",
      "prix": {
        "Gazole": 0.002065,
        "E10": 0.00202,
        "SP98": 0.0021680000000000002
      },
      "maj_gouv": {
        "Gazole": "2026-05-28 09:38:14",
        "E10": "2026-05-28 09:38:14",
        "SP98": "2026-05-28 09:38:14"
      }
    },
    {
      "id": "6000036",
      "lat": 43.728,
      "lon": 7.256,
      "cp": "06000",
      "ville": "Nice",
      "prix": {
        "Gazole": 0.002099,
        "E10": 0.002009,
        "SP98": 0.002159
      },
      "maj_gouv": {
        "Gazole": "2026-06-04 06:24:43",
        "E10": "2026-06-04 06:24:43",
        "SP98": "2026-06-04 06:24:43"
      }
    },
    {
      "id": "6800020",
      "lat": 43.654,
      "lon": 7.148,
      "cp": "06800",
      "ville": "Cagnes-sur-Mer",
      "prix": {
        "Gazole": 0.0020139999999999997,
        "E10": 0.001907,
        "SP98": 0.00199
      },
      "maj_gouv": {
        "Gazole": "2026-06-04 00:01:00",
        "E10": "2026-06-04 00:01:00",
        "SP98": "2026-06-04 00:01:00"
      }
    },
    {
      "id": "6450003",
      "lat": 44.059,
      "lon": 7.26,
      "cp": "06450",
      "ville": "Saint Martin Vésubie",
      "prix": {
        "Gazole": 0.002085,
        "E85": 0.000869,
        "E10": 0.002079,
        "SP98": 0.002169
      },
      "maj_gouv": {
        "Gazole": "2026-05-29 17:54:45",
        "E85": "2026-03-21 08:10:53",
        "E10": "2026-05-29 17:54:45",
        "SP98": "2026-05-29 17:54:45"
      }
    },
    {
      "id": "6380002",
      "lat": 43.87380862385,
      "lon": 7.4478779887466,
      "cp": "06380",
      "ville": "Sospel",
      "prix": {
        "Gazole": 0.002085,
        "E10": 0.002097,
        "SP98": 0.002153
      },
      "maj_gouv": {
        "Gazole": "2026-06-01 07:45:31",
        "E10": "2026-06-01 07:45:31",
        "SP98": "2026-06-01 07:45:31"
      }
    }
  ]
}