{
  "departement": "68",
  "date": "2026-06-04",
  "stations": [
    {
      "id": "68200018",
      "lat": 47.762,
      "lon": 7.326,
      "cp": "68200",
      "ville": "MULHOUSE",
      "prix": {
        "Gazole": 0.002016,
        "E85": 0.0008539999999999999,
        "E10": 0.001885,
        "SP98": 0.00199
      },
      "maj_gouv": {
        "Gazole": "2026-06-04 00:01:00",
        "E85": "2026-06-04 00:01:00",
        "E10": "2026-06-04 00:01:00",
        "SP98": "2026-06-04 00:01:00"
      }
    },
    {
      "id": "68200025",
      "lat": 47.758430999999995,
      "lon": 7.33,
      "cp": "68200",
      "ville": "MULHOUSE",
      "prix": {
        "Gazole": 0.002129,
        "E85": 0.0008990000000000001,
        "E10": 0.002099,
        "SP98": 0.002199
      },
      "maj_gouv": {
        "Gazole": "2026-06-04 06:00:00",
        "E85": "2026-06-04 06:00:00",
        "E10": "2026-06-04 06:00:00",
        "SP98": "2026-06-04 06:00:00"
      }
    },
    {
      "id": "68270003",
      "lat": 47.805,
      "lon": 7.337,
      "cp": "68270",
      "ville": "WITTENHEIM",
      "prix": {
        "Gazole": 0.001949,
        "E10": 0.001908,
        "SP98": 0.0019790000000000003
      },
      "maj_gouv": {
        "Gazole": "2026-06-01 08:09:22",
        "E10": "2026-06-01 08:09:22",
        "SP98": "2026-06-01 08:09:22"
      }
    },
    {
      "id": "68200019",
      "lat": 47.73842999309301,
      "lon": 7.2941953372956,
      "cp": "68200",
      "ville": "MULHOUSE",
      "prix": {
        "Gazole": 0.002021,
        "E10": 0.001889
      },
      "maj_gouv": {
        "Gazole": "2026-06-04 00:01:00",
        "E10": "2026-06-04 00:01:00"
      }
    },
    {
      "id": "68124002",
      "lat": 48.08594,
      "lon": 7.31377,
      "cp": "68124",
      "ville": "LOGELBACH-WINTZENHEIM",
      "prix": {
        "Gazole": 0.0019950000000000002,
        "E85": 0.00076,
        "GPLc": 0.000999,
        "E10": 0.001965,
        "SP98": 0.001999
      },
      "maj_gouv": {
        "Gazole": "2026-06-02 09:18:51",
        "E85": "2026-06-02 09:18:51",
        "GPLc": "2026-04-13 08:37:21",
        "E10": "2026-06-03 10:42:11",
        "SP98": "2026-06-02 09:18:52"
      }
    },
    {
      "id": "68290002",
      "lat": 47.774,
      "lon": 6.999,
      "cp": "68290",
      "ville": "MASEVAUX",
      "prix": {
        "Gazole": 0.001975,
        "SP95": 0.0019790000000000003,
        "E10": 0.0019590000000000002
      },
      "maj_gouv": {
        "Gazole": "2026-06-04 01:15:00",
        "SP95": "2026-06-04 01:15:00",
        "E10": "2026-06-04 01:15:00"
      }
    },
    {
      "id": "68000016",
      "lat": 48.083,
      "lon": 7.351,
      "cp": "68000",
      "ville": "COLMAR",
      "prix": {
        "Gazole": 0.0020150000000000003,
        "E85": 0.0008179999999999999,
        "E10": 0.001998,
        "SP98": 0.002099
      },
      "maj_gouv": {
        "Gazole": "2026-06-01 10:28:59",
        "E85": "2026-04-28 10:44:09",
        "E10": "2026-06-01 10:29:00",
        "SP98": "2026-05-30 09:13:23"
      }
    },
    {
      "id": "68170004",
      "lat": 47.754,
      "lon": 7.397,
      "cp": "68170",
      "ville": "Rixheim",
      "prix": {
        "Gazole": 0.00198,
        "SP95": 0.002084,
        "E85": 0.000844,
        "E10": 0.00196,
        "SP98": 0.0020350000000000004
      },
      "maj_gouv": {
        "Gazole": "2026-06-04 01:15:00",
        "SP95": "2026-06-04 01:15:00",
        "E85": "2026-06-04 01:15:00",
        "E10": "2026-06-04 01:15:00",
        "SP98": "2026-06-04 01:15:00"
      }
    },
    {
      "id": "68480004",
      "lat": 47.493,
      "lon": 7.391,
      "cp": "68480",
      "ville": "Oltingue",
      "prix": {
        "Gazole": 0.001999,
        "E85": 0.000799,
        "E10": 0.001965,
        "SP98": 0.002036
      },
      "maj_gouv": {
        "Gazole": "2026-06-01 16:27:06",
        "E85": "2026-06-03 10:17:43",
        "E10": "2026-06-03 10:17:43",
        "SP98": "2026-06-03 10:17:43"
      }
    },
    {
      "id": "68460001",
      "lat": 47.768,
      "lon": 7.252,
      "cp": "68460",
      "ville": "LUTTERBACH",
      "prix": {
        "Gazole": 0.002021,
        "E10": 0.001889
      },
      "maj_gouv": {
        "Gazole": "2026-06-04 00:01:00",
        "E10": "2026-06-04 00:01:00"
      }
    },
    {
      "id": "68590001",
      "lat": 48.23,
      "lon": 7.376,
      "cp": "68590",
      "ville": "SAINT-HIPPOLYTE",
      "prix": {
        "Gazole": 0.002069,
        "E10": 0.00199,
        "SP98": 0.00199
      },
      "maj_gouv": {
        "Gazole": "2026-06-02 11:51:32",
        "E10": "2026-06-02 11:51:32",
        "SP98": "2026-06-02 11:51:32"
      }
    },
    {
      "id": "68000021",
      "lat": 48.0773471,
      "lon": 7.358110431906599,
      "cp": "68000",
      "ville": "Colmar",
      "prix": {
        "Gazole": 0.002069,
        "E85": 0.000819,
        "E10": 0.001976
      },
      "maj_gouv": {
        "Gazole": "2026-06-02 15:45:21",
        "E85": "2026-06-02 15:45:21",
        "E10": "2026-06-02 15:45:21"
      }
    },
    {
      "id": "68040002",
      "lat": 48.095,
      "lon": 7.306,
      "cp": "68040",
      "ville": "INGERSHEIM",
      "prix": {
        "Gazole": 0.00215,
        "SP95": 0.00212
      },
      "maj_gouv": {
        "Gazole": "2026-06-02 10:36:27",
        "SP95": "2026-06-02 10:36:27"
      }
    },
    {
      "id": "68920001",
      "lat": 48.071,
      "lon": 7.297,
      "cp": "68920",
      "ville": "Wintzenheim",
      "prix": {
        "Gazole": 0.0019950000000000002,
        "SP95": 0.001975,
        "E10": 0.0019690000000000003,
        "SP98": 0.002012
      },
      "maj_gouv": {
        "Gazole": "2026-06-03 11:29:15",
        "SP95": "2026-06-02 09:18:41",
        "E10": "2026-06-03 11:29:15",
        "SP98": "2026-06-03 11:29:16"
      }
    },
    {
      "id": "68330001",
      "lat": 47.59236,
      "lon": 7.57662,
      "cp": "68330",
      "ville": "HUNINGUE",
      "prix": {
        "Gazole": 0.0021190000000000002,
        "E10": 0.002079,
        "SP98": 0.002162
      },
      "maj_gouv": {
        "Gazole": "2026-05-26 11:09:15",
        "E10": "2026-06-01 10:49:02",
        "SP98": "2026-06-01 10:49:02"
      }
    },
    {
      "id": "68000012",
      "lat": 48.08,
      "lon": 7.375,
      "cp": "68000",
      "ville": "COLMAR",
      "prix": {
        "Gazole": 0.001988,
        "SP95": 0.001975,
        "E85": 0.000725,
        "E10": 0.001965
      },
      "maj_gouv": {
        "Gazole": "2026-06-03 10:53:54",
        "SP95": "2026-06-02 07:12:22",
        "E85": "2026-04-22 07:08:19",
        "E10": "2026-06-02 10:26:11"
      }
    },
    {
      "id": "68040001",
      "lat": 48.08936,
      "lon": 7.3187,
      "cp": "68040",
      "ville": "INGERSHEIM",
      "prix": {
        "Gazole": 0.0020350000000000004,
        "E10": 0.001973,
        "SP98": 0.00199
      },
      "maj_gouv": {
        "Gazole": "2026-06-01 12:00:47",
        "E10": "2026-06-01 12:00:47",
        "SP98": "2026-06-01 12:00:47"
      }
    },
    {
      "id": "68270001",
      "lat": 47.808,
      "lon": 7.312,
      "cp": "68270",
      "ville": "WITTENHEIM",
      "prix": {
        "Gazole": 0.0019399999999999999,
        "E85": 0.000882,
        "GPLc": 0.001028,
        "E10": 0.001908,
        "SP98": 0.002006
      },
      "maj_gouv": {
        "Gazole": "2026-06-03 11:16:04",
        "E85": "2026-06-03 11:16:04",
        "GPLc": "2026-06-03 11:16:04",
        "E10": "2026-06-03 11:16:04",
        "SP98": "2026-06-03 11:16:04"
      }
    },
    {
      "id": "68500002",
      "lat": 47.902,
      "lon": 7.239,
      "cp": "68500",
      "ville": "Issenheim",
      "prix": {
        "Gazole": 0.0019890000000000003,
        "SP95": 0.002039,
        "E10": 0.0019590000000000002,
        "SP98": 0.00206
      },
      "maj_gouv": {
        "Gazole": "2026-06-03 09:12:15",
        "SP95": "2026-06-03 09:12:15",
        "E10": "2026-06-03 09:12:15",
        "SP98": "2026-06-03 09:12:15"
      }
    },
    {
      "id": "68370002",
      "lat": 48.128,
      "lon": 7.167,
      "cp": "68370",
      "ville": "Orbey",
      "prix": {
        "Gazole": 0.001999,
        "E10": 0.001929,
        "SP98": 0.002039
      },
      "maj_gouv": {
        "Gazole": "2026-06-01 11:36:00",
        "E10": "2026-06-01 11:36:00",
        "SP98": "2026-06-01 11:36:00"
      }
    },
    {
      "id": "68880001",
      "lat": 47.80638,
      "lon": 7.10443,
      "cp": "68800",
      "ville": "THANN",
      "prix": {
        "Gazole": 0.002099,
        "E10": 0.002024,
        "SP98": 0.0021520000000000003
      },
      "maj_gouv": {
        "Gazole": "2026-06-02 10:39:00",
        "E10": "2026-06-02 10:39:00",
        "SP98": "2026-06-02 10:39:00"
      }
    },
    {
      "id": "68500003",
      "lat": 47.916,
      "lon": 7.204,
      "cp": "68500",
      "ville": "GUEBWILLER",
      "prix": {
        "Gazole": 0.0021190000000000002,
        "SP95": 0.002089,
        "E10": 0.002059,
        "SP98": 0.002129
      },
      "maj_gouv": {
        "Gazole": "2026-05-30 07:39:32",
        "SP95": "2026-05-30 07:32:58",
        "E10": "2026-05-30 07:32:58",
        "SP98": "2026-05-30 07:32:58"
      }
    },
    {
      "id": "68390004",
      "lat": 47.8369131343,
      "lon": 7.3954061823,
      "cp": "68390",
      "ville": "BATTENHEIM",
      "prix": {},
      "maj_gouv": {}
    },
    {
      "id": "68550001",
      "lat": 47.874,
      "lon": 7.022,
      "cp": "68550",
      "ville": "Saint-Amarin",
      "prix": {
        "Gazole": 0.002159,
        "SP95": 0.002159,
        "E10": 0.002089,
        "SP98": 0.002169
      },
      "maj_gouv": {
        "Gazole": "2026-06-01 15:40:01",
        "SP95": "2026-06-01 15:40:01",
        "E10": "2026-06-01 15:40:02",
        "SP98": "2026-06-01 15:40:02"
      }
    },
    {
      "id": "68170003",
      "lat": 47.738,
      "lon": 7.412,
      "cp": "68170",
      "ville": "RIXHEIM",
      "prix": {
        "Gazole": 0.002118,
        "E85": 0.000875,
        "E10": 0.001977,
        "SP98": 0.00199
      },
      "maj_gouv": {
        "Gazole": "2026-06-04 00:01:00",
        "E85": "2026-06-04 00:01:00",
        "E10": "2026-06-04 00:01:00",
        "SP98": "2026-06-04 00:01:00"
      }
    },
    {
      "id": "68870001",
      "lat": 47.636,
      "lon": 7.493,
      "cp": "68870",
      "ville": "BARTENHEIM",
      "prix": {
        "Gazole": 0.0019890000000000003,
        "E85": 0.000798,
        "E10": 0.001899,
        "SP98": 0.002004
      },
      "maj_gouv": {
        "Gazole": "2026-06-03 10:05:57",
        "E85": "2026-05-15 10:38:18",
        "E10": "2026-06-03 10:05:57",
        "SP98": "2026-06-03 10:05:57"
      }
    },
    {
      "id": "68520006",
      "lat": 47.717,
      "lon": 7.139,
      "cp": "68520",
      "ville": "Burnhaupt-le-Bas",
      "prix": {
        "Gazole": 0.002226,
        "E85": 0.000978,
        "E10": 0.00199,
        "SP98": 0.00199
      },
      "maj_gouv": {
        "Gazole": "2026-06-04 00:01:00",
        "E85": "2026-06-04 00:01:00",
        "E10": "2026-06-04 00:01:00",
        "SP98": "2026-06-04 00:01:00"
      }
    },
    {
      "id": "68350001",
      "lat": 47.7235353202,
      "lon": 7.3196752491499995,
      "cp": "68350",
      "ville": "BRUNSTATT",
      "prix": {
        "Gazole": 0.001999,
        "E10": 0.0019590000000000002,
        "SP98": 0.002019
      },
      "maj_gouv": {
        "Gazole": "2026-06-01 09:47:17",
        "E10": "2026-06-01 09:47:17",
        "SP98": "2026-06-01 09:47:17"
      }
    },
    {
      "id": "68210001",
      "lat": 47.634,
      "lon": 7.122,
      "cp": "68210",
      "ville": "DANNEMARIE",
      "prix": {
        "Gazole": 0.0020800000000000003,
        "E10": 0.001988,
        "SP98": 0.00199
      },
      "maj_gouv": {
        "Gazole": "2026-06-02 08:57:22",
        "E10": "2026-06-02 08:57:22",
        "SP98": "2026-06-02 08:57:22"
      }
    },
    {
      "id": "68640001",
      "lat": 47.556,
      "lon": 7.307,
      "cp": "68640",
      "ville": "WALDIGHOFEN",
      "prix": {
        "Gazole": 0.001999,
        "SP95": 0.002019,
        "E10": 0.0019890000000000003,
        "SP98": 0.002069
      },
      "maj_gouv": {
        "Gazole": "2026-06-01 14:32:02",
        "SP95": "2026-06-01 14:32:02",
        "E10": "2026-06-01 14:32:03",
        "SP98": "2026-06-01 14:32:03"
      }
    },
    {
      "id": "68580001",
      "lat": 47.534,
      "lon": 7.182,
      "cp": "68580",
      "ville": "SEPPOIS-LE-HAUT",
      "prix": {
        "Gazole": 0.0020499999999999997,
        "E10": 0.001977,
        "SP98": 0.002089
      },
      "maj_gouv": {
        "Gazole": "2026-05-29 11:34:52",
        "E10": "2026-05-29 11:34:52",
        "SP98": "2026-05-29 11:34:52"
      }
    },
    {
      "id": "68970001",
      "lat": 48.18717,
      "lon": 7.39352,
      "cp": "68970",
      "ville": "Guémar",
      "prix": {
        "Gazole": 0.001999,
        "SP95": 0.001999,
        "SP98": 0.002059
      },
      "maj_gouv": {
        "Gazole": "2026-06-02 08:25:03",
        "SP95": "2026-06-02 08:25:03",
        "SP98": "2026-06-02 08:25:03"
      }
    },
    {
      "id": "68690001",
      "lat": 47.856,
      "lon": 7.055,
      "cp": "68690",
      "ville": "Moosch",
      "prix": {
        "Gazole": 0.00207,
        "E10": 0.00199,
        "SP98": 0.00199
      },
      "maj_gouv": {
        "Gazole": "2026-05-28 09:45:12",
        "E10": "2026-05-28 09:45:12",
        "SP98": "2026-05-28 09:45:12"
      }
    },
    {
      "id": "68250003",
      "lat": 47.967979908400004,
      "lon": 7.303083772090001,
      "cp": "68250",
      "ville": "ROUFFACH",
      "prix": {
        "Gazole": 0.0019790000000000003,
        "E85": 0.000799,
        "GPLc": 0.001149,
        "E10": 0.0019790000000000003,
        "SP98": 0.002079
      },
      "maj_gouv": {
        "Gazole": "2026-06-03 12:00:00",
        "E85": "2026-05-18 12:00:00",
        "GPLc": "2026-04-23 18:54:50",
        "E10": "2026-06-03 12:00:00",
        "SP98": "2026-06-03 12:00:00"
      }
    },
    {
      "id": "68800002",
      "lat": 47.804,
      "lon": 7.12,
      "cp": "68800",
      "ville": "Vieux-Thann",
      "prix": {
        "Gazole": 0.002099,
        "E85": 0.000798,
        "E10": 0.001999,
        "SP98": 0.002099
      },
      "maj_gouv": {
        "Gazole": "2026-05-29 15:24:34",
        "E85": "2026-05-22 13:28:43",
        "E10": "2026-06-01 11:06:56",
        "SP98": "2026-06-01 11:06:56"
      }
    },
    {
      "id": "68127001",
      "lat": 47.994,
      "lon": 7.38,
      "cp": "68127",
      "ville": "NIEDERHERGHEIM",
      "prix": {
        "Gazole": 0.002149,
        "E85": 0.000999,
        "E10": 0.002099,
        "SP98": 0.002169
      },
      "maj_gouv": {
        "Gazole": "2026-06-02 06:30:00",
        "E85": "2026-04-07 18:30:00",
        "E10": "2026-06-02 06:30:00",
        "SP98": "2026-06-02 06:30:00"
      }
    },
    {
      "id": "68240004",
      "lat": 48.15051204,
      "lon": 7.24699711,
      "cp": "68240",
      "ville": "KAYSERSBERG VIGNOBLE",
      "prix": {
        "Gazole": 0.001999,
        "SP95": 0.002029,
        "SP98": 0.002039
      },
      "maj_gouv": {
        "Gazole": "2026-06-01 16:21:37",
        "SP95": "2026-06-03 11:09:54",
        "SP98": "2026-06-03 11:09:54"
      }
    },
    {
      "id": "68680003",
      "lat": 47.678,
      "lon": 7.501,
      "cp": "68680",
      "ville": "Kembs",
      "prix": {
        "Gazole": 0.00209,
        "E10": 0.00199
      },
      "maj_gouv": {
        "Gazole": "2026-05-29 17:40:58",
        "E10": "2026-06-01 08:59:03"
      }
    },
    {
      "id": "68000018",
      "lat": 48.065,
      "lon": 7.367,
      "cp": "68000",
      "ville": "COLMAR",
      "prix": {},
      "maj_gouv": {}
    },
    {
      "id": "68320002",
      "lat": 48.096,
      "lon": 7.44,
      "cp": "68320",
      "ville": "FORTSCHWIHR",
      "prix": {
        "Gazole": 0.0019890000000000003,
        "SP95": 0.0019790000000000003,
        "SP98": 0.001999
      },
      "maj_gouv": {
        "Gazole": "2026-06-01 18:36:34",
        "SP95": "2026-06-01 18:36:35",
        "SP98": "2026-06-01 18:36:35"
      }
    },
    {
      "id": "68490002",
      "lat": 47.81643,
      "lon": 7.53969,
      "cp": "68490",
      "ville": "CHALAMPé",
      "prix": {
        "Gazole": 0.002072,
        "E10": 0.002018,
        "SP98": 0.0021309999999999996
      },
      "maj_gouv": {
        "Gazole": "2026-05-27 08:12:28",
        "E10": "2026-05-27 08:12:28",
        "SP98": "2026-05-27 08:12:28"
      }
    },
    {
      "id": "68130002",
      "lat": 47.62508,
      "lon": 7.241358576530001,
      "cp": "68130",
      "ville": "ALTKIRCH",
      "prix": {
        "Gazole": 0.001939,
        "SP95": 0.0019690000000000003,
        "SP98": 0.001999
      },
      "maj_gouv": {
        "Gazole": "2026-06-02 10:03:24",
        "SP95": "2026-06-03 09:31:22",
        "SP98": "2026-06-03 09:31:22"
      }
    },
    {
      "id": "68620001",
      "lat": 47.82,
      "lon": 7.083,
      "cp": "68620",
      "ville": "Bitschwiller-lès-Thann",
      "prix": {
        "Gazole": 0.002099,
        "E85": 0.000798,
        "E10": 0.001999,
        "SP98": 0.002099
      },
      "maj_gouv": {
        "Gazole": "2026-06-01 10:54:05",
        "E85": "2026-05-28 08:35:20",
        "E10": "2026-06-03 08:10:42",
        "SP98": "2026-06-01 13:59:18"
      }
    },
    {
      "id": "68240003",
      "lat": 48.13569,
      "lon": 7.26749,
      "cp": "68240",
      "ville": "Kientzheim",
      "prix": {
        "Gazole": 0.0019890000000000003,
        "E10": 0.001899
      },
      "maj_gouv": {
        "Gazole": "2026-06-01 09:51:57",
        "E10": "2026-06-01 09:51:57"
      }
    },
    {
      "id": "68510001",
      "lat": 47.664,
      "lon": 7.445,
      "cp": "68510",
      "ville": "Sierentz",
      "prix": {
        "Gazole": 0.001991,
        "E85": 0.000829,
        "E10": 0.0019470000000000002,
        "SP98": 0.002004
      },
      "maj_gouv": {
        "Gazole": "2026-06-01 09:18:34",
        "E85": "2026-05-21 08:37:35",
        "E10": "2026-06-01 09:18:34",
        "SP98": "2026-06-01 09:18:34"
      }
    },
    {
      "id": "68000020",
      "lat": 48.084200683888994,
      "lon": 7.3457832050324,
      "cp": "68000",
      "ville": "COLMAR",
      "prix": {
        "Gazole": 0.002129,
        "E10": 0.002069,
        "SP98": 0.002169
      },
      "maj_gouv": {
        "Gazole": "2026-06-04 00:01:00",
        "E10": "2026-06-04 00:01:00",
        "SP98": "2026-06-04 00:01:00"
      }
    },
    {
      "id": "68190003",
      "lat": 47.865,
      "lon": 7.347,
      "cp": "68190",
      "ville": "ENSISHEIM",
      "prix": {
        "Gazole": 0.001998,
        "SP95": 0.002049,
        "SP98": 0.001966
      },
      "maj_gouv": {
        "Gazole": "2026-06-02 09:46:13",
        "SP95": "2026-06-02 09:46:13",
        "SP98": "2026-06-02 09:46:13"
      }
    },
    {
      "id": "68470002",
      "lat": 47.888,
      "lon": 7.218,
      "cp": "68470",
      "ville": "Fellering",
      "prix": {
        "Gazole": 0.002142,
        "E10": 0.00199,
        "SP98": 0.00199
      },
      "maj_gouv": {
        "Gazole": "2026-06-04 05:50:00",
        "E10": "2026-06-04 05:50:00",
        "SP98": "2026-06-04 05:50:00"
      }
    },
    {
      "id": "68190001",
      "lat": 47.858,
      "lon": 7.289,
      "cp": "68190",
      "ville": "ENSISHEIM",
      "prix": {
        "Gazole": 0.00196,
        "E10": 0.001899,
        "SP98": 0.0019890000000000003
      },
      "maj_gouv": {
        "Gazole": "2026-06-04 05:39:10",
        "E10": "2026-06-04 05:39:10",
        "SP98": "2026-06-04 05:39:11"
      }
    },
    {
      "id": "68910002",
      "lat": 48.115,
      "lon": 7.196,
      "cp": "68910",
      "ville": "LABAROCHE",
      "prix": {
        "Gazole": 0.001999,
        "E85": 0.0008349999999999999,
        "E10": 0.002009,
        "SP98": 0.002039
      },
      "maj_gouv": {
        "Gazole": "2026-06-01 08:09:11",
        "E85": "2026-06-01 08:09:11",
        "E10": "2026-06-01 08:09:11",
        "SP98": "2026-06-01 08:09:11"
      }
    },
    {
      "id": "68730001",
      "lat": 47.607,
      "lon": 7.501,
      "cp": "68730",
      "ville": "BLOTZHEIM",
      "prix": {
        "Gazole": 0.0019790000000000003,
        "E10": 0.001942,
        "SP98": 0.0020259999999999996
      },
      "maj_gouv": {
        "Gazole": "2026-06-04 01:15:00",
        "E10": "2026-06-04 01:15:00",
        "SP98": "2026-06-04 01:15:00"
      }
    },
    {
      "id": "68260001",
      "lat": 47.791,
      "lon": 7.342,
      "cp": "68260",
      "ville": "KINGERSHEIM",
      "prix": {
        "Gazole": 0.001939,
        "E85": 0.000882,
        "E10": 0.001907,
        "SP98": 0.002005
      },
      "maj_gouv": {
        "Gazole": "2026-06-04 01:15:00",
        "E85": "2026-06-04 01:15:00",
        "E10": "2026-06-04 01:15:00",
        "SP98": "2026-06-04 01:15:00"
      }
    },
    {
      "id": "68400001",
      "lat": 47.747,
      "lon": 7.357,
      "cp": "68400",
      "ville": "RIEDISHEIM",
      "prix": {
        "Gazole": 0.0020819999999999996,
        "E10": 0.001929,
        "SP98": 0.001999
      },
      "maj_gouv": {
        "Gazole": "2026-06-01 08:20:45",
        "E10": "2026-06-01 08:25:00",
        "SP98": "2026-06-03 19:58:00"
      }
    },
    {
      "id": "68130003",
      "lat": 47.629,
      "lon": 7.26,
      "cp": "68130",
      "ville": "ALTKIRCH",
      "prix": {
        "Gazole": 0.001939,
        "E85": 0.000796,
        "E10": 0.0019590000000000002,
        "SP98": 0.001999
      },
      "maj_gouv": {
        "Gazole": "2026-06-04 01:15:00",
        "E85": "2026-06-04 01:15:00",
        "E10": "2026-06-04 01:15:00",
        "SP98": "2026-06-04 01:15:00"
      }
    },
    {
      "id": "68140002",
      "lat": 48.049,
      "lon": 7.114,
      "cp": "68140",
      "ville": "STOSSWIHR",
      "prix": {
        "Gazole": 0.002079,
        "E85": 0.0008990000000000001,
        "E10": 0.0019890000000000003
      },
      "maj_gouv": {
        "Gazole": "2026-06-03 09:12:47",
        "E85": "2026-04-27 16:48:23",
        "E10": "2026-06-03 09:12:48"
      }
    },
    {
      "id": "68120002",
      "lat": 47.772,
      "lon": 7.302,
      "cp": "68120",
      "ville": "PFASTATT",
      "prix": {
        "Gazole": 0.002019,
        "SP95": 0.002029,
        "E85": 0.000795
      },
      "maj_gouv": {
        "Gazole": "2026-06-02 06:00:00",
        "SP95": "2026-06-02 06:00:00",
        "E85": "2026-05-04 07:59:08"
      }
    },
    {
      "id": "68520011",
      "lat": 47.716,
      "lon": 7.138,
      "cp": "68520",
      "ville": "BURNHAUPT LE BAS",
      "prix": {
        "Gazole": 0.002089,
        "E85": 0.000999,
        "GPLc": 0.001129,
        "E10": 0.002059,
        "SP98": 0.002129
      },
      "maj_gouv": {
        "Gazole": "2026-06-03 20:00:00",
        "E85": "2026-06-03 20:00:00",
        "GPLc": "2026-06-03 20:00:00",
        "E10": "2026-06-03 20:00:00",
        "SP98": "2026-06-03 20:00:00"
      }
    },
    {
      "id": "68160002",
      "lat": 48.249,
      "lon": 7.19,
      "cp": "68160",
      "ville": "Sainte-Marie-aux-Mines",
      "prix": {
        "Gazole": 0.001999,
        "SP95": 0.0019950000000000002,
        "SP98": 0.002029
      },
      "maj_gouv": {
        "Gazole": "2026-06-04 05:28:56",
        "SP95": "2026-06-04 05:28:56",
        "SP98": "2026-06-04 05:28:57"
      }
    },
    {
      "id": "68390003",
      "lat": 47.789,
      "lon": 7.387,
      "cp": "68390",
      "ville": "SAUSHEIM",
      "prix": {
        "Gazole": 0.002039,
        "E10": 0.001999,
        "SP98": 0.002099
      },
      "maj_gouv": {
        "Gazole": "2026-06-02 00:10:00",
        "E10": "2026-06-02 00:10:00",
        "SP98": "2026-06-02 00:10:00"
      }
    },
    {
      "id": "68000009",
      "lat": 48.076,
      "lon": 7.366,
      "cp": "68000",
      "ville": "COLMAR",
      "prix": {
        "Gazole": 0.002099,
        "E10": 0.002099,
        "SP98": 0.002149
      },
      "maj_gouv": {
        "Gazole": "2026-06-02 00:06:00",
        "E10": "2026-06-02 00:06:00",
        "SP98": "2026-06-02 00:06:00"
      }
    },
    {
      "id": "68200004",
      "lat": 47.739,
      "lon": 7.292,
      "cp": "68200",
      "ville": "MULHOUSE",
      "prix": {
        "Gazole": 0.00202,
        "E85": 0.000796,
        "GPLc": 0.001028,
        "E10": 0.002023,
        "SP98": 0.0021160000000000003
      },
      "maj_gouv": {
        "Gazole": "2026-06-02 10:15:02",
        "E85": "2026-06-02 10:15:02",
        "GPLc": "2026-06-02 10:15:02",
        "E10": "2026-06-02 10:15:02",
        "SP98": "2026-06-02 10:15:02"
      }
    },
    {
      "id": "68000006",
      "lat": 48.069,
      "lon": 7.33,
      "cp": "68000",
      "ville": "COLMAR",
      "prix": {
        "Gazole": 0.0020670000000000003,
        "E85": 0.000839,
        "E10": 0.001977,
        "SP98": 0.00199
      },
      "maj_gouv": {
        "Gazole": "2026-06-03 15:07:04",
        "E85": "2026-06-03 15:07:04",
        "E10": "2026-06-03 15:07:04",
        "SP98": "2026-06-03 15:07:04"
      }
    },
    {
      "id": "68320001",
      "lat": 48.101,
      "lon": 7.467,
      "cp": "68320",
      "ville": "Muntzenheim",
      "prix": {
        "Gazole": 0.002214,
        "SP95": 0.001954
      },
      "maj_gouv": {
        "Gazole": "2026-05-18 07:00:00",
        "SP95": "2026-06-03 09:44:49"
      }
    },
    {
      "id": "68170002",
      "lat": 47.75851,
      "lon": 7.40024,
      "cp": "68170",
      "ville": "Rixheim",
      "prix": {
        "Gazole": 0.002049,
        "E10": 0.001965,
        "SP98": 0.002029
      },
      "maj_gouv": {
        "Gazole": "2026-06-01 11:42:21",
        "E10": "2026-06-01 11:42:22",
        "SP98": "2026-06-01 11:42:22"
      }
    },
    {
      "id": "68130001",
      "lat": 47.62337553930001,
      "lon": 7.27143926147,
      "cp": "68130",
      "ville": "WITTERSDORF",
      "prix": {
        "Gazole": 0.0021019999999999997,
        "E85": 0.0008489999999999999,
        "E10": 0.0019790000000000003
      },
      "maj_gouv": {
        "Gazole": "2026-06-03 19:40:12",
        "E85": "2026-06-02 19:47:15",
        "E10": "2026-06-03 19:40:13"
      }
    },
    {
      "id": "68300002",
      "lat": 47.59335,
      "lon": 7.55569,
      "cp": "68300",
      "ville": "Saint-Louis",
      "prix": {
        "Gazole": 0.002072,
        "SP95": 0.001984,
        "E10": 0.001984,
        "SP98": 0.00199
      },
      "maj_gouv": {
        "Gazole": "2026-06-03 07:57:10",
        "SP95": "2026-06-03 07:57:10",
        "E10": "2026-06-03 07:57:10",
        "SP98": "2026-06-03 07:57:11"
      }
    },
    {
      "id": "68160004",
      "lat": 48.254,
      "lon": 7.204,
      "cp": "68160",
      "ville": "Sainte-Marie-aux-Mines",
      "prix": {
        "Gazole": 0.002032,
        "GPLc": 0.0010249999999999999,
        "E10": 0.001897
      },
      "maj_gouv": {
        "Gazole": "2026-06-04 00:01:00",
        "GPLc": "2026-06-04 00:01:00",
        "E10": "2026-06-04 00:01:00"
      }
    },
    {
      "id": "68210002",
      "lat": 47.631,
      "lon": 7.111,
      "cp": "68210",
      "ville": "Dannemarie",
      "prix": {
        "Gazole": 0.001975,
        "E10": 0.0019590000000000002,
        "SP98": 0.001999
      },
      "maj_gouv": {
        "Gazole": "2026-06-03 07:32:33",
        "E10": "2026-06-03 07:32:33",
        "SP98": "2026-06-03 07:32:33"
      }
    },
    {
      "id": "68390002",
      "lat": 47.777,
      "lon": 7.379,
      "cp": "68390",
      "ville": "SAUSHEIM",
      "prix": {
        "Gazole": 0.0022400000000000002,
        "SP98": 0.002269
      },
      "maj_gouv": {
        "Gazole": "2026-06-03 09:30:00",
        "SP98": "2026-06-03 09:30:00"
      }
    },
    {
      "id": "68250004",
      "lat": 47.945,
      "lon": 7.289,
      "cp": "68250",
      "ville": "ROUFFACH",
      "prix": {
        "Gazole": 0.002115,
        "E85": 0.000829,
        "GPLc": 0.001049,
        "E10": 0.001982,
        "SP98": 0.00199
      },
      "maj_gouv": {
        "Gazole": "2026-06-04 00:01:00",
        "E85": "2026-06-04 00:01:00",
        "GPLc": "2026-06-04 00:01:00",
        "E10": "2026-06-04 00:01:00",
        "SP98": "2026-06-04 00:01:00"
      }
    },
    {
      "id": "68100009",
      "lat": 47.74,
      "lon": 7.339,
      "cp": "68100",
      "ville": "MULHOUSE",
      "prix": {
        "Gazole": 0.0021030000000000003,
        "E85": 0.000875,
        "E10": 0.001967
      },
      "maj_gouv": {
        "Gazole": "2026-06-04 00:01:00",
        "E85": "2026-06-04 00:01:00",
        "E10": "2026-06-04 00:01:00"
      }
    },
    {
      "id": "68220001",
      "lat": 47.578,
      "lon": 7.539,
      "cp": "68220",
      "ville": "HéSINGUE",
      "prix": {
        "Gazole": 0.0022440000000000003,
        "SP95": 0.002303,
        "SP98": 0.002335
      },
      "maj_gouv": {
        "Gazole": "2026-05-27 13:06:25",
        "SP95": "2026-05-22 11:03:05",
        "SP98": "2026-05-22 11:03:25"
      }
    },
    {
      "id": "68160005",
      "lat": 48.253,
      "lon": 7.193,
      "cp": "68160",
      "ville": "STE CROIX AUX MINES",
      "prix": {
        "Gazole": 0.001986,
        "E10": 0.001895,
        "SP98": 0.00198
      },
      "maj_gouv": {
        "Gazole": "2026-06-03 07:52:40",
        "E10": "2026-06-03 07:52:40",
        "SP98": "2026-06-03 07:52:40"
      }
    },
    {
      "id": "68740001",
      "lat": 47.918,
      "lon": 7.528,
      "cp": "68740",
      "ville": "Fessenheim",
      "prix": {
        "Gazole": 0.001999,
        "SP95": 0.0019950000000000002,
        "SP98": 0.002039
      },
      "maj_gouv": {
        "Gazole": "2026-05-29 12:06:26",
        "SP95": "2026-05-29 12:06:26",
        "SP98": "2026-05-29 12:06:26"
      }
    },
    {
      "id": "68470003",
      "lat": 47.8874507,
      "lon": 6.9950323999999995,
      "cp": "68470",
      "ville": "Fellering",
      "prix": {
        "Gazole": 0.002159,
        "E10": 0.002089,
        "SP98": 0.002169
      },
      "maj_gouv": {
        "Gazole": "2026-05-21 15:40:32",
        "E10": "2026-05-21 15:40:32",
        "SP98": "2026-05-21 15:40:32"
      }
    },
    {
      "id": "68560001",
      "lat": 47.587,
      "lon": 7.258,
      "cp": "68560",
      "ville": "Hirsingue",
      "prix": {
        "Gazole": 0.001931,
        "SP95": 0.0019790000000000003,
        "E85": 0.000861,
        "E10": 0.0019590000000000002,
        "SP98": 0.002009
      },
      "maj_gouv": {
        "Gazole": "2026-06-04 01:15:00",
        "SP95": "2026-06-04 01:15:00",
        "E85": "2026-06-04 01:15:00",
        "E10": "2026-06-04 01:15:00",
        "SP98": "2026-06-04 01:15:00"
      }
    },
    {
      "id": "68480003",
      "lat": 47.496,
      "lon": 7.313,
      "cp": "68480",
      "ville": "Ferrette",
      "prix": {
        "Gazole": 0.0020729999999999998,
        "E10": 0.001981
      },
      "maj_gouv": {
        "Gazole": "2026-06-03 07:40:21",
        "E10": "2026-06-03 07:40:21"
      }
    },
    {
      "id": "68150003",
      "lat": 48.192,
      "lon": 7.338,
      "cp": "68150",
      "ville": "Ribeauvillé",
      "prix": {
        "Gazole": 0.0019790000000000003,
        "SP95": 0.001999,
        "E85": 0.000725,
        "E10": 0.001909
      },
      "maj_gouv": {
        "Gazole": "2026-06-03 08:57:22",
        "SP95": "2026-06-03 08:57:22",
        "E85": "2026-06-02 09:04:15",
        "E10": "2026-06-03 08:57:22"
      }
    },
    {
      "id": "68000019",
      "lat": 48.091,
      "lon": 7.366,
      "cp": "68000",
      "ville": "COLMAR",
      "prix": {
        "Gazole": 0.0020139999999999997,
        "GPLc": 0.000989,
        "E10": 0.001882
      },
      "maj_gouv": {
        "Gazole": "2026-06-04 06:42:58",
        "GPLc": "2026-06-04 06:42:58",
        "E10": "2026-06-04 06:42:58"
      }
    },
    {
      "id": "68180002",
      "lat": 48.0730392,
      "lon": 7.4009827,
      "cp": "68180",
      "ville": "Horbourg-Wihr",
      "prix": {
        "Gazole": 0.001988,
        "SP95": 0.001975
      },
      "maj_gouv": {
        "Gazole": "2026-06-03 10:56:28",
        "SP95": "2026-06-02 07:18:49"
      }
    },
    {
      "id": "68100002",
      "lat": 47.74342,
      "lon": 7.32948,
      "cp": "68100",
      "ville": "MULHOUSE",
      "prix": {
        "Gazole": 0.002019,
        "E10": 0.002022,
        "SP98": 0.002115
      },
      "maj_gouv": {
        "Gazole": "2026-06-01 08:35:58",
        "E10": "2026-06-01 08:35:58",
        "SP98": "2026-06-01 08:35:58"
      }
    },
    {
      "id": "68019001",
      "lat": 48.13,
      "lon": 7.369,
      "cp": "68125",
      "ville": "HOUSSEN",
      "prix": {
        "Gazole": 0.002,
        "E85": 0.000725,
        "GPLc": 0.000989,
        "E10": 0.001966,
        "SP98": 0.002099
      },
      "maj_gouv": {
        "Gazole": "2026-06-02 10:18:08",
        "E85": "2026-06-02 10:18:08",
        "GPLc": "2026-06-03 10:58:38",
        "E10": "2026-06-03 10:58:38",
        "SP98": "2026-06-02 10:18:08"
      }
    },
    {
      "id": "68000013",
      "lat": 48.068,
      "lon": 7.344,
      "cp": "68000",
      "ville": "Colmar",
      "prix": {
        "Gazole": 0.00209,
        "SP95": 0.00209,
        "SP98": 0.00214
      },
      "maj_gouv": {
        "Gazole": "2026-06-02 06:06:00",
        "SP95": "2026-06-02 06:06:00",
        "SP98": "2026-06-02 06:06:00"
      }
    },
    {
      "id": "68110006",
      "lat": 47.768,
      "lon": 7.387,
      "cp": "68110",
      "ville": "ILLZACH",
      "prix": {},
      "maj_gouv": {}
    },
    {
      "id": "68000015",
      "lat": 48.058,
      "lon": 7.334,
      "cp": "68000",
      "ville": "COLMAR",
      "prix": {
        "Gazole": 0.002099,
        "SP98": 0.002139
      },
      "maj_gouv": {
        "Gazole": "2026-06-03 14:00:29",
        "SP98": "2026-06-03 14:00:29"
      }
    },
    {
      "id": "68600002",
      "lat": 48.012,
      "lon": 7.548,
      "cp": "68600",
      "ville": "VOLGELSHEIM",
      "prix": {
        "Gazole": 0.001973,
        "E85": 0.000798,
        "GPLc": 0.00107,
        "E10": 0.00199,
        "SP98": 0.001999
      },
      "maj_gouv": {
        "Gazole": "2026-06-03 07:07:06",
        "E85": "2026-05-18 16:13:52",
        "GPLc": "2026-05-27 09:29:35",
        "E10": "2026-05-30 06:43:59",
        "SP98": "2026-05-30 06:43:59"
      }
    },
    {
      "id": "68270002",
      "lat": 47.806,
      "lon": 7.337,
      "cp": "68270",
      "ville": "Wittenheim",
      "prix": {
        "Gazole": 0.001988,
        "E85": 0.000957,
        "E10": 0.0019270000000000001,
        "SP98": 0.0020440000000000002
      },
      "maj_gouv": {
        "Gazole": "2026-06-04 06:31:00",
        "E85": "2026-06-04 06:31:00",
        "E10": "2026-06-04 06:31:00",
        "SP98": "2026-06-04 06:31:00"
      }
    },
    {
      "id": "68703001",
      "lat": 47.794,
      "lon": 7.17,
      "cp": "68700",
      "ville": "CERNAY",
      "prix": {
        "Gazole": 0.001992,
        "GPLc": 0.001149,
        "E10": 0.001957,
        "SP98": 0.0019950000000000002
      },
      "maj_gouv": {
        "Gazole": "2026-06-03 09:25:18",
        "GPLc": "2026-05-15 11:31:47",
        "E10": "2026-06-03 09:25:18",
        "SP98": "2026-06-03 09:25:18"
      }
    },
    {
      "id": "68330002",
      "lat": 47.598,
      "lon": 7.59,
      "cp": "68330",
      "ville": "Huningue",
      "prix": {
        "Gazole": 0.0019850000000000002,
        "E85": 0.000852,
        "E10": 0.0019470000000000002,
        "SP98": 0.002004
      },
      "maj_gouv": {
        "Gazole": "2026-06-03 09:12:34",
        "E85": "2026-06-03 09:12:34",
        "E10": "2026-06-03 09:12:34",
        "SP98": "2026-06-03 09:12:34"
      }
    },
    {
      "id": "68300003",
      "lat": 47.605,
      "lon": 7.543,
      "cp": "68300",
      "ville": "SAINT-LOUIS",
      "prix": {
        "Gazole": 0.001978,
        "SP95": 0.002088,
        "E10": 0.0018939999999999999
      },
      "maj_gouv": {
        "Gazole": "2026-06-04 01:15:00",
        "SP95": "2026-06-04 01:15:00",
        "E10": "2026-06-04 01:15:00"
      }
    },
    {
      "id": "68520004",
      "lat": 47.741,
      "lon": 7.148,
      "cp": "68520",
      "ville": "BURNHAUPT-LE-HAUT",
      "prix": {
        "Gazole": 0.001993,
        "E85": 0.000795,
        "E10": 0.001958,
        "SP98": 0.001996
      },
      "maj_gouv": {
        "Gazole": "2026-06-03 09:16:51",
        "E85": "2026-05-02 09:17:13",
        "E10": "2026-06-03 09:16:52",
        "SP98": "2026-06-03 09:16:52"
      }
    },
    {
      "id": "68360004",
      "lat": 47.898,
      "lon": 7.222,
      "cp": "68360",
      "ville": "Soultz-Haut-Rhin",
      "prix": {
        "Gazole": 0.0020710000000000004,
        "E85": 0.000869,
        "E10": 0.001984
      },
      "maj_gouv": {
        "Gazole": "2026-06-03 08:10:02",
        "E85": "2026-06-03 08:10:02",
        "E10": "2026-06-03 08:10:02"
      }
    },
    {
      "id": "68180001",
      "lat": 48.08,
      "lon": 7.398,
      "cp": "68180",
      "ville": "Horbourg-Wihr",
      "prix": {
        "Gazole": 0.0020440000000000002,
        "E85": 0.0009260000000000001,
        "E10": 0.00202,
        "SP98": 0.0020259999999999996
      },
      "maj_gouv": {
        "Gazole": "2026-06-03 06:31:00",
        "E85": "2026-06-03 06:31:00",
        "E10": "2026-06-03 06:31:00",
        "SP98": "2026-06-03 06:31:00"
      }
    },
    {
      "id": "68127002",
      "lat": 47.95,
      "lon": 7.375,
      "cp": "68127",
      "ville": "NIEDERENTZEN",
      "prix": {
        "Gazole": 0.002029,
        "E85": 0.000799,
        "E10": 0.001999,
        "SP98": 0.002099
      },
      "maj_gouv": {
        "Gazole": "2026-06-01 10:39:26",
        "E85": "2026-05-18 12:00:00",
        "E10": "2026-05-27 17:44:03",
        "SP98": "2026-06-01 10:39:26"
      }
    },
    {
      "id": "68540001",
      "lat": 47.866,
      "lon": 7.256,
      "cp": "68540",
      "ville": "Bollwiller",
      "prix": {
        "Gazole": 0.001998,
        "E85": 0.000795,
        "E10": 0.001998,
        "SP98": 0.002109
      },
      "maj_gouv": {
        "Gazole": "2026-05-30 10:58:35",
        "E85": "2026-05-28 18:28:03",
        "E10": "2026-05-30 10:58:35",
        "SP98": "2026-05-30 10:58:35"
      }
    },
    {
      "id": "68000010",
      "lat": 48.064,
      "lon": 7.34,
      "cp": "68000",
      "ville": "Colmar",
      "prix": {
        "Gazole": 0.002029,
        "E85": 0.000749,
        "E10": 0.0019690000000000003,
        "SP98": 0.002029
      },
      "maj_gouv": {
        "Gazole": "2026-06-03 11:10:10",
        "E85": "2026-06-03 11:10:10",
        "E10": "2026-06-03 11:10:10",
        "SP98": "2026-06-03 11:10:11"
      }
    },
    {
      "id": "68460002",
      "lat": 47.759278194842004,
      "lon": 7.2788708436523,
      "cp": "68460",
      "ville": "Lutterbach",
      "prix": {
        "Gazole": 0.002019,
        "SP95": 0.001999,
        "SP98": 0.002049
      },
      "maj_gouv": {
        "Gazole": "2026-06-03 07:12:11",
        "SP95": "2026-06-03 07:12:11",
        "SP98": "2026-06-03 07:12:12"
      }
    },
    {
      "id": "68300004",
      "lat": 47.599,
      "lon": 7.552,
      "cp": "68300",
      "ville": "Saint-Louis",
      "prix": {
        "Gazole": 0.002021,
        "E85": 0.0008489999999999999,
        "E10": 0.001887,
        "SP98": 0.00199
      },
      "maj_gouv": {
        "Gazole": "2026-06-04 00:01:00",
        "E85": "2026-06-04 00:01:00",
        "E10": "2026-06-04 00:01:00",
        "SP98": "2026-06-04 00:01:00"
      }
    },
    {
      "id": "68200020",
      "lat": 47.741,
      "lon": 7.307,
      "cp": "68200",
      "ville": "MULHOUSE",
      "prix": {
        "Gazole": 0.002021,
        "E85": 0.000839,
        "E10": 0.001888
      },
      "maj_gouv": {
        "Gazole": "2026-06-04 00:01:00",
        "E85": "2026-06-04 00:01:00",
        "E10": "2026-06-04 00:01:00"
      }
    },
    {
      "id": "68140001",
      "lat": 48.041,
      "lon": 7.155,
      "cp": "68140",
      "ville": "MUNSTER",
      "prix": {
        "Gazole": 0.002072,
        "E85": 0.0008489999999999999,
        "E10": 0.0019890000000000003,
        "SP98": 0.00199
      },
      "maj_gouv": {
        "Gazole": "2026-06-03 07:06:36",
        "E85": "2026-04-15 08:51:14",
        "E10": "2026-06-02 07:14:23",
        "SP98": "2026-06-02 18:05:41"
      }
    },
    {
      "id": "68310001",
      "lat": 47.815,
      "lon": 7.242,
      "cp": "68310",
      "ville": "WITTELSHEIM",
      "prix": {
        "Gazole": 0.001993,
        "E85": 0.000795,
        "E10": 0.0019590000000000002,
        "SP98": 0.001996
      },
      "maj_gouv": {
        "Gazole": "2026-06-03 12:00:00",
        "E85": "2026-05-15 12:02:00",
        "E10": "2026-06-03 12:00:00",
        "SP98": "2026-06-03 12:00:00"
      }
    },
    {
      "id": "68140003",
      "lat": 48.043,
      "lon": 7.16,
      "cp": "68140",
      "ville": "Munster",
      "prix": {
        "Gazole": 0.002029,
        "E85": 0.000799,
        "E10": 0.0019790000000000003,
        "SP98": 0.002099
      },
      "maj_gouv": {
        "Gazole": "2026-06-02 10:22:59",
        "E85": "2026-04-14 09:08:33",
        "E10": "2026-06-03 09:29:41",
        "SP98": "2026-06-03 09:29:41"
      }
    },
    {
      "id": "68440003",
      "lat": 47.731330529321006,
      "lon": 7.4170647350787,
      "cp": "68440",
      "ville": "Habsheim",
      "prix": {
        "Gazole": 0.002049,
        "E10": 0.001965,
        "SP98": 0.002029
      },
      "maj_gouv": {
        "Gazole": "2026-06-01 12:29:42",
        "E10": "2026-06-01 12:29:42",
        "SP98": "2026-06-01 12:29:43"
      }
    },
    {
      "id": "68110010",
      "lat": 47.778222,
      "lon": 7.352083,
      "cp": "68110",
      "ville": "ILLZACH",
      "prix": {
        "Gazole": 0.002129,
        "GPLc": 0.001099,
        "E10": 0.002069,
        "SP98": 0.002169
      },
      "maj_gouv": {
        "Gazole": "2026-06-03 20:00:00",
        "GPLc": "2026-06-03 20:00:00",
        "E10": "2026-06-03 20:00:00",
        "SP98": "2026-06-03 20:00:00"
      }
    },
    {
      "id": "68701001",
      "lat": 47.795,
      "lon": 7.172,
      "cp": "68700",
      "ville": "CERNAY",
      "prix": {
        "Gazole": 0.002094,
        "E10": 0.001966
      },
      "maj_gouv": {
        "Gazole": "2026-06-03 19:10:00",
        "E10": "2026-06-03 19:10:00"
      }
    },
    {
      "id": "68630003",
      "lat": 48.155317000000004,
      "lon": 7.319826,
      "cp": "68630",
      "ville": "Mittelwihr",
      "prix": {
        "Gazole": 0.001961,
        "E85": 0.000819,
        "E10": 0.001875,
        "SP98": 0.001994
      },
      "maj_gouv": {
        "Gazole": "2026-06-02 07:34:30",
        "E85": "2026-05-28 09:09:24",
        "E10": "2026-06-02 07:34:30",
        "SP98": "2026-06-02 07:34:30"
      }
    },
    {
      "id": "68480002",
      "lat": 47.5,
      "lon": 7.307,
      "cp": "68480",
      "ville": "Ferrette",
      "prix": {
        "Gazole": 0.001961,
        "E10": 0.0019590000000000002,
        "SP98": 0.00211
      },
      "maj_gouv": {
        "Gazole": "2026-06-03 11:47:38",
        "E10": "2026-06-03 11:47:39",
        "SP98": "2026-06-03 11:47:39"
      }
    },
    {
      "id": "68200027",
      "lat": 47.73966,
      "lon": 7.30054,
      "cp": "68200",
      "ville": "MULHOUSE",
      "prix": {
        "Gazole": 0.002129,
        "E10": 0.002099,
        "SP98": 0.002199
      },
      "maj_gouv": {
        "Gazole": "2026-06-04 06:00:00",
        "E10": "2026-06-04 06:00:00",
        "SP98": "2026-06-04 06:00:00"
      }
    },
    {
      "id": "68490001",
      "lat": 47.784,
      "lon": 7.506,
      "cp": "68490",
      "ville": "Ottmarsheim",
      "prix": {
        "Gazole": 0.002101,
        "E10": 0.00199,
        "SP98": 0.00199
      },
      "maj_gouv": {
        "Gazole": "2026-06-03 08:02:22",
        "E10": "2026-06-03 08:02:22",
        "SP98": "2026-06-03 08:02:22"
      }
    },
    {
      "id": "68200026",
      "lat": 47.777,
      "lon": 7.335,
      "cp": "68200",
      "ville": "Mulhouse",
      "prix": {
        "Gazole": 0.001958,
        "E10": 0.001888,
        "SP98": 0.0019590000000000002
      },
      "maj_gouv": {
        "Gazole": "2026-06-03 10:30:00",
        "E10": "2026-06-03 10:30:00",
        "SP98": "2026-06-03 10:30:00"
      }
    },
    {
      "id": "68313001",
      "lat": 47.772,
      "lon": 7.387,
      "cp": "68110",
      "ville": "ILLZACH",
      "prix": {
        "Gazole": 0.002049,
        "SP95": 0.002089,
        "E85": 0.000847,
        "GPLc": 0.001028,
        "E10": 0.001965,
        "SP98": 0.002041
      },
      "maj_gouv": {
        "Gazole": "2026-06-03 20:45:00",
        "SP95": "2026-06-03 20:45:00",
        "E85": "2026-06-03 20:45:00",
        "GPLc": "2026-06-03 11:08:01",
        "E10": "2026-06-03 20:45:00",
        "SP98": "2026-06-03 20:45:00"
      }
    },
    {
      "id": "68100006",
      "lat": 47.742,
      "lon": 7.337,
      "cp": "68100",
      "ville": "MULHOUSE",
      "prix": {
        "Gazole": 0.002099,
        "E85": 0.0008990000000000001,
        "E10": 0.002099,
        "SP98": 0.002159
      },
      "maj_gouv": {
        "Gazole": "2026-06-02 06:30:00",
        "E85": "2026-06-02 06:30:00",
        "E10": "2026-06-02 06:30:00",
        "SP98": "2026-06-02 06:30:00"
      }
    },
    {
      "id": "68120005",
      "lat": 47.758386853882,
      "lon": 7.2940023698764005,
      "cp": "68120",
      "ville": "PFASTATT",
      "prix": {
        "Gazole": 0.0019850000000000002,
        "E10": 0.001906,
        "SP98": 0.00199
      },
      "maj_gouv": {
        "Gazole": "2026-06-03 08:28:37",
        "E10": "2026-06-03 08:28:37",
        "SP98": "2026-06-03 08:28:37"
      }
    }
  ]
}