{
  "departement": "60",
  "date": "2026-05-05",
  "stations": [
    {
      "id": "60350003",
      "lat": 49.404,
      "lon": 3.008,
      "cp": "60350",
      "ville": "Cuise-la-Motte",
      "prix": {
        "E10": 0.00199
      },
      "maj_gouv": {
        "E10": "2026-05-05 00:01:00"
      }
    },
    {
      "id": "60120004",
      "lat": 49.635,
      "lon": 2.286,
      "cp": "60120",
      "ville": "Breteuil",
      "prix": {
        "Gazole": 0.00225,
        "E10": 0.00199,
        "SP98": 0.00199
      },
      "maj_gouv": {
        "Gazole": "2026-05-04 07:54:41",
        "E10": "2026-04-21 18:58:42",
        "SP98": "2026-03-27 07:52:10"
      }
    },
    {
      "id": "60140003",
      "lat": 49.32593,
      "lon": 2.46409,
      "cp": "60140",
      "ville": "Liancourt",
      "prix": {
        "Gazole": 0.00232,
        "E10": 0.0020499999999999997,
        "SP98": 0.00209
      },
      "maj_gouv": {
        "Gazole": "2026-03-31 06:11:12",
        "E10": "2026-03-20 05:49:51",
        "SP98": "2026-03-31 06:11:13"
      }
    },
    {
      "id": "60650006",
      "lat": 49.417,
      "lon": 1.924,
      "cp": "60650",
      "ville": "ONS EN BRAY",
      "prix": {
        "Gazole": 0.00219,
        "SP95": 0.0020499999999999997,
        "SP98": 0.00212
      },
      "maj_gouv": {
        "Gazole": "2026-04-28 10:31:08",
        "SP95": "2026-04-28 10:31:08",
        "SP98": "2026-04-28 10:31:08"
      }
    },
    {
      "id": "60560001",
      "lat": 49.131,
      "lon": 2.521,
      "cp": "60560",
      "ville": "ORRY-LA-VILLE",
      "prix": {
        "Gazole": 0.002199,
        "E10": 0.002039,
        "SP98": 0.002099
      },
      "maj_gouv": {
        "Gazole": "2026-04-25 08:48:54",
        "E10": "2026-05-02 08:29:29",
        "SP98": "2026-04-22 12:11:22"
      }
    },
    {
      "id": "60210002",
      "lat": 49.66,
      "lon": 1.941,
      "cp": "60210",
      "ville": "GRANDVILLIERS",
      "prix": {
        "Gazole": 0.002155,
        "SP98": 0.002064
      },
      "maj_gouv": {
        "Gazole": "2026-04-21 08:35:42",
        "SP98": "2026-04-27 11:39:07"
      }
    },
    {
      "id": "60510001",
      "lat": 49.419,
      "lon": 2.255,
      "cp": "60510",
      "ville": "Bresles",
      "prix": {
        "Gazole": 0.002165,
        "SP95": 0.002049,
        "E85": 0.000819,
        "E10": 0.0019890000000000003,
        "SP98": 0.002105
      },
      "maj_gouv": {
        "Gazole": "2026-05-02 08:03:44",
        "SP95": "2026-05-02 08:03:44",
        "E85": "2026-05-02 08:03:44",
        "E10": "2026-05-02 08:03:44",
        "SP98": "2026-05-02 08:03:44"
      }
    },
    {
      "id": "60370002",
      "lat": 49.352,
      "lon": 2.239,
      "cp": "60370",
      "ville": "HERMES",
      "prix": {
        "Gazole": 0.002175,
        "SP95": 0.002055,
        "E10": 0.001999,
        "SP98": 0.002125
      },
      "maj_gouv": {
        "Gazole": "2026-05-04 08:57:03",
        "SP95": "2026-04-30 00:01:00",
        "E10": "2026-05-04 08:57:03",
        "SP98": "2026-05-04 08:57:03"
      }
    },
    {
      "id": "60700004",
      "lat": 49.306,
      "lon": 2.604,
      "cp": "60700",
      "ville": "Pont-Sainte-Maxence",
      "prix": {
        "Gazole": 0.002199,
        "E85": 0.000884,
        "E10": 0.00199
      },
      "maj_gouv": {
        "Gazole": "2026-05-05 00:01:00",
        "E85": "2026-05-05 00:01:00",
        "E10": "2026-05-05 00:01:00"
      }
    },
    {
      "id": "60250003",
      "lat": 49.321,
      "lon": 2.33,
      "cp": "60250",
      "ville": "ANGY",
      "prix": {
        "E85": 0.0008179999999999999,
        "SP98": 0.002075
      },
      "maj_gouv": {
        "E85": "2026-04-27 12:32:19",
        "SP98": "2026-04-27 12:32:19"
      }
    },
    {
      "id": "60220002",
      "lat": 49.65,
      "lon": 1.722,
      "cp": "60220",
      "ville": "FORMERIE",
      "prix": {
        "Gazole": 0.002189,
        "E10": 0.002039,
        "SP98": 0.002129
      },
      "maj_gouv": {
        "Gazole": "2026-05-04 10:54:55",
        "E10": "2026-04-28 10:12:51",
        "SP98": "2026-05-04 10:54:55"
      }
    },
    {
      "id": "60000015",
      "lat": 49.433,
      "lon": 2.093,
      "cp": "60000",
      "ville": "Beauvais",
      "prix": {
        "Gazole": 0.0022589999999999997,
        "E85": 0.001089,
        "GPLc": 0.001189,
        "E10": 0.002089,
        "SP98": 0.0022589999999999997
      },
      "maj_gouv": {
        "Gazole": "2026-05-04 22:06:39",
        "E85": "2026-05-04 22:06:39",
        "GPLc": "2026-05-04 22:06:40",
        "E10": "2026-05-04 22:06:39",
        "SP98": "2026-05-04 22:06:40"
      }
    },
    {
      "id": "60590002",
      "lat": 49.356,
      "lon": 1.77,
      "cp": "60590",
      "ville": "Sérifontaine",
      "prix": {
        "Gazole": 0.0023490000000000004,
        "SP95": 0.002129,
        "SP98": 0.002149
      },
      "maj_gouv": {
        "Gazole": "2026-04-15 08:34:13",
        "SP95": "2026-04-03 12:56:14",
        "SP98": "2026-04-03 12:56:14"
      }
    },
    {
      "id": "60310001",
      "lat": 49.59,
      "lon": 2.854,
      "cp": "60310",
      "ville": "Lassigny",
      "prix": {
        "Gazole": 0.002218,
        "SP95": 0.002053,
        "E10": 0.001999,
        "SP98": 0.002089
      },
      "maj_gouv": {
        "Gazole": "2026-04-30 09:36:27",
        "SP95": "2026-04-30 09:36:27",
        "E10": "2026-04-30 09:36:27",
        "SP98": "2026-04-30 09:36:27"
      }
    },
    {
      "id": "60260002",
      "lat": 49.15012446903,
      "lon": 2.4247054883606998,
      "cp": "60260",
      "ville": "Lamorlaye",
      "prix": {
        "Gazole": 0.002196,
        "E85": 0.000819,
        "E10": 0.001999,
        "SP98": 0.002098
      },
      "maj_gouv": {
        "Gazole": "2026-04-25 09:05:08",
        "E85": "2026-04-16 09:30:28",
        "E10": "2026-05-02 09:18:58",
        "SP98": "2026-05-02 09:18:58"
      }
    },
    {
      "id": "60800003",
      "lat": 49.22572305536,
      "lon": 2.8803566326031,
      "cp": "60800",
      "ville": "Crépy-en-Valois",
      "prix": {
        "Gazole": 0.0022789999999999998,
        "SP95": 0.002099,
        "SP98": 0.002189
      },
      "maj_gouv": {
        "Gazole": "2026-05-02 09:01:52",
        "SP95": "2026-05-02 09:01:53",
        "SP98": "2026-05-02 09:01:53"
      }
    },
    {
      "id": "60730004",
      "lat": 49.294719957049,
      "lon": 2.1986864028575,
      "cp": "60730",
      "ville": "Sainte-Geneviève",
      "prix": {},
      "maj_gouv": {}
    },
    {
      "id": "60200002",
      "lat": 49.41897,
      "lon": 2.81861,
      "cp": "60200",
      "ville": "Compiègne",
      "prix": {
        "Gazole": 0.002238,
        "SP95": 0.0020800000000000003
      },
      "maj_gouv": {
        "Gazole": "2026-04-28 08:17:34",
        "SP95": "2026-04-28 08:17:34"
      }
    },
    {
      "id": "60400001",
      "lat": 49.57117,
      "lon": 2.97854,
      "cp": "60400",
      "ville": "NOYON",
      "prix": {
        "Gazole": 0.002255,
        "GPLc": 0.0010500000000000002,
        "E10": 0.002003,
        "SP98": 0.002115
      },
      "maj_gouv": {
        "Gazole": "2026-04-17 12:47:49",
        "GPLc": "2026-04-17 09:02:28",
        "E10": "2026-05-04 08:52:14",
        "SP98": "2026-05-04 08:52:15"
      }
    },
    {
      "id": "60290003",
      "lat": 49.322,
      "lon": 2.437,
      "cp": "60290",
      "ville": "CAUFFRY",
      "prix": {
        "Gazole": 0.0021680000000000002,
        "GPLc": 0.0010329999999999998,
        "E10": 0.001999,
        "SP98": 0.002099
      },
      "maj_gouv": {
        "Gazole": "2026-05-04 19:32:51",
        "GPLc": "2026-04-08 06:39:17",
        "E10": "2026-05-04 19:32:51",
        "SP98": "2026-05-04 19:32:51"
      }
    },
    {
      "id": "60120006",
      "lat": 49.60849,
      "lon": 2.20488,
      "cp": "60120",
      "ville": "HARDIVILLERS",
      "prix": {
        "Gazole": 0.00225,
        "E85": 0.000999,
        "E10": 0.00199,
        "SP98": 0.00199
      },
      "maj_gouv": {
        "Gazole": "2026-05-04 09:00:00",
        "E85": "2026-05-04 09:00:00",
        "E10": "2026-05-04 09:00:00",
        "SP98": "2026-05-04 09:00:00"
      }
    },
    {
      "id": "60360001",
      "lat": 49.604,
      "lon": 2.085,
      "cp": "60360",
      "ville": "CRèVECOEUR-LE-GRAND",
      "prix": {
        "Gazole": 0.002199,
        "E10": 0.0020099999999999996
      },
      "maj_gouv": {
        "Gazole": "2026-04-30 14:14:44",
        "E10": "2026-04-30 14:14:44"
      }
    },
    {
      "id": "60380001",
      "lat": 49.548,
      "lon": 1.846,
      "cp": "60380",
      "ville": "SONGEONS",
      "prix": {
        "Gazole": 0.0021920000000000004,
        "SP95": 0.002027,
        "SP98": 0.002084
      },
      "maj_gouv": {
        "Gazole": "2026-04-17 14:24:01",
        "SP95": "2026-04-17 14:24:01",
        "SP98": "2026-04-17 14:24:01"
      }
    },
    {
      "id": "60750003",
      "lat": 49.442233200000004,
      "lon": 2.8829544,
      "cp": "60750",
      "ville": "Choisy-au-Bac",
      "prix": {
        "Gazole": 0.002219,
        "E10": 0.001999,
        "SP98": 0.002139
      },
      "maj_gouv": {
        "Gazole": "2026-04-28 08:07:13",
        "E10": "2026-04-28 08:07:13",
        "SP98": "2026-04-28 08:07:13"
      }
    },
    {
      "id": "60100007",
      "lat": 49.272,
      "lon": 2.486,
      "cp": "60100",
      "ville": "CREIL",
      "prix": {
        "Gazole": 0.00225,
        "GPLc": 0.001029
      },
      "maj_gouv": {
        "Gazole": "2026-05-05 00:01:00",
        "GPLc": "2026-05-05 00:01:00"
      }
    },
    {
      "id": "60500010",
      "lat": 49.191,
      "lon": 2.464,
      "cp": "60500",
      "ville": "Chantilly",
      "prix": {
        "Gazole": 0.0022389999999999997,
        "E85": 0.001049,
        "E10": 0.002069,
        "SP98": 0.0022389999999999997
      },
      "maj_gouv": {
        "Gazole": "2026-05-04 11:39:19",
        "E85": "2026-05-04 11:39:19",
        "E10": "2026-05-04 11:39:20",
        "SP98": "2026-05-04 11:39:19"
      }
    },
    {
      "id": "60650004",
      "lat": 49.422,
      "lon": 1.978,
      "cp": "60650",
      "ville": "Saint-Paul",
      "prix": {
        "Gazole": 0.002139,
        "E85": 0.0008179999999999999,
        "E10": 0.001944,
        "SP98": 0.002048
      },
      "maj_gouv": {
        "Gazole": "2026-04-30 07:06:20",
        "E85": "2026-04-30 07:06:20",
        "E10": "2026-04-30 07:06:20",
        "SP98": "2026-04-30 07:06:21"
      }
    },
    {
      "id": "60290002",
      "lat": 49.323,
      "lon": 2.448,
      "cp": "60290",
      "ville": "CAUFFRY",
      "prix": {
        "Gazole": 0.002199,
        "SP95": 0.002085,
        "E85": 0.0007059999999999999,
        "E10": 0.002058
      },
      "maj_gouv": {
        "Gazole": "2026-05-05 01:15:00",
        "SP95": "2026-05-05 01:15:00",
        "E85": "2026-05-05 01:15:00",
        "E10": "2026-05-05 01:15:00"
      }
    },
    {
      "id": "60530003",
      "lat": 49.229,
      "lon": 2.282,
      "cp": "60530",
      "ville": "Neuilly-en-Thelle",
      "prix": {
        "Gazole": 0.002199,
        "SP95": 0.0020659999999999997,
        "E10": 0.001999,
        "SP98": 0.002139
      },
      "maj_gouv": {
        "Gazole": "2026-04-29 09:28:42",
        "SP95": "2026-04-29 09:28:42",
        "E10": "2026-04-29 09:28:42",
        "SP98": "2026-04-29 09:28:42"
      }
    },
    {
      "id": "60440001",
      "lat": 49.136,
      "lon": 2.801,
      "cp": "60440",
      "ville": "NANTEUIL-LE-HAUDOUIN",
      "prix": {
        "Gazole": 0.002199,
        "SP95": 0.002059,
        "E85": 0.000819,
        "E10": 0.002019,
        "SP98": 0.002139
      },
      "maj_gouv": {
        "Gazole": "2026-05-04 07:54:19",
        "SP95": "2026-05-04 07:54:19",
        "E85": "2026-05-04 07:54:19",
        "E10": "2026-05-04 07:54:19",
        "SP98": "2026-05-04 07:54:19"
      }
    },
    {
      "id": "60420001",
      "lat": 49.553,
      "lon": 2.533,
      "cp": "60420",
      "ville": "Maignelay-Montigny",
      "prix": {
        "Gazole": 0.0021720000000000003,
        "SP95": 0.002032,
        "SP98": 0.002112
      },
      "maj_gouv": {
        "Gazole": "2026-04-30 14:58:04",
        "SP95": "2026-04-30 14:58:04",
        "SP98": "2026-04-30 14:58:04"
      }
    },
    {
      "id": "60000010",
      "lat": 49.443,
      "lon": 2.093,
      "cp": "60000",
      "ville": "Beauvais",
      "prix": {
        "Gazole": 0.002175,
        "SP95": 0.002027,
        "E85": 0.000819,
        "GPLc": 0.000988,
        "SP98": 0.002075
      },
      "maj_gouv": {
        "Gazole": "2026-04-30 14:49:54",
        "SP95": "2026-04-28 16:19:50",
        "E85": "2026-04-16 09:53:19",
        "GPLc": "2026-04-08 12:15:47",
        "SP98": "2026-04-30 10:58:34"
      }
    },
    {
      "id": "60800009",
      "lat": 49.234307444206,
      "lon": 2.8866396033653,
      "cp": "60800",
      "ville": "Crépy-en-Valois",
      "prix": {
        "Gazole": 0.00239,
        "E10": 0.002021,
        "SP98": 0.0021739999999999997
      },
      "maj_gouv": {
        "Gazole": "2026-04-21 09:16:52",
        "E10": "2026-04-21 09:16:52",
        "SP98": "2026-04-21 09:16:52"
      }
    },
    {
      "id": "60400003",
      "lat": 49.575,
      "lon": 2.999,
      "cp": "60400",
      "ville": "Noyon",
      "prix": {
        "Gazole": 0.002255,
        "E85": 0.0008179999999999999,
        "E10": 0.001987,
        "SP98": 0.002106
      },
      "maj_gouv": {
        "Gazole": "2026-04-16 18:51:25",
        "E85": "2026-04-24 09:24:59",
        "E10": "2026-04-16 18:51:25",
        "SP98": "2026-04-16 18:51:25"
      }
    },
    {
      "id": "60490008",
      "lat": 49.539,
      "lon": 2.702,
      "cp": "60490",
      "ville": "CUVILLY",
      "prix": {
        "Gazole": 0.002206,
        "E10": 0.00199
      },
      "maj_gouv": {
        "Gazole": "2026-05-05 00:01:00",
        "E10": "2026-05-05 00:01:00"
      }
    },
    {
      "id": "60320001",
      "lat": 49.298113505068,
      "lon": 2.7994520494136,
      "cp": "60320",
      "ville": "BéTHISY-SAINT-PIERRE",
      "prix": {
        "Gazole": 0.002199,
        "SP95": 0.002059,
        "E85": 0.0008489999999999999,
        "E10": 0.002019,
        "SP98": 0.002149
      },
      "maj_gouv": {
        "Gazole": "2026-04-29 08:57:00",
        "SP95": "2026-04-29 08:57:00",
        "E85": "2026-04-10 14:41:53",
        "E10": "2026-04-29 08:57:00",
        "SP98": "2026-04-29 08:57:00"
      }
    },
    {
      "id": "60800005",
      "lat": 49.224659428094,
      "lon": 2.9054913758613,
      "cp": "60800",
      "ville": "Crépy-en-Valois",
      "prix": {
        "Gazole": 0.00219,
        "SP95": 0.002059,
        "E85": 0.0008179999999999999,
        "E10": 0.002005,
        "SP98": 0.002114
      },
      "maj_gouv": {
        "Gazole": "2026-05-04 08:07:39",
        "SP95": "2026-05-04 08:07:39",
        "E85": "2026-05-04 08:07:39",
        "E10": "2026-05-04 08:07:39",
        "SP98": "2026-05-04 08:07:39"
      }
    },
    {
      "id": "60490001",
      "lat": 49.551,
      "lon": 2.752,
      "cp": "60490",
      "ville": "LA NEUVILLE-SUR-RESSONS",
      "prix": {
        "Gazole": 0.002199,
        "E10": 0.002018,
        "SP98": 0.0021880000000000003
      },
      "maj_gouv": {
        "Gazole": "2026-04-30 10:37:18",
        "E10": "2026-04-30 10:37:18",
        "SP98": "2026-04-30 10:37:18"
      }
    },
    {
      "id": "60220006",
      "lat": 49.652,
      "lon": 1.728,
      "cp": "60220",
      "ville": "Formerie",
      "prix": {
        "Gazole": 0.00225,
        "SP95": 0.00199,
        "E85": 0.0010409999999999998
      },
      "maj_gouv": {
        "Gazole": "2026-05-04 09:57:14",
        "SP95": "2026-04-21 13:35:06",
        "E85": "2026-05-04 09:56:59"
      }
    },
    {
      "id": "60100004",
      "lat": 49.251,
      "lon": 2.476,
      "cp": "60100",
      "ville": "CREIL",
      "prix": {
        "Gazole": 0.0022589999999999997,
        "GPLc": 0.001099,
        "E10": 0.002089,
        "SP98": 0.002199
      },
      "maj_gouv": {
        "Gazole": "2026-04-30 23:59:00",
        "GPLc": "2026-04-07 23:59:00",
        "E10": "2026-04-30 23:59:00",
        "SP98": "2026-04-30 23:59:00"
      }
    },
    {
      "id": "60400005",
      "lat": 49.575,
      "lon": 2.99,
      "cp": "60400",
      "ville": "NOYON",
      "prix": {
        "Gazole": 0.0022280000000000004,
        "E85": 0.000839
      },
      "maj_gouv": {
        "Gazole": "2026-05-05 00:01:00",
        "E85": "2026-05-05 00:01:00"
      }
    },
    {
      "id": "60110002",
      "lat": 49.223,
      "lon": 2.137,
      "cp": "60110",
      "ville": "Méru",
      "prix": {
        "Gazole": 0.002255,
        "E10": 0.002095,
        "SP98": 0.002155
      },
      "maj_gouv": {
        "Gazole": "2026-05-04 09:05:08",
        "E10": "2026-05-04 09:05:08",
        "SP98": "2026-05-04 09:05:09"
      }
    },
    {
      "id": "60500011",
      "lat": 49.2047622946,
      "lon": 2.4618766547599997,
      "cp": "60500",
      "ville": "Chantilly",
      "prix": {
        "Gazole": 0.002216,
        "E10": 0.00199
      },
      "maj_gouv": {
        "Gazole": "2026-05-05 00:01:00",
        "E10": "2026-05-05 00:01:00"
      }
    },
    {
      "id": "60360002",
      "lat": 49.604,
      "lon": 2.085,
      "cp": "60360",
      "ville": "Crèvecœur-le-Grand",
      "prix": {
        "Gazole": 0.002199,
        "SP95": 0.002058,
        "E10": 0.0020150000000000003
      },
      "maj_gouv": {
        "Gazole": "2026-05-05 01:15:00",
        "SP95": "2026-05-05 01:15:00",
        "E10": "2026-05-05 01:15:00"
      }
    },
    {
      "id": "60110006",
      "lat": 49.214,
      "lon": 2.125,
      "cp": "60110",
      "ville": "Amblainville",
      "prix": {
        "E85": 0.000885
      },
      "maj_gouv": {
        "E85": "2026-05-01 09:40:52"
      }
    },
    {
      "id": "60150003",
      "lat": 49.479,
      "lon": 2.868,
      "cp": "60150",
      "ville": "THOUROTTE",
      "prix": {
        "Gazole": 0.00218,
        "E85": 0.0008139999999999999,
        "GPLc": 0.000999,
        "E10": 0.0020299999999999997,
        "SP98": 0.002165
      },
      "maj_gouv": {
        "Gazole": "2026-05-04 09:59:01",
        "E85": "2026-05-04 09:59:01",
        "GPLc": "2026-05-04 09:59:01",
        "E10": "2026-05-04 09:59:01",
        "SP98": "2026-05-04 09:59:01"
      }
    },
    {
      "id": "60300008",
      "lat": 49.208,
      "lon": 2.59,
      "cp": "60300",
      "ville": "SENLIS",
      "prix": {
        "Gazole": 0.002269,
        "E85": 0.001089,
        "SP98": 0.002229
      },
      "maj_gouv": {
        "Gazole": "2026-05-04 22:04:19",
        "E85": "2026-05-04 22:04:19",
        "SP98": "2026-05-04 22:04:19"
      }
    },
    {
      "id": "60200008",
      "lat": 49.394919671941,
      "lon": 2.7929386448763003,
      "cp": "60200",
      "ville": "Compiègne",
      "prix": {
        "Gazole": 0.002165,
        "E85": 0.000819,
        "E10": 0.00199,
        "SP98": 0.002079
      },
      "maj_gouv": {
        "Gazole": "2026-05-04 12:03:51",
        "E85": "2026-05-04 12:03:51",
        "E10": "2026-05-04 12:03:51",
        "SP98": "2026-05-04 12:03:51"
      }
    },
    {
      "id": "60230002",
      "lat": 49.156217844245,
      "lon": 2.2546061423989,
      "cp": "60230",
      "ville": "CHAMBLY",
      "prix": {
        "Gazole": 0.00225,
        "E85": 0.000759,
        "E10": 0.00209,
        "SP98": 0.00215
      },
      "maj_gouv": {
        "Gazole": "2026-05-02 07:30:00",
        "E85": "2026-04-21 07:30:00",
        "E10": "2026-05-04 07:30:00",
        "SP98": "2026-05-04 07:30:00"
      }
    },
    {
      "id": "60800008",
      "lat": 49.23,
      "lon": 2.906,
      "cp": "60800",
      "ville": "Crépy-en-Valois",
      "prix": {
        "Gazole": 0.002199,
        "E85": 0.000795,
        "E10": 0.00202,
        "SP98": 0.0021000000000000003
      },
      "maj_gouv": {
        "Gazole": "2026-04-30 08:53:05",
        "E85": "2026-04-29 08:27:24",
        "E10": "2026-05-04 08:56:06",
        "SP98": "2026-04-30 08:53:05"
      }
    },
    {
      "id": "60000006",
      "lat": 49.43,
      "lon": 2.092,
      "cp": "60000",
      "ville": "Beauvais",
      "prix": {
        "Gazole": 0.002195,
        "E10": 0.002013,
        "SP98": 0.0021349999999999997
      },
      "maj_gouv": {
        "Gazole": "2026-05-04 11:26:00",
        "E10": "2026-05-04 11:26:00",
        "SP98": "2026-05-04 11:26:00"
      }
    },
    {
      "id": "60330004",
      "lat": 49.096696560788,
      "lon": 2.7494676177426998,
      "cp": "60330",
      "ville": "Le Plessis-Belleville",
      "prix": {
        "Gazole": 0.00222,
        "E85": 0.000843,
        "GPLc": 0.001059,
        "E10": 0.00199
      },
      "maj_gouv": {
        "Gazole": "2026-05-05 00:01:00",
        "E85": "2026-05-05 00:01:00",
        "GPLc": "2026-05-05 00:01:00",
        "E10": "2026-05-05 00:01:00"
      }
    },
    {
      "id": "60200005",
      "lat": 49.419,
      "lon": 2.82,
      "cp": "60200",
      "ville": "Compiègne",
      "prix": {
        "Gazole": 0.002238,
        "E10": 0.00199,
        "SP98": 0.002041
      },
      "maj_gouv": {
        "Gazole": "2026-05-01 06:31:00",
        "E10": "2026-05-01 06:31:00",
        "SP98": "2026-05-01 06:31:00"
      }
    },
    {
      "id": "60200006",
      "lat": 49.401,
      "lon": 2.807,
      "cp": "60200",
      "ville": "Compiègne",
      "prix": {
        "Gazole": 0.0022530000000000002,
        "E10": 0.00199,
        "SP98": 0.0020499999999999997
      },
      "maj_gouv": {
        "Gazole": "2026-05-01 06:31:00",
        "E10": "2026-05-01 06:31:00",
        "SP98": "2026-05-01 06:31:00"
      }
    },
    {
      "id": "60500002",
      "lat": 49.178,
      "lon": 2.456,
      "cp": "60500",
      "ville": "Chantilly",
      "prix": {
        "Gazole": 0.002225,
        "E10": 0.001999,
        "SP98": 0.002058
      },
      "maj_gouv": {
        "Gazole": "2026-05-04 07:56:00",
        "E10": "2026-05-04 07:56:00",
        "SP98": "2026-05-04 07:56:00"
      }
    },
    {
      "id": "60870002",
      "lat": 49.289,
      "lon": 2.5,
      "cp": "60870",
      "ville": "VILLERS-SAINT-PAUL",
      "prix": {
        "Gazole": 0.002195,
        "SP95": 0.002095,
        "E10": 0.00199,
        "SP98": 0.002199
      },
      "maj_gouv": {
        "Gazole": "2026-04-30 17:53:44",
        "SP95": "2026-04-30 17:53:44",
        "E10": "2026-04-30 17:53:44",
        "SP98": "2026-04-08 12:27:18"
      }
    },
    {
      "id": "60700005",
      "lat": 49.317,
      "lon": 2.606,
      "cp": "60700",
      "ville": "pont sainte maxence",
      "prix": {
        "Gazole": 0.002189,
        "SP95": 0.002084,
        "E85": 0.000883,
        "E10": 0.002048,
        "SP98": 0.0021160000000000003
      },
      "maj_gouv": {
        "Gazole": "2026-05-05 05:00:00",
        "SP95": "2026-05-04 02:00:00",
        "E85": "2026-05-04 02:00:00",
        "E10": "2026-05-04 02:00:00",
        "SP98": "2026-05-04 02:00:00"
      }
    },
    {
      "id": "60000017",
      "lat": 49.402495035409,
      "lon": 2.1278669713141003,
      "cp": "60000",
      "ville": "Allonne",
      "prix": {
        "Gazole": 0.002219,
        "E85": 0.0008359999999999999,
        "E10": 0.00199,
        "SP98": 0.00199
      },
      "maj_gouv": {
        "Gazole": "2026-05-05 00:01:00",
        "E85": "2026-05-05 00:01:00",
        "E10": "2026-05-05 00:01:00",
        "SP98": "2026-05-05 00:01:00"
      }
    },
    {
      "id": "60210003",
      "lat": 49.666,
      "lon": 1.959,
      "cp": "60210",
      "ville": "Grandvilliers",
      "prix": {
        "Gazole": 0.002175,
        "SP95": 0.002114,
        "E85": 0.0008179999999999999,
        "E10": 0.002063
      },
      "maj_gouv": {
        "Gazole": "2026-05-04 14:36:50",
        "SP95": "2026-05-04 14:36:50",
        "E85": "2026-04-25 09:54:37",
        "E10": "2026-05-04 14:36:50"
      }
    },
    {
      "id": "60110004",
      "lat": 49.21043,
      "lon": 2.151187,
      "cp": "60110",
      "ville": "MERU",
      "prix": {
        "Gazole": 0.00225,
        "E10": 0.00199
      },
      "maj_gouv": {
        "Gazole": "2026-05-05 00:01:00",
        "E10": "2026-05-05 00:01:00"
      }
    },
    {
      "id": "60140002",
      "lat": 49.329,
      "lon": 2.464,
      "cp": "60140",
      "ville": "Liancourt",
      "prix": {
        "Gazole": 0.00225,
        "SP95": 0.00199
      },
      "maj_gouv": {
        "Gazole": "2026-04-27 19:51:55",
        "SP95": "2026-04-27 19:51:55"
      }
    },
    {
      "id": "60200011",
      "lat": 49.38626,
      "lon": 2.7848,
      "cp": "60200",
      "ville": "Compiègne",
      "prix": {
        "Gazole": 0.00225,
        "E10": 0.00199,
        "SP98": 0.00199
      },
      "maj_gouv": {
        "Gazole": "2026-04-30 07:00:00",
        "E10": "2026-04-22 07:00:00",
        "SP98": "2026-03-13 07:00:00"
      }
    },
    {
      "id": "60126001",
      "lat": 49.359,
      "lon": 2.718,
      "cp": "60126",
      "ville": "Longueil-Sainte-Marie",
      "prix": {
        "Gazole": 0.002233,
        "SP95": 0.002079
      },
      "maj_gouv": {
        "Gazole": "2026-04-17 11:07:17",
        "SP95": "2026-04-17 11:07:18"
      }
    },
    {
      "id": "60490007",
      "lat": 49.5236,
      "lon": 2.72292,
      "cp": "60490",
      "ville": "RESSONS SUR MATZ",
      "prix": {
        "Gazole": 0.00225,
        "E85": 0.000999,
        "GPLc": 0.001119,
        "E10": 0.00199,
        "SP98": 0.00199
      },
      "maj_gouv": {
        "Gazole": "2026-05-04 09:00:00",
        "E85": "2026-05-04 09:00:00",
        "GPLc": "2026-05-04 09:00:00",
        "E10": "2026-05-04 09:00:00",
        "SP98": "2026-05-04 09:00:00"
      }
    },
    {
      "id": "60280003",
      "lat": 49.4312668816,
      "lon": 2.8373434750855,
      "cp": "60280",
      "ville": "CLAIROIX",
      "prix": {
        "Gazole": 0.002165,
        "E85": 0.000819,
        "E10": 0.001999,
        "SP98": 0.002079
      },
      "maj_gouv": {
        "Gazole": "2026-05-04 08:51:58",
        "E85": "2026-04-16 08:47:07",
        "E10": "2026-05-04 08:51:58",
        "SP98": "2026-05-04 08:51:58"
      }
    },
    {
      "id": "60000012",
      "lat": 49.431,
      "lon": 2.118,
      "cp": "60000",
      "ville": "BEAUVAIS",
      "prix": {
        "Gazole": 0.00225,
        "E85": 0.0008629999999999999,
        "GPLc": 0.001019,
        "E10": 0.00199,
        "SP98": 0.00199
      },
      "maj_gouv": {
        "Gazole": "2026-05-05 00:01:00",
        "E85": "2026-05-05 00:01:00",
        "GPLc": "2026-05-05 00:01:00",
        "E10": "2026-05-05 00:01:00",
        "SP98": "2026-05-05 00:01:00"
      }
    },
    {
      "id": "60600004",
      "lat": 49.3826,
      "lon": 2.40177,
      "cp": "60600",
      "ville": "CLERMONT",
      "prix": {
        "Gazole": 0.002169,
        "SP95": 0.002049,
        "E10": 0.00199,
        "SP98": 0.002089
      },
      "maj_gouv": {
        "Gazole": "2026-05-02 09:37:36",
        "SP95": "2026-05-02 09:37:37",
        "E10": "2026-05-02 09:37:37",
        "SP98": "2026-05-02 09:37:37"
      }
    },
    {
      "id": "60410003",
      "lat": 49.309,
      "lon": 2.73,
      "cp": "60410",
      "ville": "Verberie",
      "prix": {
        "Gazole": 0.002199,
        "SP95": 0.002039,
        "SP98": 0.0021190000000000002
      },
      "maj_gouv": {
        "Gazole": "2026-04-23 09:47:54",
        "SP95": "2026-04-23 09:47:54",
        "SP98": "2026-04-23 09:47:55"
      }
    },
    {
      "id": "60112002",
      "lat": 49.484,
      "lon": 2.047,
      "cp": "60112",
      "ville": "Troissereux",
      "prix": {
        "Gazole": 0.00225,
        "E10": 0.00199,
        "SP98": 0.00199
      },
      "maj_gouv": {
        "Gazole": "2026-05-04 14:18:15",
        "E10": "2026-05-04 14:18:15",
        "SP98": "2026-05-04 14:18:15"
      }
    },
    {
      "id": "60160003",
      "lat": 49.256,
      "lon": 2.432,
      "cp": "60160",
      "ville": "MONTATAIRE",
      "prix": {
        "Gazole": 0.0022,
        "E85": 0.000834,
        "E10": 0.00199
      },
      "maj_gouv": {
        "Gazole": "2026-05-05 00:01:00",
        "E85": "2026-05-05 00:01:00",
        "E10": "2026-05-05 00:01:00"
      }
    },
    {
      "id": "60180001",
      "lat": 49.276,
      "lon": 2.486,
      "cp": "60180",
      "ville": "NOGENT-SUR-OISE",
      "prix": {
        "Gazole": 0.00221,
        "E85": 0.000843,
        "GPLc": 0.001029,
        "E10": 0.002002,
        "SP98": 0.002112
      },
      "maj_gouv": {
        "Gazole": "2026-04-30 09:10:00",
        "E85": "2026-04-28 09:05:00",
        "GPLc": "2026-04-17 10:00:00",
        "E10": "2026-05-04 09:00:00",
        "SP98": "2026-05-04 09:00:00"
      }
    },
    {
      "id": "60540002",
      "lat": 49.2013605,
      "lon": 2.2042972,
      "cp": "60540",
      "ville": "BORNEL",
      "prix": {
        "Gazole": 0.0022280000000000004,
        "E10": 0.002059,
        "SP98": 0.002139
      },
      "maj_gouv": {
        "Gazole": "2026-04-28 13:14:29",
        "E10": "2026-04-28 13:14:29",
        "SP98": "2026-04-28 13:14:29"
      }
    },
    {
      "id": "60300007",
      "lat": 49.211,
      "lon": 2.593,
      "cp": "60300",
      "ville": "SENLIS",
      "prix": {
        "Gazole": 0.00225,
        "E85": 0.000859,
        "GPLc": 0.0010760000000000001,
        "E10": 0.00199
      },
      "maj_gouv": {
        "Gazole": "2026-05-05 00:01:00",
        "E85": "2026-05-05 00:01:00",
        "GPLc": "2026-05-05 00:01:00",
        "E10": "2026-05-05 00:01:00"
      }
    },
    {
      "id": "60230004",
      "lat": 49.188,
      "lon": 2.235,
      "cp": "60230",
      "ville": "CHAMBLY",
      "prix": {
        "Gazole": 0.0022240000000000003,
        "GPLc": 0.000989,
        "E10": 0.00199
      },
      "maj_gouv": {
        "Gazole": "2026-05-05 00:01:00",
        "GPLc": "2026-05-05 00:01:00",
        "E10": "2026-05-05 00:01:00"
      }
    },
    {
      "id": "60240001",
      "lat": 49.272,
      "lon": 1.874,
      "cp": "60240",
      "ville": "Chaumont-en-Vexin",
      "prix": {
        "Gazole": 0.002142,
        "E10": 0.0020169999999999997,
        "SP98": 0.0021190000000000002
      },
      "maj_gouv": {
        "Gazole": "2026-05-04 10:54:36",
        "E10": "2026-05-04 10:54:36",
        "SP98": "2026-05-04 10:54:36"
      }
    },
    {
      "id": "60680003",
      "lat": 49.403,
      "lon": 2.739,
      "cp": "60680",
      "ville": "JONQUIERES",
      "prix": {
        "Gazole": 0.002199,
        "E85": 0.000839,
        "E10": 0.00199,
        "SP98": 0.00199
      },
      "maj_gouv": {
        "Gazole": "2026-05-05 00:01:00",
        "E85": "2026-05-05 00:01:00",
        "E10": "2026-05-05 00:01:00",
        "SP98": "2026-05-05 00:01:00"
      }
    },
    {
      "id": "60300010",
      "lat": 49.221,
      "lon": 2.593,
      "cp": "60300",
      "ville": "CHAMANT",
      "prix": {
        "Gazole": 0.00225,
        "E85": 0.000859
      },
      "maj_gouv": {
        "Gazole": "2026-05-05 00:01:00",
        "E85": "2026-05-05 00:01:00"
      }
    },
    {
      "id": "60870003",
      "lat": 49.284,
      "lon": 2.492,
      "cp": "60870",
      "ville": "Villers-Saint-Paul",
      "prix": {
        "Gazole": 0.00221,
        "E85": 0.000843,
        "E10": 0.00199,
        "SP98": 0.00199
      },
      "maj_gouv": {
        "Gazole": "2026-05-05 00:01:00",
        "E85": "2026-05-05 00:01:00",
        "E10": "2026-05-05 00:01:00",
        "SP98": "2026-05-05 00:01:00"
      }
    },
    {
      "id": "60120005",
      "lat": 49.641,
      "lon": 2.279,
      "cp": "60120",
      "ville": "BRETEUIL",
      "prix": {
        "Gazole": 0.002229,
        "SP95": 0.002094,
        "E85": 0.000749,
        "E10": 0.002055
      },
      "maj_gouv": {
        "Gazole": "2026-05-04 09:22:36",
        "SP95": "2026-05-04 09:22:36",
        "E85": "2026-04-24 10:04:43",
        "E10": "2026-05-04 09:22:36"
      }
    },
    {
      "id": "60390001",
      "lat": 49.368,
      "lon": 1.987,
      "cp": "60390",
      "ville": "AUNEUIL",
      "prix": {
        "Gazole": 0.002202,
        "E10": 0.00202,
        "SP98": 0.002114
      },
      "maj_gouv": {
        "Gazole": "2026-05-04 12:07:40",
        "E10": "2026-05-04 12:07:40",
        "SP98": "2026-05-04 12:07:41"
      }
    },
    {
      "id": "60340001",
      "lat": 49.208,
      "lon": 2.391,
      "cp": "60340",
      "ville": "VILLERS-SOUS-SAINT-LEU",
      "prix": {
        "Gazole": 0.0022559999999999998,
        "E10": 0.002064,
        "SP98": 0.00218
      },
      "maj_gouv": {
        "Gazole": "2026-05-04 09:10:41",
        "E10": "2026-05-04 09:10:41",
        "SP98": "2026-05-04 09:10:41"
      }
    },
    {
      "id": "60500008",
      "lat": 49.202,
      "lon": 2.463,
      "cp": "60500",
      "ville": "Chantilly",
      "prix": {
        "Gazole": 0.00225,
        "SP95": 0.00206,
        "SP98": 0.00214
      },
      "maj_gouv": {
        "Gazole": "2026-04-28 11:40:05",
        "SP95": "2026-04-28 11:40:06",
        "SP98": "2026-04-28 11:40:06"
      }
    },
    {
      "id": "60300005",
      "lat": 49.221,
      "lon": 2.591,
      "cp": "60300",
      "ville": "SENLIS",
      "prix": {
        "Gazole": 0.002157,
        "SP98": 0.0020670000000000003
      },
      "maj_gouv": {
        "Gazole": "2026-04-29 12:01:17",
        "SP98": "2026-04-29 12:04:09"
      }
    },
    {
      "id": "60190003",
      "lat": 49.403,
      "lon": 2.626,
      "cp": "60190",
      "ville": "MOYVILLERS",
      "prix": {
        "Gazole": 0.00225,
        "E85": 0.000855,
        "E10": 0.00199,
        "SP98": 0.00199
      },
      "maj_gouv": {
        "Gazole": "2026-05-05 00:01:00",
        "E85": "2026-05-05 00:01:00",
        "E10": "2026-05-05 00:01:00",
        "SP98": "2026-05-05 00:01:00"
      }
    },
    {
      "id": "60200001",
      "lat": 49.413,
      "lon": 2.816,
      "cp": "60200",
      "ville": "COMPIèGNE",
      "prix": {
        "Gazole": 0.0022040000000000002,
        "E10": 0.00199,
        "SP98": 0.0020670000000000003
      },
      "maj_gouv": {
        "Gazole": "2026-04-30 10:34:35",
        "E10": "2026-04-30 10:34:35",
        "SP98": "2026-04-30 10:34:35"
      }
    },
    {
      "id": "60000001",
      "lat": 49.409,
      "lon": 2.115,
      "cp": "60000",
      "ville": "BEAUVAIS",
      "prix": {
        "Gazole": 0.002175,
        "E85": 0.000819,
        "E10": 0.001993,
        "SP98": 0.002075
      },
      "maj_gouv": {
        "Gazole": "2026-05-04 09:47:53",
        "E85": "2026-04-16 14:36:27",
        "E10": "2026-05-04 09:47:54",
        "SP98": "2026-04-30 14:25:07"
      }
    },
    {
      "id": "60700002",
      "lat": 49.30752,
      "lon": 2.59195,
      "cp": "60700",
      "ville": "PONT-SAINTE-MAXENCE",
      "prix": {},
      "maj_gouv": {}
    },
    {
      "id": "95472001",
      "lat": 49.101,
      "lon": 2.528,
      "cp": "60520",
      "ville": "La Chapelle-en-Serval",
      "prix": {
        "Gazole": 0.002198,
        "E10": 0.002069,
        "SP98": 0.002079
      },
      "maj_gouv": {
        "Gazole": "2026-04-30 00:15:00",
        "E10": "2026-05-05 00:15:00",
        "SP98": "2026-05-05 00:15:00"
      }
    },
    {
      "id": "60420003",
      "lat": 49.592835751644,
      "lon": 2.5133434965423,
      "cp": "60420",
      "ville": "Ferrières",
      "prix": {
        "Gazole": 0.002196,
        "SP95": 0.00204
      },
      "maj_gouv": {
        "Gazole": "2026-04-27 11:05:13",
        "SP95": "2026-04-20 11:05:40"
      }
    },
    {
      "id": "60600001",
      "lat": 49.362,
      "lon": 2.422,
      "cp": "60600",
      "ville": "BREUIL-LE-VERT",
      "prix": {
        "Gazole": 0.002179,
        "E10": 0.002003,
        "SP98": 0.002113
      },
      "maj_gouv": {
        "Gazole": "2026-05-04 09:08:36",
        "E10": "2026-05-04 09:08:36",
        "SP98": "2026-05-04 09:08:37"
      }
    },
    {
      "id": "60300009",
      "lat": 49.20834539496099,
      "lon": 2.6023127084038,
      "cp": "60300",
      "ville": "Senlis",
      "prix": {
        "Gazole": 0.00225,
        "E85": 0.000869,
        "E10": 0.00199,
        "SP98": 0.00199
      },
      "maj_gouv": {
        "Gazole": "2026-05-04 10:10:58",
        "E85": "2026-05-04 10:10:58",
        "E10": "2026-05-04 10:10:58",
        "SP98": "2026-05-04 10:10:58"
      }
    },
    {
      "id": "60600006",
      "lat": 49.396,
      "lon": 2.419,
      "cp": "60600",
      "ville": "FITZ-JAMES",
      "prix": {
        "Gazole": 0.002169,
        "E85": 0.000875,
        "E10": 0.00199,
        "SP98": 0.002089
      },
      "maj_gouv": {
        "Gazole": "2026-04-30 11:45:22",
        "E85": "2026-04-20 09:35:02",
        "E10": "2026-05-04 08:15:03",
        "SP98": "2026-05-04 08:14:21"
      }
    },
    {
      "id": "60390004",
      "lat": 49.371485,
      "lon": 1.988032,
      "cp": "60390",
      "ville": "Auneuil",
      "prix": {
        "Gazole": 0.002202,
        "E10": 0.00202,
        "SP98": 0.002113
      },
      "maj_gouv": {
        "Gazole": "2026-05-04 08:35:08",
        "E10": "2026-05-04 08:35:08",
        "SP98": "2026-05-04 15:33:27"
      }
    },
    {
      "id": "60005001",
      "lat": 49.456,
      "lon": 2.1,
      "cp": "60000",
      "ville": "BEAUVAIS",
      "prix": {
        "Gazole": 0.00225,
        "E10": 0.00199,
        "SP98": 0.00199
      },
      "maj_gouv": {
        "Gazole": "2026-05-04 08:40:41",
        "E10": "2026-05-04 14:50:19",
        "SP98": "2026-05-04 14:50:19"
      }
    },
    {
      "id": "60260001",
      "lat": 49.156,
      "lon": 2.445,
      "cp": "60260",
      "ville": "LAMORLAYE",
      "prix": {
        "Gazole": 0.00225,
        "SP95": 0.002101,
        "E85": 0.0008309999999999999,
        "E10": 0.002055,
        "SP98": 0.002179
      },
      "maj_gouv": {
        "Gazole": "2026-05-04 08:28:36",
        "SP95": "2026-05-04 08:28:36",
        "E85": "2026-05-04 08:28:36",
        "E10": "2026-05-04 08:28:36",
        "SP98": "2026-05-04 08:28:36"
      }
    },
    {
      "id": "60640001",
      "lat": 49.655,
      "lon": 3.05,
      "cp": "60640",
      "ville": "GUISCARD",
      "prix": {
        "Gazole": 0.00225,
        "E10": 0.00199,
        "SP98": 0.00199
      },
      "maj_gouv": {
        "Gazole": "2026-05-04 06:40:53",
        "E10": "2026-05-04 06:40:53",
        "SP98": "2026-05-04 06:40:53"
      }
    },
    {
      "id": "60130001",
      "lat": 49.512,
      "lon": 2.431,
      "cp": "60130",
      "ville": "SAINT-JUST-EN-CHAUSSéE",
      "prix": {
        "Gazole": 0.002206,
        "SP95": 0.002055,
        "E85": 0.000758,
        "SP98": 0.002097
      },
      "maj_gouv": {
        "Gazole": "2026-05-04 07:57:02",
        "SP95": "2026-05-04 07:57:02",
        "E85": "2026-04-30 08:03:29",
        "SP98": "2026-05-04 07:57:02"
      }
    },
    {
      "id": "60000011",
      "lat": 49.41,
      "lon": 2.109,
      "cp": "60000",
      "ville": "BEAUVAIS",
      "prix": {
        "Gazole": 0.00225,
        "SP95": 0.002059,
        "E85": 0.00086,
        "GPLc": 0.000988,
        "SP98": 0.002114
      },
      "maj_gouv": {
        "Gazole": "2026-05-04 11:24:40",
        "SP95": "2026-05-04 11:24:40",
        "E85": "2026-05-04 11:24:40",
        "GPLc": "2026-04-14 15:15:23",
        "SP98": "2026-04-28 10:25:42"
      }
    },
    {
      "id": "60270003",
      "lat": 49.188755748479004,
      "lon": 2.413338110243,
      "cp": "60270",
      "ville": "GOUVIEUX",
      "prix": {
        "Gazole": 0.002198,
        "E10": 0.0020299999999999997,
        "SP98": 0.002111
      },
      "maj_gouv": {
        "Gazole": "2026-05-04 15:30:21",
        "E10": "2026-05-04 15:30:22",
        "SP98": "2026-05-04 15:30:22"
      }
    },
    {
      "id": "60590001",
      "lat": 49.289,
      "lon": 1.807,
      "cp": "60590",
      "ville": "Trie-Château",
      "prix": {
        "Gazole": 0.0021739999999999997,
        "SP95": 0.002059,
        "E85": 0.000799,
        "E10": 0.001997,
        "SP98": 0.002068
      },
      "maj_gouv": {
        "Gazole": "2026-05-04 08:30:30",
        "SP95": "2026-04-30 08:30:30",
        "E85": "2026-04-17 08:30:50",
        "E10": "2026-05-04 08:30:30",
        "SP98": "2026-04-30 08:30:31"
      }
    },
    {
      "id": "60280001",
      "lat": 49.408,
      "lon": 2.781,
      "cp": "60280",
      "ville": "VENETTE",
      "prix": {
        "Gazole": 0.0022229999999999997,
        "SP95": 0.0021349999999999997,
        "E85": 0.000834,
        "GPLc": 0.000999,
        "E10": 0.0020459999999999996,
        "SP98": 0.002218
      },
      "maj_gouv": {
        "Gazole": "2026-05-04 08:20:30",
        "SP95": "2026-05-04 08:20:31",
        "E85": "2026-05-04 08:20:31",
        "GPLc": "2026-05-04 08:20:31",
        "E10": "2026-05-04 08:20:31",
        "SP98": "2026-05-04 08:20:31"
      }
    },
    {
      "id": "60150005",
      "lat": 49.47,
      "lon": 2.86,
      "cp": "60150",
      "ville": "LONGUEIL ANNEL",
      "prix": {
        "Gazole": 0.00219,
        "E10": 0.0019690000000000003,
        "SP98": 0.00209
      },
      "maj_gouv": {
        "Gazole": "2026-04-29 08:55:02",
        "E10": "2026-04-29 08:55:02",
        "SP98": "2026-04-29 08:55:02"
      }
    },
    {
      "id": "60610002",
      "lat": 49.358,
      "lon": 2.777,
      "cp": "60610",
      "ville": "LA CROIX SAINT OUEN",
      "prix": {
        "Gazole": 0.002189,
        "E85": 0.000759,
        "E10": 0.001999,
        "SP98": 0.002069
      },
      "maj_gouv": {
        "Gazole": "2026-05-04 09:47:37",
        "E85": "2026-04-14 08:43:07",
        "E10": "2026-05-04 09:47:37",
        "SP98": "2026-05-04 09:47:37"
      }
    },
    {
      "id": "60000008",
      "lat": 49.433,
      "lon": 2.046,
      "cp": "60000",
      "ville": "Goincourt",
      "prix": {
        "Gazole": 0.002196,
        "E85": 0.0008179999999999999,
        "E10": 0.002008,
        "SP98": 0.002114
      },
      "maj_gouv": {
        "Gazole": "2026-05-04 09:05:00",
        "E85": "2026-04-16 09:21:48",
        "E10": "2026-05-04 09:00:00",
        "SP98": "2026-05-04 09:05:00"
      }
    },
    {
      "id": "60120002",
      "lat": 49.63618,
      "lon": 2.29025,
      "cp": "60120",
      "ville": "BRETEUIL",
      "prix": {
        "Gazole": 0.002169,
        "SP95": 0.0020510000000000003,
        "SP98": 0.00209
      },
      "maj_gouv": {
        "Gazole": "2026-04-30 09:34:48",
        "SP95": "2026-04-30 09:34:48",
        "SP98": "2026-04-30 09:34:48"
      }
    },
    {
      "id": "60000007",
      "lat": 49.431,
      "lon": 2.071,
      "cp": "60000",
      "ville": "Beauvais",
      "prix": {
        "Gazole": 0.002213,
        "E10": 0.002011,
        "SP98": 0.0021309999999999996
      },
      "maj_gouv": {
        "Gazole": "2026-04-30 14:19:52",
        "E10": "2026-04-30 14:19:52",
        "SP98": "2026-04-28 19:33:50"
      }
    },
    {
      "id": "60690001",
      "lat": 49.582,
      "lon": 1.954,
      "cp": "60690",
      "ville": "MARSEILLE EN BEAUVAISIS",
      "prix": {
        "Gazole": 0.0021709999999999998,
        "SP95": 0.002109,
        "E85": 0.0008179999999999999,
        "E10": 0.002059,
        "SP98": 0.0021190000000000002
      },
      "maj_gouv": {
        "Gazole": "2026-05-04 09:13:50",
        "SP95": "2026-05-04 09:13:50",
        "E85": "2026-04-30 08:30:00",
        "E10": "2026-05-04 09:13:50",
        "SP98": "2026-04-30 08:30:00"
      }
    },
    {
      "id": "60490009",
      "lat": 49.519649613694995,
      "lon": 2.7195533558196,
      "cp": "60490",
      "ville": "RESSONS SUR MATZ",
      "prix": {
        "Gazole": 0.00225,
        "E85": 0.000999,
        "GPLc": 0.001109,
        "E10": 0.00199,
        "SP98": 0.00199
      },
      "maj_gouv": {
        "Gazole": "2026-05-04 09:00:00",
        "E85": "2026-05-04 09:00:00",
        "GPLc": "2026-05-04 09:00:00",
        "E10": "2026-05-04 09:00:00",
        "SP98": "2026-05-04 09:00:00"
      }
    },
    {
      "id": "60730002",
      "lat": 49.29,
      "lon": 2.201,
      "cp": "60730",
      "ville": "SAINTE-GENEVIèVE",
      "prix": {
        "Gazole": 0.002199,
        "E10": 0.00207,
        "SP98": 0.002101
      },
      "maj_gouv": {
        "Gazole": "2026-05-04 14:40:00",
        "E10": "2026-05-04 14:40:00",
        "SP98": "2026-05-04 14:40:00"
      }
    },
    {
      "id": "60350002",
      "lat": 49.401,
      "lon": 2.994,
      "cp": "60350",
      "ville": "Trosly-Breuil",
      "prix": {
        "Gazole": 0.002199,
        "E85": 0.000819,
        "E10": 0.0020139999999999997,
        "SP98": 0.0021230000000000003
      },
      "maj_gouv": {
        "Gazole": "2026-05-04 07:20:54",
        "E85": "2026-04-17 12:32:37",
        "E10": "2026-05-04 07:20:54",
        "SP98": "2026-05-04 07:20:54"
      }
    },
    {
      "id": "60740001",
      "lat": 49.239,
      "lon": 2.471,
      "cp": "60740",
      "ville": "SAINT-MAXIMIN",
      "prix": {
        "Gazole": 0.00229,
        "GPLc": 0.000999,
        "E10": 0.00209,
        "SP98": 0.00217
      },
      "maj_gouv": {
        "Gazole": "2026-05-04 10:05:50",
        "GPLc": "2026-05-04 10:05:50",
        "E10": "2026-05-04 10:05:50",
        "SP98": "2026-05-04 10:05:51"
      }
    },
    {
      "id": "60190002",
      "lat": 49.41449,
      "lon": 2.64666,
      "cp": "60190",
      "ville": "Moyvillers",
      "prix": {
        "Gazole": 0.002165,
        "SP95": 0.002058,
        "SP98": 0.002105
      },
      "maj_gouv": {
        "Gazole": "2026-04-30 08:05:41",
        "SP95": "2026-04-30 08:05:41",
        "SP98": "2026-04-30 08:05:42"
      }
    },
    {
      "id": "60160002",
      "lat": 49.253,
      "lon": 2.428,
      "cp": "60160",
      "ville": "MONTATAIRE",
      "prix": {
        "Gazole": 0.0022890000000000002,
        "E85": 0.0007790000000000001,
        "E10": 0.002089,
        "SP98": 0.002169
      },
      "maj_gouv": {
        "Gazole": "2026-05-04 08:00:42",
        "E85": "2026-05-04 08:00:42",
        "E10": "2026-05-04 08:00:42",
        "SP98": "2026-05-04 08:00:42"
      }
    },
    {
      "id": "60200012",
      "lat": 49.407,
      "lon": 2.813,
      "cp": "60200",
      "ville": "COMPIEGNE",
      "prix": {
        "Gazole": 0.0022040000000000002,
        "E85": 0.0008359999999999999,
        "E10": 0.00199,
        "SP98": 0.00199
      },
      "maj_gouv": {
        "Gazole": "2026-05-05 00:01:00",
        "E85": "2026-05-05 00:01:00",
        "E10": "2026-05-05 00:01:00",
        "SP98": "2026-05-05 00:01:00"
      }
    },
    {
      "id": "60650007",
      "lat": 49.438949,
      "lon": 1.887184,
      "cp": "60650",
      "ville": "Saint Aubin en Bray",
      "prix": {
        "Gazole": 0.002191,
        "E85": 0.000799,
        "E10": 0.002048,
        "SP98": 0.0021190000000000002
      },
      "maj_gouv": {
        "Gazole": "2026-05-04 08:28:08",
        "E85": "2026-04-24 08:33:52",
        "E10": "2026-04-29 08:41:31",
        "SP98": "2026-04-29 08:41:31"
      }
    },
    {
      "id": "60170003",
      "lat": 49.515,
      "lon": 2.924,
      "cp": "60170",
      "ville": "Ribécourt-Dreslincourt",
      "prix": {
        "Gazole": 0.002227,
        "E10": 0.0020369999999999997,
        "SP98": 0.002105
      },
      "maj_gouv": {
        "Gazole": "2026-04-30 09:37:29",
        "E10": "2026-05-04 09:15:58",
        "SP98": "2026-04-30 09:37:29"
      }
    },
    {
      "id": "60290005",
      "lat": 49.337,
      "lon": 2.434,
      "cp": "60290",
      "ville": "RANTIGNY",
      "prix": {
        "Gazole": 0.0022,
        "E85": 0.000829
      },
      "maj_gouv": {
        "Gazole": "2026-05-05 00:01:00",
        "E85": "2026-05-05 00:01:00"
      }
    }
  ]
}