{
  "departement": "17",
  "date": "2026-05-15",
  "stations": [
    {
      "id": "17220002",
      "lat": 46.084,
      "lon": -1.074,
      "cp": "17220",
      "ville": "Salles-sur-Mer",
      "prix": {
        "Gazole": 0.002047,
        "E10": 0.001984,
        "SP98": 0.002095
      },
      "maj_gouv": {
        "Gazole": "2026-05-13 11:58:23",
        "E10": "2026-05-13 11:58:23",
        "SP98": "2026-05-13 11:58:23"
      }
    },
    {
      "id": "17600004",
      "lat": 45.6656317,
      "lon": -0.943392,
      "cp": "17600",
      "ville": "Medis",
      "prix": {
        "Gazole": 0.002049,
        "SP95": 0.002059,
        "E10": 0.002025
      },
      "maj_gouv": {
        "Gazole": "2026-05-11 07:27:26",
        "SP95": "2026-05-13 06:45:00",
        "E10": "2026-05-13 06:45:00"
      }
    },
    {
      "id": "17201001",
      "lat": 45.632,
      "lon": -0.992,
      "cp": "17200",
      "ville": "ROYAN",
      "prix": {
        "Gazole": 0.002049,
        "E85": 0.0007790000000000001,
        "GPLc": 0.001095,
        "E10": 0.002025,
        "SP98": 0.002099
      },
      "maj_gouv": {
        "Gazole": "2026-05-11 07:26:19",
        "E85": "2026-04-18 07:22:41",
        "GPLc": "2026-05-05 07:20:51",
        "E10": "2026-05-13 06:45:00",
        "SP98": "2026-05-13 06:45:00"
      }
    },
    {
      "id": "17580002",
      "lat": 46.177710860263,
      "lon": -1.3721589695779002,
      "cp": "17580",
      "ville": "Le-Bois-Plage-En-Ré",
      "prix": {
        "Gazole": 0.002099,
        "SP95": 0.002047,
        "SP98": 0.002099
      },
      "maj_gouv": {
        "Gazole": "2026-05-13 08:23:46",
        "SP95": "2026-05-13 08:23:46",
        "SP98": "2026-05-13 08:23:46"
      }
    },
    {
      "id": "17470001",
      "lat": 46.029,
      "lon": -0.351,
      "cp": "17470",
      "ville": "Aulnay",
      "prix": {
        "Gazole": 0.002126,
        "E10": 0.001977,
        "SP98": 0.002074
      },
      "maj_gouv": {
        "Gazole": "2026-05-11 09:00:00",
        "E10": "2026-05-11 09:00:00",
        "SP98": "2026-05-11 09:00:00"
      }
    },
    {
      "id": "17120004",
      "lat": 45.506,
      "lon": -0.757,
      "cp": "17120",
      "ville": "BOUTENAC TOUVENT",
      "prix": {},
      "maj_gouv": {}
    },
    {
      "id": "17150001",
      "lat": 45.378,
      "lon": -0.57,
      "cp": "17150",
      "ville": "Mirambeau",
      "prix": {
        "Gazole": 0.002089,
        "E85": 0.000759,
        "E10": 0.002029,
        "SP98": 0.002099
      },
      "maj_gouv": {
        "Gazole": "2026-05-11 09:44:27",
        "E85": "2026-04-29 07:29:54",
        "E10": "2026-05-13 06:52:43",
        "SP98": "2026-05-11 09:44:28"
      }
    },
    {
      "id": "17220003",
      "lat": 46.1505429,
      "lon": -1.0765411900000001,
      "cp": "17220",
      "ville": "Saint-Rogatien",
      "prix": {
        "E10": 0.001999,
        "SP98": 0.002079
      },
      "maj_gouv": {
        "E10": "2026-05-14 20:14:51",
        "SP98": "2026-05-14 20:14:51"
      }
    },
    {
      "id": "17520002",
      "lat": 45.558,
      "lon": -0.402,
      "cp": "17520",
      "ville": "Jarnac-Champagne",
      "prix": {
        "Gazole": 0.00209,
        "SP98": 0.00199
      },
      "maj_gouv": {
        "Gazole": "2026-05-13 23:46:52",
        "SP98": "2026-05-13 23:46:52"
      }
    },
    {
      "id": "17430007",
      "lat": 45.95,
      "lon": -0.926,
      "cp": "17430",
      "ville": "Tonnay-Charente",
      "prix": {
        "Gazole": 0.00209,
        "E85": 0.000829,
        "GPLc": 0.000999,
        "E10": 0.00199
      },
      "maj_gouv": {
        "Gazole": "2026-05-15 00:01:00",
        "E85": "2026-05-15 00:01:00",
        "GPLc": "2026-05-15 00:01:00",
        "E10": "2026-05-15 00:01:00"
      }
    },
    {
      "id": "17350001",
      "lat": 45.892307179057,
      "lon": -0.6041038262695699,
      "cp": "17350",
      "ville": "Fenioux",
      "prix": {
        "Gazole": 0.00242,
        "E10": 0.002417,
        "SP98": 0.0025670000000000003
      },
      "maj_gouv": {
        "Gazole": "2026-05-14 09:30:00",
        "E10": "2026-05-14 09:30:00",
        "SP98": "2026-05-14 09:30:00"
      }
    },
    {
      "id": "17220001",
      "lat": 46.135631223332,
      "lon": -1.0081144671220001,
      "cp": "17220",
      "ville": "La Jarrie",
      "prix": {
        "Gazole": 0.002057,
        "E85": 0.0008179999999999999,
        "GPLc": 0.000999,
        "E10": 0.001988,
        "SP98": 0.002099
      },
      "maj_gouv": {
        "Gazole": "2026-05-13 09:12:19",
        "E85": "2026-04-17 08:49:08",
        "GPLc": "2026-05-12 16:11:18",
        "E10": "2026-05-13 09:12:23",
        "SP98": "2026-05-13 09:12:28"
      }
    },
    {
      "id": "17600006",
      "lat": 45.733,
      "lon": -0.96,
      "cp": "17600",
      "ville": "Le Gua",
      "prix": {
        "Gazole": 0.002089,
        "E85": 0.000869,
        "E10": 0.002039,
        "SP98": 0.002109
      },
      "maj_gouv": {
        "Gazole": "2026-05-12 08:22:03",
        "E85": "2026-04-21 09:03:16",
        "E10": "2026-05-12 08:22:03",
        "SP98": "2026-05-12 08:22:03"
      }
    },
    {
      "id": "17138007",
      "lat": 46.177,
      "lon": -1.103,
      "cp": "17138",
      "ville": "PUILBOREAU",
      "prix": {
        "Gazole": 0.00209,
        "E10": 0.00199,
        "SP98": 0.00199
      },
      "maj_gouv": {
        "Gazole": "2026-05-15 00:01:00",
        "E10": "2026-05-15 00:01:00",
        "SP98": "2026-05-15 00:01:00"
      }
    },
    {
      "id": "17300006",
      "lat": 45.948,
      "lon": -0.976,
      "cp": "17300",
      "ville": "ROCHEFORT",
      "prix": {
        "Gazole": 0.0021190000000000002,
        "E10": 0.002069,
        "SP98": 0.002219
      },
      "maj_gouv": {
        "Gazole": "2026-05-14 13:13:20",
        "E10": "2026-05-14 13:13:21",
        "SP98": "2026-05-14 13:13:20"
      }
    },
    {
      "id": "17800001",
      "lat": 45.609,
      "lon": -0.597,
      "cp": "17800",
      "ville": "Saint-Léger",
      "prix": {
        "Gazole": 0.0023439999999999997,
        "E10": 0.002234,
        "SP98": 0.0023940000000000003
      },
      "maj_gouv": {
        "Gazole": "2026-05-12 17:01:00",
        "E10": "2026-05-12 17:00:59",
        "SP98": "2026-05-12 17:00:59"
      }
    },
    {
      "id": "17250002",
      "lat": 45.83,
      "lon": -0.877,
      "cp": "17250",
      "ville": "PONT-L'ABBE-D'ARNOULT",
      "prix": {
        "Gazole": 0.002089,
        "SP95": 0.002049,
        "SP98": 0.002175
      },
      "maj_gouv": {
        "Gazole": "2026-05-12 07:40:52",
        "SP95": "2026-05-12 07:40:52",
        "SP98": "2026-05-04 08:53:59"
      }
    },
    {
      "id": "17320002",
      "lat": 45.823,
      "lon": -1.103,
      "cp": "17320",
      "ville": "MARENNES",
      "prix": {
        "Gazole": 0.002089,
        "SP95": 0.002079,
        "SP98": 0.002109
      },
      "maj_gouv": {
        "Gazole": "2026-05-12 08:21:11",
        "SP95": "2026-05-07 09:18:44",
        "SP98": "2026-05-12 08:21:11"
      }
    },
    {
      "id": "17400006",
      "lat": 45.93,
      "lon": -0.527,
      "cp": "17400",
      "ville": "ST JEAN D'ANGELY",
      "prix": {
        "Gazole": 0.002319,
        "E85": 0.000919,
        "GPLc": 0.0010400000000000001,
        "E10": 0.002159
      },
      "maj_gouv": {
        "Gazole": "2026-05-12 13:19:43",
        "E85": "2026-03-09 13:05:21",
        "GPLc": "2026-04-07 12:47:35",
        "E10": "2026-05-12 13:19:43"
      }
    },
    {
      "id": "17550001",
      "lat": 45.9046154635,
      "lon": -1.2588914413299999,
      "cp": "17550",
      "ville": "DOLUS-D'OLéRON",
      "prix": {
        "Gazole": 0.0020440000000000002,
        "E10": 0.0020099999999999996,
        "SP98": 0.002094
      },
      "maj_gouv": {
        "Gazole": "2026-05-14 10:10:26",
        "E10": "2026-05-13 09:49:50",
        "SP98": "2026-05-11 08:54:24"
      }
    },
    {
      "id": "17530001",
      "lat": 45.757,
      "lon": -1.14,
      "cp": "17530",
      "ville": "ARVERT",
      "prix": {
        "Gazole": 0.002109,
        "E10": 0.002049,
        "SP98": 0.002139
      },
      "maj_gouv": {
        "Gazole": "2026-05-12 08:51:52",
        "E10": "2026-05-12 08:51:52",
        "SP98": "2026-05-12 08:51:52"
      }
    },
    {
      "id": "17300004",
      "lat": 45.9567589967,
      "lon": -0.977776716334,
      "cp": "17300",
      "ville": "ROCHEFORT",
      "prix": {
        "Gazole": 0.002089,
        "E85": 0.000819,
        "GPLc": 0.000999,
        "E10": 0.0019890000000000003,
        "SP98": 0.002089
      },
      "maj_gouv": {
        "Gazole": "2026-05-14 07:53:25",
        "E85": "2026-04-15 07:23:31",
        "GPLc": "2026-04-14 08:01:12",
        "E10": "2026-05-14 07:53:37",
        "SP98": "2026-05-14 07:53:51"
      }
    },
    {
      "id": "17230002",
      "lat": 46.3113113409,
      "lon": -0.9918259519560001,
      "cp": "17230",
      "ville": "MARANS",
      "prix": {
        "Gazole": 0.002069,
        "E10": 0.002039,
        "SP98": 0.0021190000000000002
      },
      "maj_gouv": {
        "Gazole": "2026-05-15 05:57:56",
        "E10": "2026-05-15 05:57:57",
        "SP98": "2026-05-15 05:57:57"
      }
    },
    {
      "id": "17137002",
      "lat": 46.20265,
      "lon": -1.17434,
      "cp": "17137",
      "ville": "Nieul-sur-Mer",
      "prix": {
        "Gazole": 0.0020299999999999997,
        "SP95": 0.002059,
        "E10": 0.00202,
        "SP98": 0.00209
      },
      "maj_gouv": {
        "Gazole": "2026-05-14 08:30:00",
        "SP95": "2026-05-14 08:30:00",
        "E10": "2026-05-14 08:30:00",
        "SP98": "2026-05-14 08:30:00"
      }
    },
    {
      "id": "17690002",
      "lat": 46.1,
      "lon": -1.092,
      "cp": "17690",
      "ville": "ANGOULINS",
      "prix": {
        "Gazole": 0.00209,
        "E10": 0.00199,
        "SP98": 0.00199
      },
      "maj_gouv": {
        "Gazole": "2026-05-14 05:40:46",
        "E10": "2026-05-14 05:40:46",
        "SP98": "2026-05-14 05:40:46"
      }
    },
    {
      "id": "17600005",
      "lat": 45.74625835,
      "lon": -0.81248551349124,
      "cp": "17600",
      "ville": "CORME ROYAL",
      "prix": {
        "Gazole": 0.002205,
        "SP95": 0.002115
      },
      "maj_gouv": {
        "Gazole": "2026-05-05 16:37:53",
        "SP95": "2026-05-05 16:37:53"
      }
    },
    {
      "id": "17100011",
      "lat": 45.739,
      "lon": -0.642,
      "cp": "17100",
      "ville": "SAINTES",
      "prix": {
        "Gazole": 0.002129,
        "E10": 0.002109,
        "SP98": 0.0022389999999999997
      },
      "maj_gouv": {
        "Gazole": "2026-05-14 13:10:27",
        "E10": "2026-05-14 13:10:27",
        "SP98": "2026-05-14 13:10:27"
      }
    },
    {
      "id": "17200003",
      "lat": 45.64756295629999,
      "lon": -1.02447404804,
      "cp": "17200",
      "ville": "ROYAN",
      "prix": {
        "Gazole": 0.00209
      },
      "maj_gouv": {
        "Gazole": "2026-05-14 09:00:16"
      }
    },
    {
      "id": "17130001",
      "lat": 45.286078695023,
      "lon": -0.39297323215008,
      "cp": "17130",
      "ville": "Montendre",
      "prix": {
        "Gazole": 0.0021509999999999997,
        "E10": 0.002018,
        "SP98": 0.002128
      },
      "maj_gouv": {
        "Gazole": "2026-05-14 09:06:34",
        "E10": "2026-05-14 09:06:34",
        "SP98": "2026-05-14 09:06:34"
      }
    },
    {
      "id": "17330001",
      "lat": 46.09855,
      "lon": -0.50192,
      "cp": "17330",
      "ville": "VILLENEUVE-LA-COMTESSE",
      "prix": {
        "SP95": 0.0018
      },
      "maj_gouv": {
        "SP95": "2026-02-09 09:46:27"
      }
    },
    {
      "id": "17000010",
      "lat": 46.162,
      "lon": -1.203,
      "cp": "17000",
      "ville": "LA ROCHELLE",
      "prix": {
        "Gazole": 0.002139,
        "E10": 0.002089,
        "SP98": 0.002209
      },
      "maj_gouv": {
        "Gazole": "2026-05-14 13:10:28",
        "E10": "2026-05-14 13:10:29",
        "SP98": "2026-05-14 13:10:29"
      }
    },
    {
      "id": "17350005",
      "lat": 45.86492,
      "lon": -0.65451,
      "cp": "17350",
      "ville": "Saint-Savinien",
      "prix": {
        "Gazole": 0.00209,
        "E10": 0.001999,
        "SP98": 0.002099
      },
      "maj_gouv": {
        "Gazole": "2026-05-12 07:51:59",
        "E10": "2026-05-12 07:51:59",
        "SP98": "2026-05-12 07:51:59"
      }
    },
    {
      "id": "17130003",
      "lat": 45.281,
      "lon": -0.394,
      "cp": "17130",
      "ville": "Montendre",
      "prix": {
        "Gazole": 0.00209,
        "E10": 0.0019790000000000003,
        "SP98": 0.00199
      },
      "maj_gouv": {
        "Gazole": "2026-05-14 00:01:00",
        "E10": "2026-05-04 09:46:36",
        "SP98": "2026-04-24 12:05:53"
      }
    },
    {
      "id": "17230004",
      "lat": 46.259352845312996,
      "lon": -1.0145328124164998,
      "cp": "17230",
      "ville": "Andilly",
      "prix": {
        "Gazole": 0.002079,
        "E85": 0.0008179999999999999,
        "GPLc": 0.000955,
        "E10": 0.001966,
        "SP98": 0.002089
      },
      "maj_gouv": {
        "Gazole": "2026-05-13 09:15:00",
        "E85": "2026-04-17 09:35:00",
        "GPLc": "2026-04-10 09:37:29",
        "E10": "2026-05-13 09:15:00",
        "SP98": "2026-04-30 09:38:36"
      }
    },
    {
      "id": "17800005",
      "lat": 45.613,
      "lon": -0.604,
      "cp": "17800",
      "ville": "Saint-Léger",
      "prix": {
        "Gazole": 0.002489,
        "GPLc": 0.001339,
        "E10": 0.0023889999999999996,
        "SP98": 0.002539
      },
      "maj_gouv": {
        "Gazole": "2026-05-14 11:16:20",
        "GPLc": "2026-05-14 11:16:19",
        "E10": "2026-05-14 11:16:19",
        "SP98": "2026-05-14 11:16:19"
      }
    },
    {
      "id": "17520001",
      "lat": 45.528,
      "lon": -0.304,
      "cp": "17520",
      "ville": "Archiac",
      "prix": {
        "Gazole": 0.002114,
        "SP95": 0.002038,
        "SP98": 0.0021190000000000002
      },
      "maj_gouv": {
        "Gazole": "2026-05-13 09:37:14",
        "SP95": "2026-05-13 09:37:14",
        "SP98": "2026-05-13 09:37:14"
      }
    },
    {
      "id": "17530003",
      "lat": 45.742,
      "lon": -1.121,
      "cp": "17530",
      "ville": "ARVERT",
      "prix": {
        "Gazole": 0.002109,
        "SP95": 0.002124,
        "SP98": 0.002139
      },
      "maj_gouv": {
        "Gazole": "2026-05-12 10:15:18",
        "SP95": "2026-05-12 10:15:19",
        "SP98": "2026-05-12 10:15:19"
      }
    },
    {
      "id": "17410002",
      "lat": 46.19834,
      "lon": -1.35416,
      "cp": "17410",
      "ville": "Saint-Martin-de-Ré",
      "prix": {
        "Gazole": 0.002055,
        "E85": 0.0008179999999999999,
        "E10": 0.0019950000000000002,
        "SP98": 0.002077
      },
      "maj_gouv": {
        "Gazole": "2026-05-13 08:57:50",
        "E85": "2026-04-21 09:20:44",
        "E10": "2026-05-12 09:15:06",
        "SP98": "2026-05-12 09:15:06"
      }
    },
    {
      "id": "17600003",
      "lat": 45.666763810757,
      "lon": -0.94629032870432,
      "cp": "17600",
      "ville": "Saujon",
      "prix": {
        "Gazole": 0.002099,
        "E85": 0.0008179999999999999,
        "E10": 0.002019,
        "SP98": 0.002089
      },
      "maj_gouv": {
        "Gazole": "2026-05-13 08:18:02",
        "E85": "2026-04-21 08:10:27",
        "E10": "2026-05-13 08:18:02",
        "SP98": "2026-05-13 08:18:02"
      }
    },
    {
      "id": "17210006",
      "lat": 45.173121499096,
      "lon": -0.33316234673913997,
      "cp": "17210",
      "ville": "Bedenac",
      "prix": {
        "Gazole": 0.002249,
        "E85": 0.000865,
        "GPLc": 0.001089,
        "E10": 0.002159,
        "SP98": 0.002249
      },
      "maj_gouv": {
        "Gazole": "2026-05-14 09:43:37",
        "E85": "2026-05-14 09:43:37",
        "GPLc": "2026-05-14 09:43:37",
        "E10": "2026-05-14 09:43:37",
        "SP98": "2026-05-14 09:43:37"
      }
    },
    {
      "id": "17440001",
      "lat": 46.131,
      "lon": -1.099,
      "cp": "17440",
      "ville": "AYTRE",
      "prix": {
        "Gazole": 0.002165,
        "E10": 0.00199
      },
      "maj_gouv": {
        "Gazole": "2026-05-13 07:19:25",
        "E10": "2026-05-13 07:19:25"
      }
    },
    {
      "id": "17140001",
      "lat": 46.1739427831,
      "lon": -1.16766879889,
      "cp": "17140",
      "ville": "LAGORD",
      "prix": {
        "Gazole": 0.001999,
        "SP95": 0.0020259999999999996,
        "E10": 0.001974,
        "SP98": 0.002063
      },
      "maj_gouv": {
        "Gazole": "2026-05-13 08:38:33",
        "SP95": "2026-05-13 08:38:33",
        "E10": "2026-05-14 08:08:30",
        "SP98": "2026-05-14 08:08:31"
      }
    },
    {
      "id": "17440003",
      "lat": 46.1386,
      "lon": -1.13925,
      "cp": "17440",
      "ville": "AYTRé",
      "prix": {
        "Gazole": 0.002081,
        "SP95": 0.002028,
        "SP98": 0.0021070000000000004
      },
      "maj_gouv": {
        "Gazole": "2026-05-12 14:50:16",
        "SP95": "2026-05-12 14:50:16",
        "SP98": "2026-05-12 14:50:17"
      }
    },
    {
      "id": "17160002",
      "lat": 45.87435,
      "lon": -0.31139,
      "cp": "17160",
      "ville": "Matha",
      "prix": {
        "Gazole": 0.00222,
        "E10": 0.00206,
        "SP98": 0.0021230000000000003
      },
      "maj_gouv": {
        "Gazole": "2026-05-05 15:34:09",
        "E10": "2026-05-05 15:34:10",
        "SP98": "2026-05-05 15:34:10"
      }
    },
    {
      "id": "17620002",
      "lat": 45.90695,
      "lon": -0.96161,
      "cp": "17620",
      "ville": "ECHILLAIS",
      "prix": {
        "Gazole": 0.002079,
        "E85": 0.000769,
        "E10": 0.001999,
        "SP98": 0.002079
      },
      "maj_gouv": {
        "Gazole": "2026-05-13 10:58:53",
        "E85": "2026-05-09 09:51:46",
        "E10": "2026-05-11 10:34:48",
        "SP98": "2026-05-13 10:58:53"
      }
    },
    {
      "id": "17690001",
      "lat": 46.111,
      "lon": -1.103,
      "cp": "17690",
      "ville": "ANGOULINS",
      "prix": {
        "Gazole": 0.002078,
        "SP95": 0.002076,
        "E85": 0.0007650000000000001,
        "GPLc": 0.001029,
        "E10": 0.002007,
        "SP98": 0.0021709999999999998
      },
      "maj_gouv": {
        "Gazole": "2026-05-15 00:41:00",
        "SP95": "2026-05-15 00:41:00",
        "E85": "2026-05-15 00:41:00",
        "GPLc": "2026-05-15 00:41:00",
        "E10": "2026-05-15 00:41:00",
        "SP98": "2026-05-15 00:41:00"
      }
    },
    {
      "id": "17210007",
      "lat": 45.170103998994,
      "lon": -0.33449343450863,
      "cp": "17210",
      "ville": "bedenac",
      "prix": {
        "Gazole": 0.002269,
        "E85": 0.000885,
        "E10": 0.002199,
        "SP98": 0.0022890000000000002
      },
      "maj_gouv": {
        "Gazole": "2026-05-12 08:29:16",
        "E85": "2026-05-15 00:01:00",
        "E10": "2026-05-15 00:01:00",
        "SP98": "2026-05-15 00:01:00"
      }
    },
    {
      "id": "17138006",
      "lat": 46.177,
      "lon": -1.103,
      "cp": "17138",
      "ville": "PUILBOREAU",
      "prix": {
        "Gazole": 0.00209,
        "E85": 0.0008169999999999999,
        "GPLc": 0.000989,
        "E10": 0.00199,
        "SP98": 0.00199
      },
      "maj_gouv": {
        "Gazole": "2026-05-15 00:01:00",
        "E85": "2026-05-15 00:01:00",
        "GPLc": "2026-05-15 00:01:00",
        "E10": "2026-05-15 00:01:00",
        "SP98": "2026-05-15 00:01:00"
      }
    },
    {
      "id": "17480003",
      "lat": 45.879273256827,
      "lon": -1.2196129659261,
      "cp": "17480",
      "ville": "Le Château-d'Oléron",
      "prix": {
        "Gazole": 0.00204,
        "SP95": 0.002049,
        "E10": 0.0020099999999999996,
        "SP98": 0.00209
      },
      "maj_gouv": {
        "Gazole": "2026-05-13 09:24:16",
        "SP95": "2026-05-12 09:18:03",
        "E10": "2026-05-12 09:18:03",
        "SP98": "2026-05-13 09:24:16"
      }
    },
    {
      "id": "17350006",
      "lat": 45.894721569803,
      "lon": -0.60338845634462,
      "cp": "17350",
      "ville": "FENIOUX",
      "prix": {
        "Gazole": 0.002454,
        "E85": 0.0010940000000000001,
        "GPLc": 0.001149,
        "E10": 0.002354,
        "SP98": 0.002424
      },
      "maj_gouv": {
        "Gazole": "2026-05-15 00:01:00",
        "E85": "2026-05-15 00:01:00",
        "GPLc": "2026-05-15 00:01:00",
        "E10": "2026-05-15 00:01:00",
        "SP98": "2026-05-15 00:01:00"
      }
    },
    {
      "id": "17780001",
      "lat": 45.922142802672006,
      "lon": -1.002564339813,
      "cp": "17780",
      "ville": "SOUBISE",
      "prix": {
        "Gazole": 0.002169,
        "E10": 0.002029
      },
      "maj_gouv": {
        "Gazole": "2026-05-07 07:35:46",
        "E10": "2026-05-07 07:35:46"
      }
    },
    {
      "id": "17200008",
      "lat": 45.62357,
      "lon": -1.01317,
      "cp": "17200",
      "ville": "ROYAN",
      "prix": {
        "E85": 0.0008489999999999999
      },
      "maj_gouv": {
        "E85": "2026-05-15 00:01:00"
      }
    },
    {
      "id": "17320003",
      "lat": 45.82747,
      "lon": -1.09838,
      "cp": "17320",
      "ville": "Marennes",
      "prix": {
        "Gazole": 0.002179,
        "E10": 0.002049,
        "SP98": 0.002099
      },
      "maj_gouv": {
        "Gazole": "2026-05-07 09:57:27",
        "E10": "2026-05-07 09:57:42",
        "SP98": "2026-05-07 09:57:59"
      }
    },
    {
      "id": "17200009",
      "lat": 45.624728149199996,
      "lon": -1.01645691284,
      "cp": "17200",
      "ville": "ROYAN",
      "prix": {},
      "maj_gouv": {}
    },
    {
      "id": "17350003",
      "lat": 45.87419,
      "lon": -0.67693,
      "cp": "17350",
      "ville": "Saint-Savinien",
      "prix": {
        "Gazole": 0.00209,
        "E10": 0.00199
      },
      "maj_gouv": {
        "Gazole": "2026-05-13 18:04:00",
        "E10": "2026-05-12 10:23:22"
      }
    },
    {
      "id": "17410001",
      "lat": 46.198,
      "lon": -1.355,
      "cp": "17410",
      "ville": "SAINT-MARTIN-DE-Ré",
      "prix": {
        "Gazole": 0.002055,
        "SP95": 0.002041,
        "GPLc": 0.000999,
        "E10": 0.001999,
        "SP98": 0.002078
      },
      "maj_gouv": {
        "Gazole": "2026-05-13 07:28:50",
        "SP95": "2026-05-13 07:28:50",
        "GPLc": "2026-04-10 07:16:57",
        "E10": "2026-05-13 07:28:50",
        "SP98": "2026-05-13 07:28:50"
      }
    },
    {
      "id": "17430001",
      "lat": 45.946,
      "lon": -0.889,
      "cp": "17430",
      "ville": "Tonnay-Charente",
      "prix": {
        "Gazole": 0.002079,
        "E85": 0.000789,
        "E10": 0.001999,
        "SP98": 0.002089
      },
      "maj_gouv": {
        "Gazole": "2026-05-14 08:52:05",
        "E85": "2026-05-14 08:52:05",
        "E10": "2026-05-14 08:52:05",
        "SP98": "2026-05-14 08:52:05"
      }
    },
    {
      "id": "17300003",
      "lat": 45.929,
      "lon": -0.958,
      "cp": "17300",
      "ville": "ROCHEFORT",
      "prix": {
        "Gazole": 0.002089,
        "E85": 0.00079,
        "E10": 0.002025,
        "SP98": 0.002079
      },
      "maj_gouv": {
        "Gazole": "2026-05-13 10:30:00",
        "E85": "2026-05-02 09:11:23",
        "E10": "2026-05-13 10:30:00",
        "SP98": "2026-05-13 10:30:00"
      }
    },
    {
      "id": "17100007",
      "lat": 45.739,
      "lon": -0.603,
      "cp": "17100",
      "ville": "Saintes",
      "prix": {
        "Gazole": 0.002045,
        "E85": 0.0008179999999999999,
        "E10": 0.00195,
        "SP98": 0.0020440000000000002
      },
      "maj_gouv": {
        "Gazole": "2026-05-11 08:46:16",
        "E85": "2026-04-16 09:44:52",
        "E10": "2026-05-12 17:53:18",
        "SP98": "2026-05-11 08:46:16"
      }
    },
    {
      "id": "17740001",
      "lat": 46.158,
      "lon": -1.324,
      "cp": "17740",
      "ville": "Sainte-Marie-de-Ré",
      "prix": {
        "Gazole": 0.00209
      },
      "maj_gouv": {
        "Gazole": "2026-05-15 00:46:29"
      }
    },
    {
      "id": "17210004",
      "lat": 45.2935182,
      "lon": -0.23916880000000001,
      "cp": "17210",
      "ville": "Chevanceaux",
      "prix": {
        "Gazole": 0.00215,
        "E10": 0.00207,
        "SP98": 0.00215
      },
      "maj_gouv": {
        "Gazole": "2026-05-13 09:51:09",
        "E10": "2026-05-13 09:51:09",
        "SP98": "2026-05-13 09:51:09"
      }
    },
    {
      "id": "17920001",
      "lat": 45.699,
      "lon": -1.053,
      "cp": "17920",
      "ville": "BREUILLET",
      "prix": {
        "Gazole": 0.002209,
        "GPLc": 0.001089,
        "E10": 0.002099,
        "SP98": 0.002199
      },
      "maj_gouv": {
        "Gazole": "2026-05-14 23:05:00",
        "GPLc": "2026-05-14 23:05:00",
        "E10": "2026-05-14 23:05:00",
        "SP98": "2026-05-14 23:05:00"
      }
    },
    {
      "id": "17200006",
      "lat": 45.669,
      "lon": -1.01,
      "cp": "17200",
      "ville": "SAINT-SULPICE-DE-ROYAN",
      "prix": {
        "Gazole": 0.002179,
        "SP98": 0.00214
      },
      "maj_gouv": {
        "Gazole": "2026-05-11 12:40:53",
        "SP98": "2026-05-14 07:33:00"
      }
    },
    {
      "id": "17570001",
      "lat": 45.687,
      "lon": -1.171,
      "cp": "17570",
      "ville": "LES MATHES",
      "prix": {
        "Gazole": 0.00209
      },
      "maj_gouv": {
        "Gazole": "2026-05-14 08:00:00"
      }
    },
    {
      "id": "17170003",
      "lat": 46.2265632575,
      "lon": -0.8715297856259999,
      "cp": "17170",
      "ville": "Ferrières",
      "prix": {
        "Gazole": 0.002181,
        "SP95": 0.002081,
        "GPLc": 0.0010400000000000001,
        "SP98": 0.002166
      },
      "maj_gouv": {
        "Gazole": "2026-05-08 09:16:11",
        "SP95": "2026-05-02 10:17:08",
        "GPLc": "2026-05-07 12:20:55",
        "SP98": "2026-05-02 10:18:00"
      }
    },
    {
      "id": "17450001",
      "lat": 45.99074,
      "lon": -1.0762,
      "cp": "17450",
      "ville": "FOURAS",
      "prix": {
        "Gazole": 0.002109,
        "E85": 0.000789,
        "E10": 0.002068,
        "SP98": 0.0021000000000000003
      },
      "maj_gouv": {
        "Gazole": "2026-05-11 09:11:57",
        "E85": "2026-05-07 07:09:08",
        "E10": "2026-05-07 07:09:08",
        "SP98": "2026-05-11 09:11:57"
      }
    },
    {
      "id": "17290003",
      "lat": 46.11624,
      "lon": -0.93553,
      "cp": "17290",
      "ville": "AIGREFEUILLE-D'AUNIS",
      "prix": {
        "Gazole": 0.002049,
        "E85": 0.000819,
        "E10": 0.0019690000000000003,
        "SP98": 0.002079
      },
      "maj_gouv": {
        "Gazole": "2026-05-13 10:12:02",
        "E85": "2026-04-20 13:02:57",
        "E10": "2026-05-13 10:12:02",
        "SP98": "2026-05-13 10:12:02"
      }
    },
    {
      "id": "17500002",
      "lat": 45.4551675,
      "lon": -0.4409149,
      "cp": "17500",
      "ville": "JONZAC",
      "prix": {
        "Gazole": 0.0020299999999999997,
        "E85": 0.0008169999999999999,
        "GPLc": 0.001098,
        "E10": 0.001996,
        "SP98": 0.00211
      },
      "maj_gouv": {
        "Gazole": "2026-05-13 09:19:37",
        "E85": "2026-05-11 09:21:41",
        "GPLc": "2026-05-11 09:21:41",
        "E10": "2026-05-13 09:19:37",
        "SP98": "2026-05-13 09:19:37"
      }
    },
    {
      "id": "17160001",
      "lat": 45.869,
      "lon": -0.305,
      "cp": "17160",
      "ville": "Matha",
      "prix": {
        "Gazole": 0.002069,
        "E85": 0.0008179999999999999,
        "E10": 0.001999,
        "SP98": 0.002113
      },
      "maj_gouv": {
        "Gazole": "2026-05-13 09:08:49",
        "E85": "2026-05-07 08:34:27",
        "E10": "2026-05-13 09:08:49",
        "SP98": "2026-05-07 08:34:27"
      }
    },
    {
      "id": "17630001",
      "lat": 46.179,
      "lon": -1.328,
      "cp": "17630",
      "ville": "La Flotte",
      "prix": {
        "Gazole": 0.0020299999999999997,
        "SP95": 0.0020350000000000004,
        "E10": 0.0019790000000000003,
        "SP98": 0.002074
      },
      "maj_gouv": {
        "Gazole": "2026-05-13 09:09:13",
        "SP95": "2026-05-12 09:06:52",
        "E10": "2026-05-13 09:09:13",
        "SP98": "2026-05-13 09:09:13"
      }
    },
    {
      "id": "17000012",
      "lat": 46.156,
      "lon": -1.119,
      "cp": "17000",
      "ville": "La Rochelle",
      "prix": {
        "Gazole": 0.00209,
        "E85": 0.0008309999999999999,
        "E10": 0.00199
      },
      "maj_gouv": {
        "Gazole": "2026-05-15 00:01:00",
        "E85": "2026-05-15 00:01:00",
        "E10": "2026-05-15 00:01:00"
      }
    },
    {
      "id": "17770002",
      "lat": 45.77508103751399,
      "lon": -0.42216137321515,
      "cp": "17770",
      "ville": "Burie",
      "prix": {
        "Gazole": 0.00209,
        "SP95": 0.002072,
        "SP98": 0.002156
      },
      "maj_gouv": {
        "Gazole": "2026-05-12 10:48:16",
        "SP95": "2026-05-05 09:59:45",
        "SP98": "2026-05-05 09:59:45"
      }
    },
    {
      "id": "17640002",
      "lat": 45.647,
      "lon": -1.049,
      "cp": "17640",
      "ville": "Vaux-sur-Mer",
      "prix": {
        "Gazole": 0.002054,
        "SP95": 0.002063,
        "E85": 0.000819,
        "E10": 0.002007
      },
      "maj_gouv": {
        "Gazole": "2026-05-14 19:45:00",
        "SP95": "2026-05-13 08:55:49",
        "E85": "2026-04-17 09:00:00",
        "E10": "2026-05-13 08:56:38"
      }
    },
    {
      "id": "17690004",
      "lat": 46.102,
      "lon": -1.093,
      "cp": "17690",
      "ville": "Angoulins",
      "prix": {
        "Gazole": 0.002199,
        "E85": 0.000855,
        "E10": 0.002099,
        "SP98": 0.002209
      },
      "maj_gouv": {
        "Gazole": "2026-05-14 23:57:00",
        "E85": "2026-05-14 23:57:00",
        "E10": "2026-05-14 23:57:00",
        "SP98": "2026-05-14 23:57:00"
      }
    },
    {
      "id": "17000007",
      "lat": 46.171,
      "lon": -1.204,
      "cp": "17000",
      "ville": "LA ROCHELLE",
      "prix": {
        "Gazole": 0.002219,
        "E85": 0.0008349999999999999,
        "E10": 0.002089,
        "SP98": 0.002199
      },
      "maj_gouv": {
        "Gazole": "2026-05-14 23:59:00",
        "E85": "2026-05-14 23:59:00",
        "E10": "2026-05-14 23:59:00",
        "SP98": "2026-05-14 23:59:00"
      }
    },
    {
      "id": "17360001",
      "lat": 45.159,
      "lon": -0.019,
      "cp": "17360",
      "ville": "SAINT-AIGULIN",
      "prix": {
        "Gazole": 0.002179,
        "E10": 0.002109,
        "SP98": 0.0021190000000000002
      },
      "maj_gouv": {
        "Gazole": "2026-05-06 06:24:29",
        "E10": "2026-05-06 06:24:29",
        "SP98": "2026-05-06 06:24:29"
      }
    },
    {
      "id": "17700001",
      "lat": 46.104,
      "lon": -0.754,
      "cp": "17700",
      "ville": "Surgères",
      "prix": {
        "Gazole": 0.002036,
        "E10": 0.001999,
        "SP98": 0.002101
      },
      "maj_gouv": {
        "Gazole": "2026-05-11 10:12:33",
        "E10": "2026-05-11 10:12:33",
        "SP98": "2026-05-11 10:12:33"
      }
    },
    {
      "id": "17260001",
      "lat": 45.576,
      "lon": -0.678,
      "cp": "17260",
      "ville": "GEMOZAC",
      "prix": {
        "Gazole": 0.002079,
        "E85": 0.0007790000000000001,
        "E10": 0.002019,
        "SP98": 0.002099
      },
      "maj_gouv": {
        "Gazole": "2026-05-12 11:08:34",
        "E85": "2026-04-24 09:03:15",
        "E10": "2026-05-13 10:15:13",
        "SP98": "2026-05-11 09:04:44"
      }
    },
    {
      "id": "17320004",
      "lat": 45.83164173,
      "lon": -1.1235933,
      "cp": "17320",
      "ville": "Marennes",
      "prix": {
        "Gazole": 0.002089,
        "SP95": 0.002079,
        "E85": 0.000869,
        "SP98": 0.002109
      },
      "maj_gouv": {
        "Gazole": "2026-05-12 08:21:34",
        "SP95": "2026-05-07 09:19:29",
        "E85": "2026-04-21 09:02:37",
        "SP98": "2026-05-12 08:21:34"
      }
    },
    {
      "id": "17270001",
      "lat": 45.2121397979,
      "lon": -0.177197722832,
      "cp": "17270",
      "ville": "MONTGUYON",
      "prix": {
        "Gazole": 0.002159,
        "E85": 0.000819,
        "E10": 0.002019,
        "SP98": 0.002149
      },
      "maj_gouv": {
        "Gazole": "2026-05-13 09:02:26",
        "E85": "2026-04-17 08:59:31",
        "E10": "2026-05-12 08:51:17",
        "SP98": "2026-05-12 08:51:18"
      }
    },
    {
      "id": "17800004",
      "lat": 45.579,
      "lon": -0.558,
      "cp": "17800",
      "ville": "PONS",
      "prix": {
        "Gazole": 0.002049,
        "E85": 0.0007790000000000001,
        "GPLc": 0.001089,
        "E10": 0.002009,
        "SP98": 0.002099
      },
      "maj_gouv": {
        "Gazole": "2026-05-13 08:58:19",
        "E85": "2026-05-11 08:45:38",
        "GPLc": "2026-05-11 08:45:38",
        "E10": "2026-05-13 08:58:20",
        "SP98": "2026-05-13 08:58:20"
      }
    },
    {
      "id": "17139001",
      "lat": 46.189331689999996,
      "lon": -1.0693078599999999,
      "cp": "17139",
      "ville": "DOMPIERRE-SUR-MER",
      "prix": {
        "Gazole": 0.002002,
        "SP95": 0.002036,
        "SP98": 0.002063
      },
      "maj_gouv": {
        "Gazole": "2026-05-13 09:58:42",
        "SP95": "2026-05-13 09:58:42",
        "SP98": "2026-05-13 09:58:42"
      }
    },
    {
      "id": "17285001",
      "lat": 46.1736460061,
      "lon": -1.11758831845,
      "cp": "17138",
      "ville": "PUILBOREAU",
      "prix": {
        "Gazole": 0.002002,
        "E85": 0.000718,
        "GPLc": 0.001093,
        "E10": 0.001982,
        "SP98": 0.002063
      },
      "maj_gouv": {
        "Gazole": "2026-05-13 08:54:09",
        "E85": "2026-05-06 09:02:30",
        "GPLc": "2026-05-06 09:02:30",
        "E10": "2026-05-13 08:54:09",
        "SP98": "2026-05-13 08:54:09"
      }
    },
    {
      "id": "17137001",
      "lat": 46.198,
      "lon": -1.158,
      "cp": "17137",
      "ville": "NIEUL-SUR-MER",
      "prix": {
        "Gazole": 0.00209,
        "SP95": 0.00199
      },
      "maj_gouv": {
        "Gazole": "2026-05-13 18:18:30",
        "SP95": "2026-05-13 18:18:31"
      }
    },
    {
      "id": "17120002",
      "lat": 45.585,
      "lon": -0.835,
      "cp": "17120",
      "ville": "COZES",
      "prix": {
        "Gazole": 0.002079,
        "E85": 0.0007790000000000001,
        "E10": 0.002049,
        "SP98": 0.002099
      },
      "maj_gouv": {
        "Gazole": "2026-05-13 09:31:39",
        "E85": "2026-04-30 10:29:15",
        "E10": "2026-05-09 10:07:26",
        "SP98": "2026-05-13 09:31:39"
      }
    },
    {
      "id": "17100005",
      "lat": 45.746,
      "lon": -0.674,
      "cp": "17100",
      "ville": "Saintes",
      "prix": {
        "Gazole": 0.002049,
        "E85": 0.0007199999999999999,
        "E10": 0.002025,
        "SP98": 0.002099
      },
      "maj_gouv": {
        "Gazole": "2026-05-12 09:30:32",
        "E85": "2026-04-23 09:21:14",
        "E10": "2026-05-13 09:16:21",
        "SP98": "2026-05-13 09:16:21"
      }
    },
    {
      "id": "17000005",
      "lat": 46.17,
      "lon": -1.127,
      "cp": "17000",
      "ville": "La Rochelle",
      "prix": {
        "Gazole": 0.001999,
        "E85": 0.000718,
        "E10": 0.001974,
        "SP98": 0.002063
      },
      "maj_gouv": {
        "Gazole": "2026-05-13 08:30:00",
        "E85": "2026-05-13 08:30:00",
        "E10": "2026-05-14 08:30:00",
        "SP98": "2026-05-14 08:30:00"
      }
    },
    {
      "id": "17240001",
      "lat": 45.489,
      "lon": -0.566,
      "cp": "17240",
      "ville": "SAINT-GENIS-DE-SAINTONGE",
      "prix": {
        "Gazole": 0.002095,
        "E85": 0.000864,
        "SP98": 0.00199
      },
      "maj_gouv": {
        "Gazole": "2026-05-13 05:56:19",
        "E85": "2026-04-28 05:57:37",
        "SP98": "2026-04-21 06:03:23"
      }
    },
    {
      "id": "17500003",
      "lat": 45.4382966,
      "lon": -0.4515224,
      "cp": "17500",
      "ville": "Jonzac",
      "prix": {
        "Gazole": 0.0020310000000000003,
        "E85": 0.0008179999999999999,
        "GPLc": 0.001099,
        "E10": 0.001997,
        "SP98": 0.002111
      },
      "maj_gouv": {
        "Gazole": "2026-05-14 09:15:29",
        "E85": "2026-05-14 09:15:29",
        "GPLc": "2026-05-14 09:15:29",
        "E10": "2026-05-14 09:15:29",
        "SP98": "2026-05-14 09:15:29"
      }
    },
    {
      "id": "17700002",
      "lat": 46.109,
      "lon": -0.754,
      "cp": "17700",
      "ville": "Surgères",
      "prix": {
        "Gazole": 0.002155,
        "SP95": 0.00199
      },
      "maj_gouv": {
        "Gazole": "2026-05-13 09:12:17",
        "SP95": "2026-05-13 09:12:17"
      }
    },
    {
      "id": "17120005",
      "lat": 45.604,
      "lon": -0.914,
      "cp": "17120",
      "ville": "SEMUSSAC",
      "prix": {
        "Gazole": 0.002034,
        "E10": 0.001997,
        "SP98": 0.002083
      },
      "maj_gouv": {
        "Gazole": "2026-05-11 07:20:58",
        "E10": "2026-05-11 07:20:59",
        "SP98": "2026-05-11 07:20:59"
      }
    },
    {
      "id": "17200001",
      "lat": 45.62955,
      "lon": -1.03904,
      "cp": "17200",
      "ville": "Royan",
      "prix": {
        "Gazole": 0.002199,
        "E85": 0.0007790000000000001,
        "E10": 0.002079,
        "SP98": 0.002169
      },
      "maj_gouv": {
        "Gazole": "2026-05-11 08:00:47",
        "E85": "2026-05-11 08:00:48",
        "E10": "2026-05-11 08:00:48",
        "SP98": "2026-05-11 08:00:48"
      }
    },
    {
      "id": "17640003",
      "lat": 45.637093,
      "lon": -1.0635259,
      "cp": "17640",
      "ville": "Vaux-sur-Mer",
      "prix": {
        "Gazole": 0.002175,
        "E10": 0.0020710000000000004,
        "SP98": 0.002145
      },
      "maj_gouv": {
        "Gazole": "2026-05-07 19:23:06",
        "E10": "2026-05-07 19:23:06",
        "SP98": "2026-05-07 19:23:07"
      }
    },
    {
      "id": "17700003",
      "lat": 46.111,
      "lon": -0.739,
      "cp": "17700",
      "ville": "SURGERES",
      "prix": {
        "Gazole": 0.0020350000000000004,
        "E85": 0.000735,
        "GPLc": 0.001039,
        "E10": 0.002027,
        "SP98": 0.002109
      },
      "maj_gouv": {
        "Gazole": "2026-05-13 19:00:00",
        "E85": "2026-05-13 19:00:00",
        "GPLc": "2026-05-13 19:00:00",
        "E10": "2026-05-13 19:00:00",
        "SP98": "2026-05-13 19:00:00"
      }
    },
    {
      "id": "17420001",
      "lat": 45.651,
      "lon": -1.085,
      "cp": "17420",
      "ville": "SAINT-PALAIS-SUR-MER",
      "prix": {
        "Gazole": 0.00212,
        "E10": 0.002039,
        "SP98": 0.00214
      },
      "maj_gouv": {
        "Gazole": "2026-05-13 10:04:18",
        "E10": "2026-05-12 10:03:36",
        "SP98": "2026-05-12 10:03:36"
      }
    },
    {
      "id": "17560004",
      "lat": 45.854735999999995,
      "lon": -1.167256,
      "cp": "17560",
      "ville": "Bourcefranc le chapus",
      "prix": {
        "Gazole": 0.002089,
        "SP95": 0.002079
      },
      "maj_gouv": {
        "Gazole": "2026-05-12 08:20:50",
        "SP95": "2026-05-07 09:20:54"
      }
    },
    {
      "id": "17100008",
      "lat": 45.736,
      "lon": -0.649,
      "cp": "17100",
      "ville": "Saintes",
      "prix": {
        "Gazole": 0.002049,
        "E85": 0.0008179999999999999,
        "E10": 0.002025,
        "SP98": 0.002099
      },
      "maj_gouv": {
        "Gazole": "2026-05-13 11:55:40",
        "E85": "2026-04-18 13:49:36",
        "E10": "2026-05-13 11:55:40",
        "SP98": "2026-05-13 11:55:40"
      }
    },
    {
      "id": "17138010",
      "lat": 46.205937848928,
      "lon": -1.0938859977731,
      "cp": "17138",
      "ville": "Saint-Xandre",
      "prix": {
        "Gazole": 0.002089,
        "E10": 0.001999,
        "SP98": 0.002099
      },
      "maj_gouv": {
        "Gazole": "2026-05-11 17:19:43",
        "E10": "2026-05-11 17:19:44",
        "SP98": "2026-05-11 17:19:44"
      }
    },
    {
      "id": "17310001",
      "lat": 45.93945,
      "lon": -1.3082,
      "cp": "17310",
      "ville": "SAINT-PIERRE-D'OLERON",
      "prix": {
        "Gazole": 0.00204,
        "E85": 0.000705,
        "E10": 0.0020099999999999996,
        "SP98": 0.00209
      },
      "maj_gouv": {
        "Gazole": "2026-05-13 12:12:33",
        "E85": "2026-05-12 10:55:04",
        "E10": "2026-05-12 10:55:05",
        "SP98": "2026-05-13 12:12:33"
      }
    },
    {
      "id": "17100013",
      "lat": 45.741,
      "lon": -0.625,
      "cp": "17100",
      "ville": "SAINTES",
      "prix": {
        "E85": 0.000825
      },
      "maj_gouv": {
        "E85": "2026-05-15 05:42:35"
      }
    },
    {
      "id": "17130004",
      "lat": 45.29,
      "lon": -0.41,
      "cp": "17130",
      "ville": "Montendre",
      "prix": {
        "Gazole": 0.002139,
        "E85": 0.000819,
        "E10": 0.002019,
        "SP98": 0.002129
      },
      "maj_gouv": {
        "Gazole": "2026-05-13 15:45:24",
        "E85": "2026-04-19 09:28:33",
        "E10": "2026-05-12 12:21:46",
        "SP98": "2026-05-13 15:45:43"
      }
    },
    {
      "id": "17100006",
      "lat": 45.741008800341,
      "lon": -0.62603359222409,
      "cp": "17100",
      "ville": "Saintes",
      "prix": {
        "Gazole": 0.00212,
        "E85": 0.00073,
        "GPLc": 0.0011799999999999998,
        "E10": 0.0020369999999999997,
        "SP98": 0.0021000000000000003
      },
      "maj_gouv": {
        "Gazole": "2026-05-12 08:59:59",
        "E85": "2026-05-12 08:59:59",
        "GPLc": "2026-04-20 09:37:20",
        "E10": "2026-05-12 08:59:59",
        "SP98": "2026-05-12 09:00:00"
      }
    },
    {
      "id": "17110001",
      "lat": 45.612,
      "lon": -0.991,
      "cp": "17110",
      "ville": "SAINT-GEORGES-DE-DIDONNE",
      "prix": {
        "Gazole": 0.002095,
        "E85": 0.000775,
        "E10": 0.002065,
        "SP98": 0.002165
      },
      "maj_gouv": {
        "Gazole": "2026-05-13 08:46:40",
        "E85": "2026-05-13 08:46:41",
        "E10": "2026-05-13 08:46:41",
        "SP98": "2026-05-13 08:46:41"
      }
    },
    {
      "id": "17310003",
      "lat": 45.935,
      "lon": -1.3,
      "cp": "17310",
      "ville": "SAINT-PIERRE-D'OLéRON",
      "prix": {},
      "maj_gouv": {}
    },
    {
      "id": "17390002",
      "lat": 45.76,
      "lon": -1.129,
      "cp": "17390",
      "ville": "La Tremblade",
      "prix": {
        "Gazole": 0.002142,
        "E85": 0.0008179999999999999,
        "E10": 0.002039,
        "SP98": 0.002139
      },
      "maj_gouv": {
        "Gazole": "2026-05-13 19:26:24",
        "E85": "2026-04-20 11:28:24",
        "E10": "2026-05-13 19:26:24",
        "SP98": "2026-05-13 19:26:25"
      }
    },
    {
      "id": "17540001",
      "lat": 46.2129641345,
      "lon": -0.9541196059763399,
      "cp": "17540",
      "ville": "ANGLIERS",
      "prix": {
        "Gazole": 0.00225,
        "SP98": 0.00199
      },
      "maj_gouv": {
        "Gazole": "2026-05-13 10:12:48",
        "SP98": "2026-05-13 10:12:48"
      }
    },
    {
      "id": "17102001",
      "lat": 45.756247447199996,
      "lon": -0.65210476871,
      "cp": "17100",
      "ville": "SAINTES",
      "prix": {
        "Gazole": 0.002049,
        "E85": 0.0007199999999999999,
        "GPLc": 0.001099,
        "E10": 0.002025,
        "SP98": 0.002099
      },
      "maj_gouv": {
        "Gazole": "2026-05-12 09:34:29",
        "E85": "2026-04-23 09:23:46",
        "GPLc": "2026-05-05 08:42:50",
        "E10": "2026-05-13 09:36:41",
        "SP98": "2026-05-13 09:36:42"
      }
    },
    {
      "id": "17400002",
      "lat": 45.944,
      "lon": -0.505,
      "cp": "17400",
      "ville": "SAINT-JEAN-D'ANGéLY",
      "prix": {
        "Gazole": 0.002059,
        "SP95": 0.0021190000000000002,
        "GPLc": 0.00117,
        "SP98": 0.002159
      },
      "maj_gouv": {
        "Gazole": "2026-05-11 09:02:47",
        "SP95": "2026-05-13 09:21:57",
        "GPLc": "2026-04-30 09:29:46",
        "SP98": "2026-05-13 09:21:57"
      }
    },
    {
      "id": "17132001",
      "lat": 45.559,
      "lon": -0.954,
      "cp": "17132",
      "ville": "MESCHERS-SUR-GIRONDE",
      "prix": {
        "Gazole": 0.002155,
        "E10": 0.00207,
        "SP98": 0.002155
      },
      "maj_gouv": {
        "Gazole": "2026-05-07 12:21:40",
        "E10": "2026-05-07 12:21:40",
        "SP98": "2026-05-07 12:21:40"
      }
    },
    {
      "id": "17590002",
      "lat": 46.204,
      "lon": -1.512,
      "cp": "17590",
      "ville": "Ars-en-Ré",
      "prix": {
        "Gazole": 0.002089,
        "SP95": 0.002049,
        "SP98": 0.002099
      },
      "maj_gouv": {
        "Gazole": "2026-05-09 08:23:27",
        "SP95": "2026-05-09 08:23:27",
        "SP98": "2026-05-09 08:23:27"
      }
    },
    {
      "id": "17400003",
      "lat": 45.95287,
      "lon": -0.52991,
      "cp": "17400",
      "ville": "Saint-Jean-d'Angély",
      "prix": {
        "Gazole": 0.002059,
        "E10": 0.002085,
        "SP98": 0.002159
      },
      "maj_gouv": {
        "Gazole": "2026-05-11 09:37:23",
        "E10": "2026-05-13 09:29:12",
        "SP98": "2026-05-13 09:29:12"
      }
    },
    {
      "id": "17700004",
      "lat": 46.106628368687,
      "lon": -0.76915309298864,
      "cp": "17700",
      "ville": "Surgères",
      "prix": {
        "Gazole": 0.0020440000000000002,
        "E85": 0.000819,
        "E10": 0.001933,
        "SP98": 0.002042
      },
      "maj_gouv": {
        "Gazole": "2026-05-12 08:45:00",
        "E85": "2026-04-23 15:45:00",
        "E10": "2026-05-12 08:45:00",
        "SP98": "2026-05-12 08:45:00"
      }
    },
    {
      "id": "17100014",
      "lat": 45.747474000000004,
      "lon": -0.6394869999999999,
      "cp": "17100",
      "ville": "Saintes",
      "prix": {},
      "maj_gouv": {}
    },
    {
      "id": "17250003",
      "lat": 45.814,
      "lon": -0.774,
      "cp": "17250",
      "ville": "Saint-Porchaire",
      "prix": {
        "Gazole": 0.002095,
        "E10": 0.001999,
        "SP98": 0.002099
      },
      "maj_gouv": {
        "Gazole": "2026-05-13 09:45:52",
        "E10": "2026-05-13 09:45:52",
        "SP98": "2026-05-13 09:45:52"
      }
    },
    {
      "id": "17400008",
      "lat": 45.948327878707,
      "lon": -0.49988837365251,
      "cp": "17400",
      "ville": "SAINT JEAN D'ANGELY",
      "prix": {
        "Gazole": 0.002059,
        "E10": 0.002085,
        "SP98": 0.002159
      },
      "maj_gouv": {
        "Gazole": "2026-05-11 09:03:43",
        "E10": "2026-05-13 09:22:48",
        "SP98": "2026-05-13 09:22:49"
      }
    },
    {
      "id": "17600001",
      "lat": 45.679,
      "lon": -0.915,
      "cp": "17600",
      "ville": "Saujon",
      "prix": {
        "Gazole": 0.002099,
        "E10": 0.002019,
        "SP98": 0.002089
      },
      "maj_gouv": {
        "Gazole": "2026-05-12 09:13:17",
        "E10": "2026-05-13 07:38:02",
        "SP98": "2026-05-12 09:13:17"
      }
    },
    {
      "id": "17100001",
      "lat": 45.719,
      "lon": -0.636,
      "cp": "17100",
      "ville": "LES GONDS",
      "prix": {
        "Gazole": 0.002176,
        "SP98": 0.00199
      },
      "maj_gouv": {
        "Gazole": "2026-05-13 05:53:37",
        "SP98": "2026-05-13 11:13:56"
      }
    },
    {
      "id": "17310004",
      "lat": 45.943,
      "lon": -1.321,
      "cp": "17310",
      "ville": "SAINT-PIERRE-D'OLéRON",
      "prix": {
        "Gazole": 0.00204,
        "SP95": 0.002049,
        "E85": 0.000705,
        "SP98": 0.00209
      },
      "maj_gouv": {
        "Gazole": "2026-05-13 09:23:50",
        "SP95": "2026-05-12 09:17:28",
        "E85": "2026-05-12 09:17:28",
        "SP98": "2026-05-13 09:23:50"
      }
    }
  ]
}