{
  "departement": "73",
  "date": "2026-05-15",
  "stations": [
    {
      "id": "73600010",
      "lat": 45.487973282321,
      "lon": 6.529250635582001,
      "cp": "73600",
      "ville": "MOUTIERS",
      "prix": {
        "Gazole": 0.002199,
        "E85": 0.000859,
        "E10": 0.002079,
        "SP98": 0.002139
      },
      "maj_gouv": {
        "Gazole": "2026-05-05 00:01:00",
        "E85": "2026-04-24 10:26:03",
        "E10": "2026-05-05 00:01:00",
        "SP98": "2026-05-05 00:01:00"
      }
    },
    {
      "id": "73420001",
      "lat": 45.657,
      "lon": 5.911,
      "cp": "73420",
      "ville": "Drumettaz-Clarafond",
      "prix": {
        "Gazole": 0.002085,
        "E85": 0.000769,
        "GPLc": 0.001055,
        "E10": 0.002045,
        "SP98": 0.002127
      },
      "maj_gouv": {
        "Gazole": "2026-05-11 08:00:00",
        "E85": "2026-04-24 08:00:00",
        "GPLc": "2026-04-14 08:00:00",
        "E10": "2026-05-13 08:00:00",
        "SP98": "2026-05-13 08:00:00"
      }
    },
    {
      "id": "73000012",
      "lat": 45.609640912985,
      "lon": 5.886971258695,
      "cp": "73000",
      "ville": "CHAMBERY",
      "prix": {
        "Gazole": 0.00209,
        "GPLc": 0.001059,
        "E10": 0.00199,
        "SP98": 0.00199
      },
      "maj_gouv": {
        "Gazole": "2026-05-15 00:01:00",
        "GPLc": "2026-05-15 00:01:00",
        "E10": "2026-05-15 00:01:00",
        "SP98": "2026-05-15 00:01:00"
      }
    },
    {
      "id": "73300002",
      "lat": 45.269,
      "lon": 6.367,
      "cp": "73300",
      "ville": "Saint-Jean-de-Maurienne",
      "prix": {
        "Gazole": 0.002189,
        "E10": 0.002079,
        "SP98": 0.002169
      },
      "maj_gouv": {
        "Gazole": "2026-05-14 07:00:00",
        "E10": "2026-05-14 07:00:00",
        "SP98": "2026-05-14 07:00:00"
      }
    },
    {
      "id": "73310002",
      "lat": 45.846422494013005,
      "lon": 5.837168340167101,
      "cp": "73310",
      "ville": "RUFFIEUX",
      "prix": {
        "Gazole": 0.002179,
        "E10": 0.002059,
        "SP98": 0.002129
      },
      "maj_gouv": {
        "Gazole": "2026-05-08 09:17:54",
        "E10": "2026-05-11 08:23:46",
        "SP98": "2026-05-08 09:17:54"
      }
    },
    {
      "id": "73390007",
      "lat": 45.548889302926,
      "lon": 6.157508723526,
      "cp": "73390",
      "ville": "Châteauneuf",
      "prix": {
        "Gazole": 0.0024590000000000002,
        "GPLc": 0.001149,
        "E10": 0.002359,
        "SP98": 0.0024289999999999997
      },
      "maj_gouv": {
        "Gazole": "2026-05-15 05:00:00",
        "GPLc": "2026-05-15 05:00:00",
        "E10": "2026-05-15 05:00:00",
        "SP98": "2026-05-15 05:00:00"
      }
    },
    {
      "id": "73490003",
      "lat": 45.57,
      "lon": 5.962,
      "cp": "73490",
      "ville": "LA RAVOIRE",
      "prix": {
        "Gazole": 0.00209,
        "E85": 0.000829,
        "GPLc": 0.001065,
        "E10": 0.00199,
        "SP98": 0.00199
      },
      "maj_gouv": {
        "Gazole": "2026-05-15 00:01:00",
        "E85": "2026-05-15 00:01:00",
        "GPLc": "2026-05-15 00:01:00",
        "E10": "2026-05-15 00:01:00",
        "SP98": "2026-05-15 00:01:00"
      }
    },
    {
      "id": "73140008",
      "lat": 45.217721060879,
      "lon": 6.461941830136801,
      "cp": "73140",
      "ville": "SAINT MARTIN D'ARC",
      "prix": {
        "Gazole": 0.0024790000000000003,
        "GPLc": 0.001199,
        "E10": 0.002379,
        "SP98": 0.0024790000000000003
      },
      "maj_gouv": {
        "Gazole": "2026-05-15 00:01:00",
        "GPLc": "2026-05-15 00:01:00",
        "E10": "2026-05-15 00:01:00",
        "SP98": "2026-05-15 00:01:00"
      }
    },
    {
      "id": "73024001",
      "lat": 45.589,
      "lon": 5.89,
      "cp": "73000",
      "ville": "CHAMBERY",
      "prix": {
        "Gazole": 0.0022570000000000003,
        "SP95": 0.002182
      },
      "maj_gouv": {
        "Gazole": "2026-05-06 10:12:40",
        "SP95": "2026-04-30 09:38:36"
      }
    },
    {
      "id": "73140003",
      "lat": 45.22,
      "lon": 6.459,
      "cp": "73140",
      "ville": "SAINT-MICHEL-DE-MAURIENNE",
      "prix": {
        "Gazole": 0.00209,
        "SP95": 0.00199,
        "SP98": 0.00199
      },
      "maj_gouv": {
        "Gazole": "2026-05-14 08:00:00",
        "SP95": "2026-04-08 08:49:27",
        "SP98": "2026-04-08 08:49:27"
      }
    },
    {
      "id": "73600007",
      "lat": 45.475,
      "lon": 6.528,
      "cp": "73600",
      "ville": "Salins-les-Thermes",
      "prix": {
        "Gazole": 0.002229,
        "E10": 0.002149,
        "SP98": 0.002249
      },
      "maj_gouv": {
        "Gazole": "2026-05-14 22:00:00",
        "E10": "2026-05-14 22:00:00",
        "SP98": "2026-05-14 22:00:00"
      }
    },
    {
      "id": "73700005",
      "lat": 45.624,
      "lon": 6.78,
      "cp": "73700",
      "ville": "BOURG-SAINT-MAURICE",
      "prix": {
        "Gazole": 0.002149,
        "E10": 0.002069,
        "SP98": 0.002139
      },
      "maj_gouv": {
        "Gazole": "2026-05-12 08:29:26",
        "E10": "2026-05-11 08:52:15",
        "SP98": "2026-05-11 08:52:15"
      }
    },
    {
      "id": "73160003",
      "lat": 45.552,
      "lon": 6.648,
      "cp": "73210",
      "ville": "Aime",
      "prix": {
        "Gazole": 0.002149,
        "E10": 0.002069,
        "SP98": 0.002139
      },
      "maj_gouv": {
        "Gazole": "2026-05-15 01:15:00",
        "E10": "2026-05-15 01:15:00",
        "SP98": "2026-05-15 01:15:00"
      }
    },
    {
      "id": "73660001",
      "lat": 45.4,
      "lon": 6.276,
      "cp": "73660",
      "ville": "LES-CHAVANNES-EN-MAURIENNE",
      "prix": {},
      "maj_gouv": {}
    },
    {
      "id": "73130002",
      "lat": 45.349,
      "lon": 6.302,
      "cp": "73130",
      "ville": "SAINTE MARIE DE CUINES",
      "prix": {
        "Gazole": 0.002059,
        "SP95": 0.002069,
        "E85": 0.000819,
        "E10": 0.0019790000000000003
      },
      "maj_gouv": {
        "Gazole": "2026-05-12 09:09:25",
        "SP95": "2026-05-04 09:18:29",
        "E85": "2026-04-17 09:08:18",
        "E10": "2026-05-12 09:09:25"
      }
    },
    {
      "id": "73730008",
      "lat": 45.474768729990004,
      "lon": 6.528103179596201,
      "cp": "73730",
      "ville": "CEVINS",
      "prix": {
        "Gazole": 0.00229,
        "E10": 0.00219,
        "SP98": 0.00229
      },
      "maj_gouv": {
        "Gazole": "2026-05-15 06:00:00",
        "E10": "2026-05-15 06:00:00",
        "SP98": "2026-05-15 06:00:00"
      }
    },
    {
      "id": "73182003",
      "lat": 45.67436,
      "lon": 5.929938000000001,
      "cp": "73182",
      "ville": "MOUXY",
      "prix": {
        "Gazole": 0.0024289999999999997,
        "GPLc": 0.001149,
        "E10": 0.002359,
        "SP98": 0.0024289999999999997
      },
      "maj_gouv": {
        "Gazole": "2026-05-14 08:30:00",
        "GPLc": "2026-05-14 08:30:00",
        "E10": "2026-05-14 08:30:00",
        "SP98": "2026-05-14 08:30:00"
      }
    },
    {
      "id": "73290008",
      "lat": 45.592636,
      "lon": 5.88386,
      "cp": "73290",
      "ville": "La Motte-Servolex",
      "prix": {
        "Gazole": 0.002229,
        "E85": 0.0008990000000000001,
        "E10": 0.002149,
        "SP98": 0.002249
      },
      "maj_gouv": {
        "Gazole": "2026-05-14 21:00:00",
        "E85": "2026-05-14 21:00:00",
        "E10": "2026-05-14 21:00:00",
        "SP98": "2026-05-14 21:00:00"
      }
    },
    {
      "id": "73450001",
      "lat": 45.166,
      "lon": 6.432,
      "cp": "73450",
      "ville": "VALLOIRE",
      "prix": {
        "Gazole": 0.00225,
        "SP95": 0.00199,
        "SP98": 0.00199
      },
      "maj_gouv": {
        "Gazole": "2026-04-16 09:16:43",
        "SP95": "2026-04-16 09:16:43",
        "SP98": "2026-04-16 09:16:43"
      }
    },
    {
      "id": "73150003",
      "lat": 45.450357003981,
      "lon": 6.9771820312743005,
      "cp": "73150",
      "ville": "Val-d'Isère",
      "prix": {
        "Gazole": 0.002299,
        "SP95": 0.002199,
        "E85": 0.00099,
        "SP98": 0.002399
      },
      "maj_gouv": {
        "Gazole": "2026-05-13 16:55:48",
        "SP95": "2026-05-13 16:55:48",
        "E85": "2025-11-14 11:11:40",
        "SP98": "2026-05-13 16:55:48"
      }
    },
    {
      "id": "73420004",
      "lat": 45.63899019721801,
      "lon": 5.8915436274,
      "cp": "73420",
      "ville": "Voglans",
      "prix": {
        "Gazole": 0.002085,
        "E10": 0.002045
      },
      "maj_gouv": {
        "Gazole": "2026-05-11 08:00:00",
        "E10": "2026-05-13 08:00:00"
      }
    },
    {
      "id": "73330002",
      "lat": 45.52956,
      "lon": 5.68477,
      "cp": "73330",
      "ville": "Le Pont-de-Beauvoisin",
      "prix": {
        "Gazole": 0.0021190000000000002,
        "E10": 0.002059,
        "SP98": 0.002139
      },
      "maj_gouv": {
        "Gazole": "2026-05-13 08:19:07",
        "E10": "2026-05-12 08:34:15",
        "SP98": "2026-05-12 08:34:16"
      }
    },
    {
      "id": "73320002",
      "lat": 45.46061,
      "lon": 6.90144,
      "cp": "73320",
      "ville": "Tignes",
      "prix": {
        "Gazole": 0.00237,
        "E10": 0.00219,
        "SP98": 0.00229
      },
      "maj_gouv": {
        "Gazole": "2026-04-22 00:01:00",
        "E10": "2026-05-07 00:01:00",
        "SP98": "2026-05-07 00:01:00"
      }
    },
    {
      "id": "73200008",
      "lat": 45.655,
      "lon": 6.364,
      "cp": "73200",
      "ville": "Albertville",
      "prix": {
        "Gazole": 0.002139,
        "E85": 0.000819,
        "GPLc": 0.0010249999999999999,
        "E10": 0.001999,
        "SP98": 0.002115
      },
      "maj_gouv": {
        "Gazole": "2026-05-12 07:54:58",
        "E85": "2026-05-12 07:54:59",
        "GPLc": "2026-05-12 07:54:59",
        "E10": "2026-05-12 07:54:59",
        "SP98": "2026-05-12 07:54:59"
      }
    },
    {
      "id": "73200005",
      "lat": 45.661,
      "lon": 6.382,
      "cp": "73200",
      "ville": "ALBERTVILLE",
      "prix": {
        "Gazole": 0.002139,
        "E10": 0.001999,
        "SP98": 0.002115
      },
      "maj_gouv": {
        "Gazole": "2026-05-12 08:46:58",
        "E10": "2026-05-12 08:46:58",
        "SP98": "2026-05-12 08:46:59"
      }
    },
    {
      "id": "73470001",
      "lat": 45.594,
      "lon": 5.777,
      "cp": "73470",
      "ville": "Novalaise",
      "prix": {
        "Gazole": 0.0022890000000000002,
        "SP95": 0.002169,
        "SP98": 0.002219
      },
      "maj_gouv": {
        "Gazole": "2026-05-09 07:33:33",
        "SP95": "2026-05-09 07:33:33",
        "SP98": "2026-05-09 07:33:33"
      }
    },
    {
      "id": "73460002",
      "lat": 45.646,
      "lon": 6.33,
      "cp": "73460",
      "ville": "TOURNON",
      "prix": {
        "Gazole": 0.0021379999999999997,
        "SP95": 0.002128,
        "E85": 0.0008179999999999999,
        "E10": 0.002038
      },
      "maj_gouv": {
        "Gazole": "2026-05-12 09:16:02",
        "SP95": "2026-05-05 08:24:14",
        "E85": "2026-04-25 08:43:23",
        "E10": "2026-05-13 09:10:05"
      }
    },
    {
      "id": "73120001",
      "lat": 45.41515,
      "lon": 6.63731,
      "cp": "73120",
      "ville": "Courchevel",
      "prix": {
        "Gazole": 0.00225,
        "SP95": 0.00199,
        "SP98": 0.00199
      },
      "maj_gouv": {
        "Gazole": "2026-04-08 08:22:23",
        "SP95": "2026-03-10 10:53:32",
        "SP98": "2026-03-10 10:53:33"
      }
    },
    {
      "id": "73170001",
      "lat": 45.705,
      "lon": 5.769,
      "cp": "73170",
      "ville": "Yenne",
      "prix": {
        "Gazole": 0.002113,
        "SP95": 0.002101,
        "E85": 0.000893
      },
      "maj_gouv": {
        "Gazole": "2026-05-12 09:03:53",
        "SP95": "2026-05-12 09:03:53",
        "E85": "2026-05-07 16:17:10"
      }
    },
    {
      "id": "73500006",
      "lat": 45.197,
      "lon": 6.624,
      "cp": "73500",
      "ville": "Freney",
      "prix": {
        "Gazole": 0.00233,
        "SP98": 0.0024249999999999996
      },
      "maj_gouv": {
        "Gazole": "2026-05-14 09:30:00",
        "SP98": "2026-05-14 09:30:00"
      }
    },
    {
      "id": "73200003",
      "lat": 45.48660814510401,
      "lon": 6.5253310822173,
      "cp": "73600",
      "ville": "MOûTIERS",
      "prix": {
        "Gazole": 0.002139,
        "SP95": 0.002109,
        "E85": 0.000859,
        "E10": 0.002029,
        "SP98": 0.002199
      },
      "maj_gouv": {
        "Gazole": "2026-05-11 13:33:32",
        "SP95": "2026-05-07 10:20:43",
        "E85": "2026-05-04 10:38:42",
        "E10": "2026-05-11 13:33:33",
        "SP98": "2026-05-04 10:38:42"
      }
    },
    {
      "id": "73800001",
      "lat": 45.526,
      "lon": 5.975,
      "cp": "73800",
      "ville": "Myans",
      "prix": {
        "Gazole": 0.002469,
        "GPLc": 0.001369,
        "E10": 0.002369,
        "SP98": 0.002539
      },
      "maj_gouv": {
        "Gazole": "2026-05-15 06:18:42",
        "GPLc": "2026-05-15 06:18:42",
        "E10": "2026-05-15 06:18:42",
        "SP98": "2026-05-15 06:18:42"
      }
    },
    {
      "id": "73190002",
      "lat": 45.525,
      "lon": 5.977,
      "cp": "73190",
      "ville": "Saint-Jeoire-Prieuré",
      "prix": {
        "Gazole": 0.002489,
        "GPLc": 0.001279,
        "E10": 0.0023889999999999996,
        "SP98": 0.002499
      },
      "maj_gouv": {
        "Gazole": "2026-05-14 22:09:04",
        "GPLc": "2026-05-14 22:09:04",
        "E10": "2026-05-14 22:09:04",
        "SP98": "2026-05-14 22:09:04"
      }
    },
    {
      "id": "73870003",
      "lat": 45.245935454489,
      "lon": 6.4243876383603,
      "cp": "73870",
      "ville": "Saint-Julien-Mont-Denis",
      "prix": {
        "Gazole": 0.002399,
        "GPLc": 0.0011610000000000001,
        "E10": 0.0022389999999999997,
        "SP98": 0.002339
      },
      "maj_gouv": {
        "Gazole": "2026-05-13 14:00:00",
        "GPLc": "2026-05-13 14:00:00",
        "E10": "2026-05-13 14:00:00",
        "SP98": "2026-05-13 14:00:00"
      }
    },
    {
      "id": "73800003",
      "lat": 45.504,
      "lon": 6.038,
      "cp": "73800",
      "ville": "FRANCIN",
      "prix": {
        "Gazole": 0.002249,
        "SP95": 0.0019890000000000003
      },
      "maj_gouv": {
        "Gazole": "2026-05-11 10:46:32",
        "SP95": "2026-05-11 10:46:32"
      }
    },
    {
      "id": "73600002",
      "lat": 45.466096289751,
      "lon": 6.526213528983299,
      "cp": "73600",
      "ville": "SALINS FONTAINE",
      "prix": {
        "Gazole": 0.002139,
        "E85": 0.000819,
        "E10": 0.002045,
        "SP98": 0.002129
      },
      "maj_gouv": {
        "Gazole": "2026-05-12 09:32:03",
        "E85": "2026-04-17 08:53:44",
        "E10": "2026-05-11 12:24:16",
        "SP98": "2026-04-29 09:42:49"
      }
    },
    {
      "id": "73610002",
      "lat": 45.544,
      "lon": 5.763,
      "cp": "73610",
      "ville": "Saint-Alban-de-Montbel",
      "prix": {
        "Gazole": 0.0022389999999999997,
        "E10": 0.002139,
        "SP98": 0.0022029999999999997
      },
      "maj_gouv": {
        "Gazole": "2026-05-13 14:43:24",
        "E10": "2026-05-13 14:43:25",
        "SP98": "2026-05-13 14:43:25"
      }
    },
    {
      "id": "73500007",
      "lat": 45.2,
      "lon": 6.669,
      "cp": "73500",
      "ville": "MODANE",
      "prix": {
        "Gazole": 0.002199,
        "E85": 0.000819,
        "E10": 0.001999
      },
      "maj_gouv": {
        "Gazole": "2026-05-11 11:34:43",
        "E85": "2026-05-11 11:34:43",
        "E10": "2026-05-13 09:27:20"
      }
    },
    {
      "id": "73330001",
      "lat": 45.53,
      "lon": 5.69,
      "cp": "73330",
      "ville": "Le Pont-de-Beauvoisin",
      "prix": {
        "Gazole": 0.0021190000000000002,
        "E85": 0.0007790000000000001,
        "GPLc": 0.001099,
        "E10": 0.002059,
        "SP98": 0.002139
      },
      "maj_gouv": {
        "Gazole": "2026-05-13 07:21:33",
        "E85": "2026-05-06 06:57:35",
        "GPLc": "2026-04-14 07:24:26",
        "E10": "2026-05-12 07:01:43",
        "SP98": "2026-05-12 07:01:43"
      }
    },
    {
      "id": "73200002",
      "lat": 45.667,
      "lon": 6.394,
      "cp": "73200",
      "ville": "ALBERTVILLE",
      "prix": {
        "Gazole": 0.002249,
        "E10": 0.002045,
        "SP98": 0.002175
      },
      "maj_gouv": {
        "Gazole": "2026-05-07 08:49:50",
        "E10": "2026-05-07 08:49:50",
        "SP98": "2026-05-07 08:49:50"
      }
    },
    {
      "id": "73340001",
      "lat": 45.707077759824,
      "lon": 6.105881521871201,
      "cp": "73340",
      "ville": "Lescheraines",
      "prix": {
        "Gazole": 0.00234,
        "E10": 0.002088
      },
      "maj_gouv": {
        "Gazole": "2026-04-24 13:02:09",
        "E10": "2026-04-21 14:13:48"
      }
    },
    {
      "id": "73220002",
      "lat": 45.543,
      "lon": 6.303,
      "cp": "73220",
      "ville": "Aiguebelle",
      "prix": {
        "Gazole": 0.002055,
        "SP95": 0.002059,
        "E85": 0.0008489999999999999
      },
      "maj_gouv": {
        "Gazole": "2026-05-13 06:00:48",
        "SP95": "2026-05-12 08:15:57",
        "E85": "2026-03-23 10:08:33"
      }
    },
    {
      "id": "73800002",
      "lat": 45.504,
      "lon": 6.039,
      "cp": "73800",
      "ville": "PORTE DE SAVOIE",
      "prix": {
        "Gazole": 0.002069,
        "E10": 0.002069,
        "SP98": 0.002169
      },
      "maj_gouv": {
        "Gazole": "2026-05-13 10:09:16",
        "E10": "2026-05-13 10:09:16",
        "SP98": "2026-05-13 10:09:17"
      }
    },
    {
      "id": "73000007",
      "lat": 45.58,
      "lon": 5.909,
      "cp": "73000",
      "ville": "Chambéry",
      "prix": {
        "Gazole": 0.002133,
        "E10": 0.0020859999999999997,
        "SP98": 0.002166
      },
      "maj_gouv": {
        "Gazole": "2026-05-14 06:31:00",
        "E10": "2026-05-14 06:31:00",
        "SP98": "2026-05-14 06:31:00"
      }
    },
    {
      "id": "73000014",
      "lat": 45.5933597618,
      "lon": 5.896568816749999,
      "cp": "73000",
      "ville": "CHAMBERY",
      "prix": {
        "Gazole": 0.00209,
        "GPLc": 0.001059,
        "E10": 0.00199,
        "SP98": 0.00199
      },
      "maj_gouv": {
        "Gazole": "2026-05-15 00:01:00",
        "GPLc": "2026-05-15 00:01:00",
        "E10": "2026-05-15 00:01:00",
        "SP98": "2026-05-15 00:01:00"
      }
    },
    {
      "id": "73390008",
      "lat": 45.547,
      "lon": 6.156,
      "cp": "73390",
      "ville": "CHATEAUNEUF",
      "prix": {
        "Gazole": 0.0024590000000000002,
        "E10": 0.002359,
        "SP98": 0.0024289999999999997
      },
      "maj_gouv": {
        "Gazole": "2026-05-15 00:00:00",
        "E10": "2026-05-15 00:00:00",
        "SP98": "2026-05-15 00:00:00"
      }
    },
    {
      "id": "73200006",
      "lat": 45.67265,
      "lon": 6.39194,
      "cp": "73200",
      "ville": "ALBERTVILLE",
      "prix": {
        "E85": 0.000833
      },
      "maj_gouv": {
        "E85": "2026-05-15 00:01:00"
      }
    },
    {
      "id": "73400005",
      "lat": 45.741690578647,
      "lon": 6.423069616396799,
      "cp": "73400",
      "ville": "UGINE",
      "prix": {
        "Gazole": 0.002229,
        "E10": 0.002109,
        "SP98": 0.002169
      },
      "maj_gouv": {
        "Gazole": "2026-05-01 00:01:00",
        "E10": "2026-05-01 00:01:00",
        "SP98": "2026-05-01 00:01:00"
      }
    },
    {
      "id": "73000017",
      "lat": 45.59,
      "lon": 5.92,
      "cp": "73000",
      "ville": "Chambéry",
      "prix": {
        "Gazole": 0.002099,
        "E85": 0.000799,
        "E10": 0.002049
      },
      "maj_gouv": {
        "Gazole": "2026-05-11 11:24:09",
        "E85": "2026-04-14 08:08:37",
        "E10": "2026-05-06 08:08:22"
      }
    },
    {
      "id": "73260001",
      "lat": 45.503,
      "lon": 6.50161,
      "cp": "73260",
      "ville": "AIGUEBLANCHE",
      "prix": {
        "Gazole": 0.002179,
        "E10": 0.002099,
        "SP98": 0.002169
      },
      "maj_gouv": {
        "Gazole": "2026-05-11 10:41:27",
        "E10": "2026-05-11 10:41:27",
        "SP98": "2026-05-11 10:41:27"
      }
    },
    {
      "id": "73300001",
      "lat": 45.266,
      "lon": 6.367,
      "cp": "73300",
      "ville": "Saint-Jean-de-Maurienne",
      "prix": {
        "Gazole": 0.002169,
        "SP95": 0.002084,
        "SP98": 0.002148
      },
      "maj_gouv": {
        "Gazole": "2026-05-09 08:48:53",
        "SP95": "2026-05-09 08:48:53",
        "SP98": "2026-05-04 10:53:30"
      }
    },
    {
      "id": "73140001",
      "lat": 45.218,
      "lon": 6.472,
      "cp": "73140",
      "ville": "SAINT-MICHEL-DE-MAURIENNE",
      "prix": {
        "Gazole": 0.00219,
        "SP95": 0.002089,
        "SP98": 0.002179
      },
      "maj_gouv": {
        "Gazole": "2026-05-13 18:35:49",
        "SP95": "2026-05-13 18:35:49",
        "SP98": "2026-05-13 18:35:49"
      }
    },
    {
      "id": "73600006",
      "lat": 45.47668353119101,
      "lon": 6.527356862485499,
      "cp": "73600",
      "ville": "Salins-les-Thermes",
      "prix": {
        "Gazole": 0.00209,
        "E85": 0.000879,
        "E10": 0.00199,
        "SP98": 0.00199
      },
      "maj_gouv": {
        "Gazole": "2026-05-15 00:01:00",
        "E85": "2026-05-15 00:01:00",
        "E10": "2026-05-15 00:01:00",
        "SP98": "2026-05-15 00:01:00"
      }
    },
    {
      "id": "73300004",
      "lat": 45.2906,
      "lon": 6.35676,
      "cp": "73300",
      "ville": "HERMILLON",
      "prix": {
        "Gazole": 0.002059,
        "SP95": 0.002029,
        "E10": 0.0019790000000000003
      },
      "maj_gouv": {
        "Gazole": "2026-05-11 08:30:00",
        "SP95": "2026-05-11 08:30:00",
        "E10": "2026-05-11 08:30:00"
      }
    },
    {
      "id": "73420002",
      "lat": 45.6473617151,
      "lon": 5.8939178300199995,
      "cp": "73420",
      "ville": "VIVIERS-DU-LAC",
      "prix": {
        "Gazole": 0.002085,
        "E10": 0.002045,
        "SP98": 0.002127
      },
      "maj_gouv": {
        "Gazole": "2026-05-11 10:52:03",
        "E10": "2026-05-13 09:38:33",
        "SP98": "2026-05-13 09:38:33"
      }
    },
    {
      "id": "73160002",
      "lat": 45.5623,
      "lon": 5.89429,
      "cp": "73160",
      "ville": "Cognin",
      "prix": {
        "Gazole": 0.002099,
        "SP95": 0.002099,
        "SP98": 0.002149
      },
      "maj_gouv": {
        "Gazole": "2026-05-11 11:23:40",
        "SP95": "2026-04-30 09:36:02",
        "SP98": "2026-04-28 08:08:43"
      }
    },
    {
      "id": "73410001",
      "lat": 45.761,
      "lon": 5.933,
      "cp": "73410",
      "ville": "LA BIOLLE",
      "prix": {
        "Gazole": 0.002099,
        "SP95": 0.002099,
        "SP98": 0.002169
      },
      "maj_gouv": {
        "Gazole": "2026-05-11 12:22:27",
        "SP95": "2026-05-13 08:25:35",
        "SP98": "2026-05-13 08:25:35"
      }
    },
    {
      "id": "73300005",
      "lat": 45.24,
      "lon": 6.27,
      "cp": "73300",
      "ville": "LE CORBIER - VILLAREMBERT",
      "prix": {
        "SP95": 0.00217
      },
      "maj_gouv": {
        "SP95": "2026-04-02 11:12:45"
      }
    },
    {
      "id": "73110003",
      "lat": 45.44377,
      "lon": 6.09615,
      "cp": "73110",
      "ville": "Détrier",
      "prix": {
        "Gazole": 0.002269,
        "SP95": 0.002159,
        "E85": 0.000839,
        "E10": 0.0021190000000000002
      },
      "maj_gouv": {
        "Gazole": "2026-05-07 12:32:20",
        "SP95": "2026-05-09 07:41:39",
        "E85": "2026-04-30 11:24:16",
        "E10": "2026-05-09 07:41:39"
      }
    },
    {
      "id": "73270001",
      "lat": 45.728,
      "lon": 6.533,
      "cp": "73270",
      "ville": "Villard-sur-Doron",
      "prix": {
        "Gazole": 0.002139,
        "SP95": 0.002149,
        "SP98": 0.002199
      },
      "maj_gouv": {
        "Gazole": "2026-05-12 12:04:43",
        "SP95": "2026-05-12 12:04:43",
        "SP98": "2026-05-12 12:04:43"
      }
    },
    {
      "id": "73100001",
      "lat": 45.72,
      "lon": 5.922,
      "cp": "73100",
      "ville": "Grésy-sur-Aix",
      "prix": {
        "Gazole": 0.0021520000000000003,
        "E85": 0.00085,
        "E10": 0.0020659999999999997,
        "SP98": 0.0021920000000000004
      },
      "maj_gouv": {
        "Gazole": "2026-05-13 10:54:42",
        "E85": "2026-05-07 09:55:44",
        "E10": "2026-05-13 10:54:42",
        "SP98": "2026-05-13 10:54:42"
      }
    },
    {
      "id": "73420005",
      "lat": 45.67291,
      "lon": 5.92696,
      "cp": "73100",
      "ville": "Mouxy",
      "prix": {
        "Gazole": 0.00209,
        "E85": 0.000998,
        "GPLc": 0.001148,
        "E10": 0.00199
      },
      "maj_gouv": {
        "Gazole": "2026-05-15 00:01:00",
        "E85": "2026-05-15 00:01:00",
        "GPLc": "2026-05-15 00:01:00",
        "E10": "2026-05-15 00:01:00"
      }
    },
    {
      "id": "73400001",
      "lat": 45.757,
      "lon": 6.399,
      "cp": "73400",
      "ville": "UGINE",
      "prix": {
        "Gazole": 0.002088,
        "SP95": 0.001988,
        "SP98": 0.001988
      },
      "maj_gouv": {
        "Gazole": "2026-05-13 19:49:10",
        "SP95": "2026-05-13 19:49:10",
        "SP98": "2026-05-13 19:49:10"
      }
    },
    {
      "id": "73110002",
      "lat": 45.456,
      "lon": 6.112,
      "cp": "73110",
      "ville": "LA ROCHETTE",
      "prix": {
        "Gazole": 0.00222,
        "E10": 0.002055,
        "SP98": 0.0022429999999999998
      },
      "maj_gouv": {
        "Gazole": "2026-05-11 11:54:49",
        "E10": "2026-05-13 18:17:43",
        "SP98": "2026-04-01 09:51:16"
      }
    },
    {
      "id": "73290001",
      "lat": 45.60217,
      "lon": 5.87546,
      "cp": "73290",
      "ville": "LA MOTTE-SERVOLEX",
      "prix": {
        "Gazole": 0.002099,
        "E85": 0.0007289999999999999,
        "E10": 0.002029,
        "SP98": 0.002129
      },
      "maj_gouv": {
        "Gazole": "2026-05-12 08:27:00",
        "E85": "2026-04-29 11:25:19",
        "E10": "2026-04-29 11:25:19",
        "SP98": "2026-04-29 11:25:19"
      }
    },
    {
      "id": "73000009",
      "lat": 45.56727366449999,
      "lon": 5.9350464324,
      "cp": "73000",
      "ville": "CHAMBERY",
      "prix": {
        "Gazole": 0.002199,
        "E10": 0.002089,
        "SP98": 0.002159
      },
      "maj_gouv": {
        "Gazole": "2026-05-05 00:01:00",
        "E10": "2026-05-05 00:01:00",
        "SP98": "2026-05-05 00:01:00"
      }
    },
    {
      "id": "73540002",
      "lat": 45.64037,
      "lon": 6.43979,
      "cp": "73540",
      "ville": "La Bâthie",
      "prix": {
        "Gazole": 0.002139,
        "E10": 0.002069,
        "SP98": 0.002129
      },
      "maj_gouv": {
        "Gazole": "2026-05-12 11:36:33",
        "E10": "2026-05-06 08:23:10",
        "SP98": "2026-04-30 16:18:33"
      }
    },
    {
      "id": "73800005",
      "lat": 45.504,
      "lon": 6.069,
      "cp": "73800",
      "ville": "Montmélian",
      "prix": {
        "Gazole": 0.002099,
        "E10": 0.001999,
        "SP98": 0.002139
      },
      "maj_gouv": {
        "Gazole": "2026-05-11 16:12:16",
        "E10": "2026-05-11 16:12:16",
        "SP98": "2026-04-30 08:46:13"
      }
    },
    {
      "id": "73200001",
      "lat": 45.66783,
      "lon": 6.37303,
      "cp": "73200",
      "ville": "ALBERTVILLE",
      "prix": {
        "Gazole": 0.0023090000000000003,
        "SP95": 0.002129,
        "SP98": 0.0022
      },
      "maj_gouv": {
        "Gazole": "2026-05-04 10:53:38",
        "SP95": "2026-05-04 10:53:39",
        "SP98": "2026-05-04 10:53:39"
      }
    },
    {
      "id": "73500005",
      "lat": 45.190830674671,
      "lon": 6.6422706349045,
      "cp": "73500",
      "ville": "MODANE",
      "prix": {
        "Gazole": 0.002199,
        "SP95": 0.002089,
        "E10": 0.001999
      },
      "maj_gouv": {
        "Gazole": "2026-05-05 10:33:17",
        "SP95": "2026-05-05 10:33:17",
        "E10": "2026-05-12 11:15:40"
      }
    },
    {
      "id": "73240001",
      "lat": 45.595,
      "lon": 5.636,
      "cp": "73240",
      "ville": "Saint-Genix-sur-Guiers",
      "prix": {
        "Gazole": 0.002299,
        "SP95": 0.002099,
        "E85": 0.000819,
        "SP98": 0.002149
      },
      "maj_gouv": {
        "Gazole": "2026-04-24 17:36:16",
        "SP95": "2026-03-26 14:56:11",
        "E85": "2026-04-18 09:02:59",
        "SP98": "2026-03-26 14:56:12"
      }
    },
    {
      "id": "73230001",
      "lat": 45.574,
      "lon": 5.953,
      "cp": "73230",
      "ville": "SAINT-ALBAN-LEYSSE",
      "prix": {
        "Gazole": 0.002199,
        "SP95": 0.002109,
        "GPLc": 0.001095,
        "SP98": 0.002159
      },
      "maj_gouv": {
        "Gazole": "2026-05-05 00:01:00",
        "SP95": "2026-05-05 00:01:00",
        "GPLc": "2026-05-07 00:01:00",
        "SP98": "2026-05-05 00:01:00"
      }
    },
    {
      "id": "73000013",
      "lat": 45.56332,
      "lon": 5.90207,
      "cp": "73000",
      "ville": "CHAMBERY",
      "prix": {
        "Gazole": 0.00209,
        "E85": 0.000855,
        "E10": 0.00199,
        "SP98": 0.00199
      },
      "maj_gouv": {
        "Gazole": "2026-05-15 00:01:00",
        "E85": "2026-05-15 00:01:00",
        "E10": "2026-05-15 00:01:00",
        "SP98": "2026-05-15 00:01:00"
      }
    },
    {
      "id": "73000001",
      "lat": 45.576,
      "lon": 5.944,
      "cp": "73000",
      "ville": "BASSENS",
      "prix": {},
      "maj_gouv": {}
    },
    {
      "id": "73000002",
      "lat": 45.5948253473,
      "lon": 5.8980267262199995,
      "cp": "73000",
      "ville": "CHAMBéRY",
      "prix": {
        "Gazole": 0.002105,
        "E85": 0.000857,
        "E10": 0.00204,
        "SP98": 0.0022
      },
      "maj_gouv": {
        "Gazole": "2026-05-14 22:43:00",
        "E85": "2026-05-14 22:43:00",
        "E10": "2026-05-14 22:43:00",
        "SP98": "2026-05-14 22:43:00"
      }
    },
    {
      "id": "73250001",
      "lat": 45.55458,
      "lon": 6.16274,
      "cp": "73250",
      "ville": "Saint-Pierre-d'Albigny",
      "prix": {
        "Gazole": 0.002089,
        "SP95": 0.002089,
        "E10": 0.002039,
        "SP98": 0.002149
      },
      "maj_gouv": {
        "Gazole": "2026-05-11 08:46:20",
        "SP95": "2026-05-13 08:07:55",
        "E10": "2026-05-13 08:07:55",
        "SP98": "2026-05-13 08:07:55"
      }
    },
    {
      "id": "73340002",
      "lat": 45.621,
      "lon": 6.081,
      "cp": "73340",
      "ville": "AILLON LE JEUNE",
      "prix": {
        "Gazole": 0.0022879999999999997,
        "SP95": 0.002006,
        "SP98": 0.002104
      },
      "maj_gouv": {
        "Gazole": "2026-04-28 08:27:00",
        "SP95": "2026-04-28 08:27:00",
        "SP98": "2026-04-28 08:27:00"
      }
    },
    {
      "id": "73130004",
      "lat": 45.342152999999996,
      "lon": 6.2986640000000005,
      "cp": "73130",
      "ville": "Sainte-Marie-de-Cuines",
      "prix": {
        "Gazole": 0.00209,
        "SP95": 0.00199
      },
      "maj_gouv": {
        "Gazole": "2026-05-14 08:01:00",
        "SP95": "2026-05-11 14:31:14"
      }
    },
    {
      "id": "73800006",
      "lat": 45.444248152171994,
      "lon": 6.033442616669399,
      "cp": "73800",
      "ville": "LAISSAUD",
      "prix": {
        "Gazole": 0.00209,
        "E85": 0.000886,
        "E10": 0.00199,
        "SP98": 0.00199
      },
      "maj_gouv": {
        "Gazole": "2026-05-14 00:53:53",
        "E85": "2026-04-21 06:55:04",
        "E10": "2026-04-08 12:05:13",
        "SP98": "2026-05-12 16:27:37"
      }
    },
    {
      "id": "73460003",
      "lat": 45.633,
      "lon": 6.312,
      "cp": "73460",
      "ville": "FRONTENEX",
      "prix": {
        "Gazole": 0.002159,
        "E10": 0.002039,
        "SP98": 0.002159
      },
      "maj_gouv": {
        "Gazole": "2026-05-07 07:39:35",
        "E10": "2026-05-05 11:39:23",
        "SP98": "2026-05-07 07:39:35"
      }
    },
    {
      "id": "73100008",
      "lat": 45.26570742,
      "lon": 6.812138149999999,
      "cp": "73500",
      "ville": "VAL CENIS",
      "prix": {
        "Gazole": 0.002229,
        "SP95": 0.002099,
        "E10": 0.002049
      },
      "maj_gouv": {
        "Gazole": "2026-04-30 09:40:38",
        "SP95": "2026-04-30 09:40:39",
        "E10": "2026-04-30 09:40:39"
      }
    },
    {
      "id": "73400003",
      "lat": 45.747107230000005,
      "lon": 6.418380409999999,
      "cp": "73400",
      "ville": "UGINE",
      "prix": {
        "Gazole": 0.002199,
        "E10": 0.002049,
        "SP98": 0.002149
      },
      "maj_gouv": {
        "Gazole": "2026-05-11 10:44:07",
        "E10": "2026-05-11 10:44:07",
        "SP98": "2026-04-22 08:43:16"
      }
    },
    {
      "id": "73100005",
      "lat": 45.697,
      "lon": 5.908,
      "cp": "73100",
      "ville": "Aix-les-Bains",
      "prix": {
        "Gazole": 0.002094,
        "E10": 0.002054,
        "SP98": 0.002134
      },
      "maj_gouv": {
        "Gazole": "2026-05-13 16:50:00",
        "E10": "2026-05-13 16:50:00",
        "SP98": "2026-05-13 16:50:00"
      }
    },
    {
      "id": "73490002",
      "lat": 45.563,
      "lon": 5.966,
      "cp": "73490",
      "ville": "LA RAVOIRE",
      "prix": {
        "Gazole": 0.002089,
        "SP95": 0.002099,
        "E10": 0.002059,
        "SP98": 0.002129
      },
      "maj_gouv": {
        "Gazole": "2026-05-13 08:53:19",
        "SP95": "2026-05-13 08:53:19",
        "E10": "2026-05-13 08:53:19",
        "SP98": "2026-05-13 08:53:19"
      }
    },
    {
      "id": "73630004",
      "lat": 45.688834217287,
      "lon": 6.1345421845170005,
      "cp": "73630",
      "ville": "LE CHATELARD",
      "prix": {
        "Gazole": 0.002089,
        "SP95": 0.002079
      },
      "maj_gouv": {
        "Gazole": "2026-05-10 09:55:29",
        "SP95": "2026-05-10 09:55:29"
      }
    },
    {
      "id": "73120003",
      "lat": 45.413565895223,
      "lon": 6.640016624747,
      "cp": "73120",
      "ville": "COURCHEVEL",
      "prix": {
        "Gazole": 0.0023,
        "E10": 0.0021000000000000003,
        "SP98": 0.0022
      },
      "maj_gouv": {
        "Gazole": "2026-04-22 09:13:33",
        "E10": "2026-04-02 09:21:02",
        "SP98": "2026-04-02 09:21:02"
      }
    },
    {
      "id": "73700001",
      "lat": 45.623,
      "lon": 6.78,
      "cp": "73700",
      "ville": "Bourg-Saint-Maurice",
      "prix": {
        "Gazole": 0.002149,
        "E85": 0.000869,
        "GPLc": 0.0010789999999999999,
        "E10": 0.002069,
        "SP98": 0.002139
      },
      "maj_gouv": {
        "Gazole": "2026-05-12 08:32:14",
        "E85": "2026-05-12 08:32:14",
        "GPLc": "2026-04-15 09:34:39",
        "E10": "2026-05-11 08:56:47",
        "SP98": "2026-05-11 08:56:47"
      }
    },
    {
      "id": "38380004",
      "lat": 45.422,
      "lon": 5.862,
      "cp": "73670",
      "ville": "ST PIERRE D'ENTREMONT",
      "prix": {
        "Gazole": 0.002235,
        "SP95": 0.002092,
        "SP98": 0.002173
      },
      "maj_gouv": {
        "Gazole": "2026-05-13 09:53:03",
        "SP95": "2026-05-13 09:53:03",
        "SP98": "2026-05-13 09:53:03"
      }
    },
    {
      "id": "73202001",
      "lat": 45.661,
      "lon": 6.384,
      "cp": "73200",
      "ville": "Albertville",
      "prix": {
        "Gazole": 0.00209,
        "E85": 0.000879,
        "E10": 0.00199,
        "SP98": 0.00199
      },
      "maj_gouv": {
        "Gazole": "2026-05-14 00:01:00",
        "E85": "2026-04-17 18:53:06",
        "E10": "2026-05-13 08:20:28",
        "SP98": "2026-05-13 08:20:28"
      }
    },
    {
      "id": "73370001",
      "lat": 45.676,
      "lon": 5.852,
      "cp": "73370",
      "ville": "Le Bourget-du-Lac",
      "prix": {
        "Gazole": 0.0022029999999999997,
        "SP95": 0.002117,
        "SP98": 0.0021680000000000002
      },
      "maj_gouv": {
        "Gazole": "2026-05-07 18:49:47",
        "SP95": "2026-05-07 18:49:48",
        "SP98": "2026-05-07 18:49:48"
      }
    },
    {
      "id": "73100012",
      "lat": 45.694,
      "lon": 5.9,
      "cp": "73100",
      "ville": "Aix-les-Bains",
      "prix": {
        "Gazole": 0.00209,
        "E85": 0.000865,
        "E10": 0.00199
      },
      "maj_gouv": {
        "Gazole": "2026-05-15 00:01:00",
        "E85": "2026-05-15 00:01:00",
        "E10": "2026-05-15 00:01:00"
      }
    },
    {
      "id": "73480001",
      "lat": 45.286,
      "lon": 6.884,
      "cp": "73480",
      "ville": "VAL CENIS",
      "prix": {
        "Gazole": 0.0023,
        "SP95": 0.00228,
        "SP98": 0.00239
      },
      "maj_gouv": {
        "Gazole": "2026-05-13 15:03:18",
        "SP95": "2026-04-27 13:51:59",
        "SP98": "2026-04-27 13:51:59"
      }
    }
  ]
}