{
  "departement": "60",
  "date": "2026-06-16",
  "stations": [
    {
      "id": "60350003",
      "lat": 49.404,
      "lon": 3.008,
      "cp": "60350",
      "ville": "Cuise-la-Motte",
      "prix": {
        "Gazole": 0.0018839999999999998,
        "E10": 0.001888,
        "SP98": 0.00199
      },
      "maj_gouv": {
        "Gazole": "2026-06-16 00:01:00",
        "E10": "2026-06-16 00:01:00",
        "SP98": "2026-06-16 00:01:00"
      }
    },
    {
      "id": "60120004",
      "lat": 49.635,
      "lon": 2.286,
      "cp": "60120",
      "ville": "Breteuil",
      "prix": {
        "Gazole": 0.001954,
        "E10": 0.001946,
        "SP98": 0.00199
      },
      "maj_gouv": {
        "Gazole": "2026-06-16 07:16:18",
        "E10": "2026-06-16 07:16:19",
        "SP98": "2026-03-27 07:52:10"
      }
    },
    {
      "id": "60140003",
      "lat": 49.32593,
      "lon": 2.46409,
      "cp": "60140",
      "ville": "Liancourt",
      "prix": {
        "Gazole": 0.00199,
        "E10": 0.00196,
        "SP98": 0.0020499999999999997
      },
      "maj_gouv": {
        "Gazole": "2026-06-03 05:59:11",
        "E10": "2026-06-03 05:59:12",
        "SP98": "2026-06-03 05:59:12"
      }
    },
    {
      "id": "60650006",
      "lat": 49.417,
      "lon": 1.924,
      "cp": "60650",
      "ville": "ONS EN BRAY",
      "prix": {
        "Gazole": 0.002009,
        "SP95": 0.002028,
        "SP98": 0.002101
      },
      "maj_gouv": {
        "Gazole": "2026-06-05 14:06:07",
        "SP95": "2026-05-29 15:20:39",
        "SP98": "2026-05-29 15:20:40"
      }
    },
    {
      "id": "60560001",
      "lat": 49.131,
      "lon": 2.521,
      "cp": "60560",
      "ville": "ORRY-LA-VILLE",
      "prix": {
        "Gazole": 0.002039,
        "E10": 0.001999,
        "SP98": 0.002099
      },
      "maj_gouv": {
        "Gazole": "2026-06-12 15:00:05",
        "E10": "2026-05-30 11:30:00",
        "SP98": "2026-06-05 09:00:58"
      }
    },
    {
      "id": "60210002",
      "lat": 49.66,
      "lon": 1.941,
      "cp": "60210",
      "ville": "GRANDVILLIERS",
      "prix": {
        "Gazole": 0.001999,
        "SP95": 0.001993,
        "SP98": 0.002083
      },
      "maj_gouv": {
        "Gazole": "2026-06-06 14:43:37",
        "SP95": "2026-06-06 14:43:37",
        "SP98": "2026-06-06 14:43:37"
      }
    },
    {
      "id": "60510001",
      "lat": 49.419,
      "lon": 2.255,
      "cp": "60510",
      "ville": "Bresles",
      "prix": {
        "Gazole": 0.0019690000000000003,
        "SP95": 0.001999,
        "E85": 0.000809,
        "E10": 0.001925,
        "SP98": 0.002049
      },
      "maj_gouv": {
        "Gazole": "2026-06-15 07:46:07",
        "SP95": "2026-06-12 07:47:48",
        "E85": "2026-06-12 07:47:49",
        "E10": "2026-06-15 07:46:07",
        "SP98": "2026-06-12 07:47:49"
      }
    },
    {
      "id": "60370002",
      "lat": 49.352,
      "lon": 2.239,
      "cp": "60370",
      "ville": "HERMES",
      "prix": {
        "Gazole": 0.0019790000000000003,
        "SP95": 0.001999,
        "E10": 0.001935,
        "SP98": 0.002049
      },
      "maj_gouv": {
        "Gazole": "2026-06-12 10:48:25",
        "SP95": "2026-06-12 10:48:25",
        "E10": "2026-06-15 14:20:17",
        "SP98": "2026-06-12 10:48:26"
      }
    },
    {
      "id": "60700004",
      "lat": 49.306,
      "lon": 2.604,
      "cp": "60700",
      "ville": "Pont-Sainte-Maxence",
      "prix": {
        "Gazole": 0.001865,
        "E85": 0.000862
      },
      "maj_gouv": {
        "Gazole": "2026-06-16 00:01:00",
        "E85": "2026-06-16 00:01:00"
      }
    },
    {
      "id": "60250003",
      "lat": 49.321,
      "lon": 2.33,
      "cp": "60250",
      "ville": "ANGY",
      "prix": {
        "Gazole": 0.00199,
        "E85": 0.000809,
        "E10": 0.001964,
        "SP98": 0.002027
      },
      "maj_gouv": {
        "Gazole": "2026-06-15 12:58:09",
        "E85": "2026-06-13 07:53:06",
        "E10": "2026-06-15 12:58:09",
        "SP98": "2026-06-13 07:53:06"
      }
    },
    {
      "id": "60220002",
      "lat": 49.65,
      "lon": 1.722,
      "cp": "60220",
      "ville": "FORMERIE",
      "prix": {
        "Gazole": 0.0019790000000000003,
        "E10": 0.0019690000000000003,
        "SP98": 0.002039
      },
      "maj_gouv": {
        "Gazole": "2026-06-09 11:11:52",
        "E10": "2026-06-10 15:45:15",
        "SP98": "2026-06-10 15:45:15"
      }
    },
    {
      "id": "60000015",
      "lat": 49.433,
      "lon": 2.093,
      "cp": "60000",
      "ville": "Beauvais",
      "prix": {
        "Gazole": 0.002009,
        "E85": 0.000939,
        "GPLc": 0.0011690000000000001,
        "E10": 0.0019890000000000003,
        "SP98": 0.002159
      },
      "maj_gouv": {
        "Gazole": "2026-06-16 06:21:47",
        "E85": "2026-06-16 06:21:47",
        "GPLc": "2026-06-16 06:21:47",
        "E10": "2026-06-16 06:21:46",
        "SP98": "2026-06-16 06:21:47"
      }
    },
    {
      "id": "60590002",
      "lat": 49.356,
      "lon": 1.77,
      "cp": "60590",
      "ville": "Sérifontaine",
      "prix": {
        "Gazole": 0.002069,
        "SP95": 0.001999,
        "SP98": 0.002019
      },
      "maj_gouv": {
        "Gazole": "2026-06-10 10:07:06",
        "SP95": "2026-06-10 10:07:07",
        "SP98": "2026-06-10 10:07:07"
      }
    },
    {
      "id": "60310001",
      "lat": 49.59,
      "lon": 2.854,
      "cp": "60310",
      "ville": "Lassigny",
      "prix": {
        "Gazole": 0.0019890000000000003,
        "SP95": 0.0019950000000000002,
        "E10": 0.001949,
        "SP98": 0.002019
      },
      "maj_gouv": {
        "Gazole": "2026-06-12 08:54:41",
        "SP95": "2026-06-12 08:54:41",
        "E10": "2026-06-12 08:54:41",
        "SP98": "2026-06-12 08:54:41"
      }
    },
    {
      "id": "60260002",
      "lat": 49.15012446903,
      "lon": 2.4247054883606998,
      "cp": "60260",
      "ville": "Lamorlaye",
      "prix": {
        "Gazole": 0.001999,
        "E85": 0.000809,
        "E10": 0.001949,
        "SP98": 0.002047
      },
      "maj_gouv": {
        "Gazole": "2026-06-10 07:27:41",
        "E85": "2026-06-10 17:24:40",
        "E10": "2026-06-09 14:14:37",
        "SP98": "2026-06-08 11:18:10"
      }
    },
    {
      "id": "60730004",
      "lat": 49.294719957049,
      "lon": 2.1986864028575,
      "cp": "60730",
      "ville": "Sainte-Geneviève",
      "prix": {
        "Gazole": 0.001984
      },
      "maj_gouv": {
        "Gazole": "2026-06-15 21:04:42"
      }
    },
    {
      "id": "60200002",
      "lat": 49.41897,
      "lon": 2.81861,
      "cp": "60200",
      "ville": "Compiègne",
      "prix": {
        "Gazole": 0.0020299999999999997,
        "SP95": 0.0020099999999999996
      },
      "maj_gouv": {
        "Gazole": "2026-06-11 08:50:42",
        "SP95": "2026-06-11 08:50:43"
      }
    },
    {
      "id": "60400001",
      "lat": 49.57117,
      "lon": 2.97854,
      "cp": "60400",
      "ville": "NOYON",
      "prix": {
        "Gazole": 0.001949,
        "GPLc": 0.0010500000000000002,
        "E10": 0.001907,
        "SP98": 0.00199
      },
      "maj_gouv": {
        "Gazole": "2026-06-15 09:42:04",
        "GPLc": "2026-06-12 09:16:49",
        "E10": "2026-06-15 09:42:04",
        "SP98": "2026-06-12 09:16:50"
      }
    },
    {
      "id": "60800003",
      "lat": 49.22572305536,
      "lon": 2.8803566326031,
      "cp": "60800",
      "ville": "Crépy-en-Valois",
      "prix": {
        "Gazole": 0.0019890000000000003,
        "SP95": 0.0019690000000000003,
        "SP98": 0.002049
      },
      "maj_gouv": {
        "Gazole": "2026-06-11 09:27:55",
        "SP95": "2026-06-11 09:27:56",
        "SP98": "2026-06-11 09:27:56"
      }
    },
    {
      "id": "60290003",
      "lat": 49.322,
      "lon": 2.437,
      "cp": "60290",
      "ville": "CAUFFRY",
      "prix": {
        "Gazole": 0.001977,
        "GPLc": 0.0010329999999999998,
        "E10": 0.001924,
        "SP98": 0.002018
      },
      "maj_gouv": {
        "Gazole": "2026-06-13 16:06:04",
        "GPLc": "2026-04-08 06:39:17",
        "E10": "2026-06-15 08:46:58",
        "SP98": "2026-06-15 08:46:58"
      }
    },
    {
      "id": "60120006",
      "lat": 49.60849,
      "lon": 2.20488,
      "cp": "60120",
      "ville": "HARDIVILLERS",
      "prix": {
        "Gazole": 0.002013,
        "E85": 0.000998,
        "E10": 0.00199,
        "SP98": 0.00199
      },
      "maj_gouv": {
        "Gazole": "2026-06-16 00:01:00",
        "E85": "2026-06-16 00:01:00",
        "E10": "2026-06-16 00:01:00",
        "SP98": "2026-06-16 00:01:00"
      }
    },
    {
      "id": "60360001",
      "lat": 49.604,
      "lon": 2.085,
      "cp": "60360",
      "ville": "CRèVECOEUR-LE-GRAND",
      "prix": {
        "Gazole": 0.001999,
        "SP95": 0.0019950000000000002,
        "E10": 0.001963,
        "SP98": 0.002083
      },
      "maj_gouv": {
        "Gazole": "2026-06-06 12:33:52",
        "SP95": "2026-06-06 13:25:37",
        "E10": "2026-06-06 13:25:37",
        "SP98": "2026-06-06 13:25:37"
      }
    },
    {
      "id": "60380001",
      "lat": 49.548,
      "lon": 1.846,
      "cp": "60380",
      "ville": "SONGEONS",
      "prix": {
        "Gazole": 0.002023,
        "SP95": 0.002003,
        "SP98": 0.002058
      },
      "maj_gouv": {
        "Gazole": "2026-06-08 15:07:03",
        "SP95": "2026-06-08 15:07:03",
        "SP98": "2026-06-08 15:07:03"
      }
    },
    {
      "id": "60590003",
      "lat": 49.357355,
      "lon": 1.771191,
      "cp": "60590",
      "ville": "SERIFONTAINE",
      "prix": {
        "Gazole": 0.00225,
        "SP95": 0.00199
      },
      "maj_gouv": {
        "Gazole": "2026-05-20 09:23:52",
        "SP95": "2026-06-04 08:58:34"
      }
    },
    {
      "id": "60750003",
      "lat": 49.442233200000004,
      "lon": 2.8829544,
      "cp": "60750",
      "ville": "Choisy-au-Bac",
      "prix": {
        "Gazole": 0.001999,
        "E10": 0.0019690000000000003,
        "SP98": 0.002099
      },
      "maj_gouv": {
        "Gazole": "2026-06-06 09:48:55",
        "E10": "2026-06-06 09:48:56",
        "SP98": "2026-06-06 09:48:56"
      }
    },
    {
      "id": "60100007",
      "lat": 49.272,
      "lon": 2.486,
      "cp": "60100",
      "ville": "CREIL",
      "prix": {
        "Gazole": 0.001972,
        "GPLc": 0.000991,
        "E10": 0.001956,
        "SP98": 0.00199
      },
      "maj_gouv": {
        "Gazole": "2026-06-16 00:01:00",
        "GPLc": "2026-06-16 00:01:00",
        "E10": "2026-06-16 00:01:00",
        "SP98": "2026-06-16 00:01:00"
      }
    },
    {
      "id": "60500010",
      "lat": 49.191,
      "lon": 2.464,
      "cp": "60500",
      "ville": "Chantilly",
      "prix": {
        "Gazole": 0.001999,
        "E85": 0.000909,
        "E10": 0.0019690000000000003,
        "SP98": 0.002139
      },
      "maj_gouv": {
        "Gazole": "2026-06-15 10:39:23",
        "E85": "2026-06-15 10:39:23",
        "E10": "2026-06-15 10:39:23",
        "SP98": "2026-06-15 10:39:23"
      }
    },
    {
      "id": "60650004",
      "lat": 49.422,
      "lon": 1.978,
      "cp": "60650",
      "ville": "Saint-Paul",
      "prix": {
        "Gazole": 0.002139,
        "E85": 0.0008179999999999999,
        "E10": 0.001944,
        "SP98": 0.002048
      },
      "maj_gouv": {
        "Gazole": "2026-04-30 07:06:20",
        "E85": "2026-04-30 07:06:20",
        "E10": "2026-04-30 07:06:20",
        "SP98": "2026-04-30 07:06:21"
      }
    },
    {
      "id": "60290002",
      "lat": 49.323,
      "lon": 2.448,
      "cp": "60290",
      "ville": "CAUFFRY",
      "prix": {
        "Gazole": 0.001992,
        "SP95": 0.002005,
        "E85": 0.000773,
        "E10": 0.001954
      },
      "maj_gouv": {
        "Gazole": "2026-06-16 01:16:00",
        "SP95": "2026-06-16 01:16:00",
        "E85": "2026-06-16 01:16:00",
        "E10": "2026-06-16 01:16:00"
      }
    },
    {
      "id": "60530003",
      "lat": 49.229,
      "lon": 2.282,
      "cp": "60530",
      "ville": "Neuilly-en-Thelle",
      "prix": {
        "Gazole": 0.0020099999999999996,
        "SP95": 0.0019890000000000003,
        "E10": 0.0019450000000000001,
        "SP98": 0.00207
      },
      "maj_gouv": {
        "Gazole": "2026-06-09 13:22:55",
        "SP95": "2026-06-09 13:22:55",
        "E10": "2026-06-09 13:22:55",
        "SP98": "2026-06-09 13:22:55"
      }
    },
    {
      "id": "60440001",
      "lat": 49.136,
      "lon": 2.801,
      "cp": "60440",
      "ville": "NANTEUIL-LE-HAUDOUIN",
      "prix": {
        "Gazole": 0.0019690000000000003,
        "SP95": 0.001999,
        "E85": 0.000799,
        "E10": 0.001929,
        "SP98": 0.002029
      },
      "maj_gouv": {
        "Gazole": "2026-06-15 07:47:42",
        "SP95": "2026-06-15 07:47:42",
        "E85": "2026-06-15 07:47:42",
        "E10": "2026-06-15 07:47:42",
        "SP98": "2026-06-15 07:47:42"
      }
    },
    {
      "id": "60420001",
      "lat": 49.553,
      "lon": 2.533,
      "cp": "60420",
      "ville": "Maignelay-Montigny",
      "prix": {
        "Gazole": 0.001988,
        "SP95": 0.0019950000000000002,
        "SP98": 0.00209
      },
      "maj_gouv": {
        "Gazole": "2026-06-04 14:25:00",
        "SP95": "2026-06-04 14:25:00",
        "SP98": "2026-06-04 14:25:00"
      }
    },
    {
      "id": "60000010",
      "lat": 49.443,
      "lon": 2.093,
      "cp": "60000",
      "ville": "Beauvais",
      "prix": {
        "Gazole": 0.00195,
        "SP95": 0.001994,
        "E85": 0.000809,
        "GPLc": 0.000988,
        "SP98": 0.0020150000000000003
      },
      "maj_gouv": {
        "Gazole": "2026-06-15 17:30:19",
        "SP95": "2026-06-15 17:30:19",
        "E85": "2026-06-12 14:32:36",
        "GPLc": "2026-04-08 12:15:47",
        "SP98": "2026-06-15 17:30:20"
      }
    },
    {
      "id": "60800009",
      "lat": 49.234307444206,
      "lon": 2.8866396033653,
      "cp": "60800",
      "ville": "Crépy-en-Valois",
      "prix": {
        "Gazole": 0.002109,
        "E10": 0.002075,
        "SP98": 0.0021869999999999997
      },
      "maj_gouv": {
        "Gazole": "2026-06-09 13:16:17",
        "E10": "2026-06-09 13:16:18",
        "SP98": "2026-06-09 13:16:18"
      }
    },
    {
      "id": "60400003",
      "lat": 49.575,
      "lon": 2.999,
      "cp": "60400",
      "ville": "Noyon",
      "prix": {},
      "maj_gouv": {}
    },
    {
      "id": "60490008",
      "lat": 49.539,
      "lon": 2.702,
      "cp": "60490",
      "ville": "CUVILLY",
      "prix": {
        "Gazole": 0.001871,
        "E10": 0.0018759999999999998
      },
      "maj_gouv": {
        "Gazole": "2026-06-16 00:01:00",
        "E10": "2026-06-16 00:01:00"
      }
    },
    {
      "id": "60320001",
      "lat": 49.298113505068,
      "lon": 2.7994520494136,
      "cp": "60320",
      "ville": "BéTHISY-SAINT-PIERRE",
      "prix": {
        "Gazole": 0.0019690000000000003,
        "SP95": 0.001996,
        "E85": 0.0008489999999999999,
        "E10": 0.001965,
        "SP98": 0.002109
      },
      "maj_gouv": {
        "Gazole": "2026-06-15 16:08:21",
        "SP95": "2026-06-09 09:16:52",
        "E85": "2026-06-09 09:16:52",
        "E10": "2026-06-09 09:16:52",
        "SP98": "2026-06-09 09:16:52"
      }
    },
    {
      "id": "60490001",
      "lat": 49.551,
      "lon": 2.752,
      "cp": "60490",
      "ville": "LA NEUVILLE-SUR-RESSONS",
      "prix": {
        "Gazole": 0.002039,
        "E10": 0.001955,
        "SP98": 0.002101
      },
      "maj_gouv": {
        "Gazole": "2026-06-12 11:49:41",
        "E10": "2026-06-12 11:49:41",
        "SP98": "2026-06-12 11:49:42"
      }
    },
    {
      "id": "60800005",
      "lat": 49.224659428094,
      "lon": 2.9054913758613,
      "cp": "60800",
      "ville": "Crépy-en-Valois",
      "prix": {
        "Gazole": 0.0019690000000000003,
        "SP95": 0.0019690000000000003,
        "E85": 0.000809,
        "E10": 0.001929,
        "SP98": 0.002029
      },
      "maj_gouv": {
        "Gazole": "2026-06-15 08:23:36",
        "SP95": "2026-06-15 08:23:36",
        "E85": "2026-06-15 08:23:37",
        "E10": "2026-06-15 08:23:37",
        "SP98": "2026-06-15 08:23:37"
      }
    },
    {
      "id": "60220006",
      "lat": 49.652,
      "lon": 1.728,
      "cp": "60220",
      "ville": "Formerie",
      "prix": {
        "Gazole": 0.002003,
        "SP95": 0.00199,
        "E85": 0.00092
      },
      "maj_gouv": {
        "Gazole": "2026-06-15 08:07:45",
        "SP95": "2026-05-21 16:25:07",
        "E85": "2026-06-15 08:07:45"
      }
    },
    {
      "id": "60100004",
      "lat": 49.251,
      "lon": 2.476,
      "cp": "60100",
      "ville": "CREIL",
      "prix": {
        "Gazole": 0.002099,
        "GPLc": 0.0011690000000000001,
        "E10": 0.002049,
        "SP98": 0.002179
      },
      "maj_gouv": {
        "Gazole": "2026-06-12 23:59:00",
        "GPLc": "2026-05-22 23:59:00",
        "E10": "2026-06-09 23:59:00",
        "SP98": "2026-06-09 23:59:00"
      }
    },
    {
      "id": "60400005",
      "lat": 49.575,
      "lon": 2.99,
      "cp": "60400",
      "ville": "NOYON",
      "prix": {
        "Gazole": 0.001885,
        "E85": 0.000829,
        "E10": 0.001874,
        "SP98": 0.00199
      },
      "maj_gouv": {
        "Gazole": "2026-06-16 00:01:00",
        "E85": "2026-06-16 00:01:00",
        "E10": "2026-06-16 00:01:00",
        "SP98": "2026-06-16 00:01:00"
      }
    },
    {
      "id": "60110002",
      "lat": 49.223,
      "lon": 2.137,
      "cp": "60110",
      "ville": "Méru",
      "prix": {
        "Gazole": 0.001949,
        "E10": 0.001942,
        "SP98": 0.001999
      },
      "maj_gouv": {
        "Gazole": "2026-06-15 09:40:47",
        "E10": "2026-06-09 08:56:33",
        "SP98": "2026-06-15 09:40:48"
      }
    },
    {
      "id": "60500011",
      "lat": 49.2047622946,
      "lon": 2.4618766547599997,
      "cp": "60500",
      "ville": "Chantilly",
      "prix": {
        "E10": 0.00189,
        "SP98": 0.00199
      },
      "maj_gouv": {
        "E10": "2026-06-15 21:09:00",
        "SP98": "2026-06-15 21:09:00"
      }
    },
    {
      "id": "60360002",
      "lat": 49.604,
      "lon": 2.085,
      "cp": "60360",
      "ville": "Crèvecœur-le-Grand",
      "prix": {
        "Gazole": 0.001984,
        "SP95": 0.002011,
        "E10": 0.00196
      },
      "maj_gouv": {
        "Gazole": "2026-06-16 01:15:00",
        "SP95": "2026-06-16 01:15:00",
        "E10": "2026-06-16 01:15:00"
      }
    },
    {
      "id": "60110006",
      "lat": 49.214,
      "lon": 2.125,
      "cp": "60110",
      "ville": "Amblainville",
      "prix": {
        "Gazole": 0.001907,
        "E85": 0.000824,
        "E10": 0.001911,
        "SP98": 0.00199
      },
      "maj_gouv": {
        "Gazole": "2026-06-13 08:18:16",
        "E85": "2026-06-12 09:56:03",
        "E10": "2026-06-13 08:18:17",
        "SP98": "2026-06-13 08:18:17"
      }
    },
    {
      "id": "60150003",
      "lat": 49.479,
      "lon": 2.868,
      "cp": "60150",
      "ville": "THOUROTTE",
      "prix": {
        "Gazole": 0.001949,
        "E85": 0.000789,
        "GPLc": 0.0010149999999999998,
        "E10": 0.001909,
        "SP98": 0.002009
      },
      "maj_gouv": {
        "Gazole": "2026-06-15 08:57:58",
        "E85": "2026-06-15 08:57:58",
        "GPLc": "2026-06-15 08:57:58",
        "E10": "2026-06-15 08:57:58",
        "SP98": "2026-06-15 08:57:58"
      }
    },
    {
      "id": "60300008",
      "lat": 49.208,
      "lon": 2.59,
      "cp": "60300",
      "ville": "SENLIS",
      "prix": {
        "Gazole": 0.002009,
        "E85": 0.000939,
        "E10": 0.0019890000000000003,
        "SP98": 0.002139
      },
      "maj_gouv": {
        "Gazole": "2026-06-16 06:19:23",
        "E85": "2026-06-16 06:19:24",
        "E10": "2026-06-16 06:19:23",
        "SP98": "2026-06-16 06:19:23"
      }
    },
    {
      "id": "60200008",
      "lat": 49.395,
      "lon": 2.793,
      "cp": "60200",
      "ville": "Compiègne",
      "prix": {
        "Gazole": 0.001949,
        "E85": 0.000809,
        "E10": 0.001909,
        "SP98": 0.002029
      },
      "maj_gouv": {
        "Gazole": "2026-06-15 13:52:54",
        "E85": "2026-06-15 13:53:18",
        "E10": "2026-06-15 13:52:54",
        "SP98": "2026-06-15 13:52:54"
      }
    },
    {
      "id": "60230002",
      "lat": 49.156217844245,
      "lon": 2.2546061423989,
      "cp": "60230",
      "ville": "CHAMBLY",
      "prix": {
        "Gazole": 0.001899,
        "E85": 0.000759,
        "E10": 0.001942,
        "SP98": 0.001999
      },
      "maj_gouv": {
        "Gazole": "2026-06-13 07:30:00",
        "E85": "2026-04-21 07:30:00",
        "E10": "2026-06-04 07:30:00",
        "SP98": "2026-06-13 07:30:00"
      }
    },
    {
      "id": "60800008",
      "lat": 49.23,
      "lon": 2.906,
      "cp": "60800",
      "ville": "Crépy-en-Valois",
      "prix": {
        "Gazole": 0.00199,
        "E85": 0.000798,
        "E10": 0.001939,
        "SP98": 0.00204
      },
      "maj_gouv": {
        "Gazole": "2026-06-11 09:52:41",
        "E85": "2026-06-11 09:52:42",
        "E10": "2026-06-15 08:46:54",
        "SP98": "2026-06-13 09:42:51"
      }
    },
    {
      "id": "60000006",
      "lat": 49.43,
      "lon": 2.092,
      "cp": "60000",
      "ville": "Beauvais",
      "prix": {
        "Gazole": 0.0019890000000000003,
        "E10": 0.001941,
        "SP98": 0.002075
      },
      "maj_gouv": {
        "Gazole": "2026-06-15 17:11:00",
        "E10": "2026-06-15 17:11:00",
        "SP98": "2026-06-15 17:11:00"
      }
    },
    {
      "id": "60330004",
      "lat": 49.096696560788,
      "lon": 2.7494676177426998,
      "cp": "60330",
      "ville": "Le Plessis-Belleville",
      "prix": {
        "Gazole": 0.001889,
        "E85": 0.0008309999999999999,
        "GPLc": 0.001021,
        "E10": 0.0018839999999999998,
        "SP98": 0.00199
      },
      "maj_gouv": {
        "Gazole": "2026-06-16 00:01:00",
        "E85": "2026-06-16 00:01:00",
        "GPLc": "2026-06-16 00:01:00",
        "E10": "2026-06-16 00:01:00",
        "SP98": "2026-06-16 00:01:00"
      }
    },
    {
      "id": "60200005",
      "lat": 49.419,
      "lon": 2.82,
      "cp": "60200",
      "ville": "Compiègne",
      "prix": {
        "Gazole": 0.001999,
        "E10": 0.001966,
        "SP98": 0.0020499999999999997
      },
      "maj_gouv": {
        "Gazole": "2026-06-13 06:30:00",
        "E10": "2026-06-13 06:30:00",
        "SP98": "2026-06-13 06:30:00"
      }
    },
    {
      "id": "60200006",
      "lat": 49.401,
      "lon": 2.807,
      "cp": "60200",
      "ville": "Compiègne",
      "prix": {
        "Gazole": 0.0020009999999999997,
        "E10": 0.00197,
        "SP98": 0.0020169999999999997
      },
      "maj_gouv": {
        "Gazole": "2026-06-13 06:30:00",
        "E10": "2026-06-13 06:30:00",
        "SP98": "2026-06-13 06:30:00"
      }
    },
    {
      "id": "60500002",
      "lat": 49.178,
      "lon": 2.456,
      "cp": "60500",
      "ville": "Chantilly",
      "prix": {
        "Gazole": 0.0019690000000000003,
        "E10": 0.001951,
        "SP98": 0.002012
      },
      "maj_gouv": {
        "Gazole": "2026-06-16 06:31:00",
        "E10": "2026-06-16 06:31:00",
        "SP98": "2026-06-16 06:31:00"
      }
    },
    {
      "id": "60870002",
      "lat": 49.289,
      "lon": 2.5,
      "cp": "60870",
      "ville": "VILLERS-SAINT-PAUL",
      "prix": {
        "Gazole": 0.002013,
        "SP95": 0.002095,
        "E10": 0.0021000000000000003,
        "SP98": 0.002199
      },
      "maj_gouv": {
        "Gazole": "2026-06-05 10:45:24",
        "SP95": "2026-04-30 17:53:44",
        "E10": "2026-05-06 09:45:51",
        "SP98": "2026-04-08 12:27:18"
      }
    },
    {
      "id": "60700005",
      "lat": 49.317,
      "lon": 2.606,
      "cp": "60700",
      "ville": "Pont-Sainte-Maxence",
      "prix": {
        "Gazole": 0.0019299999999999999,
        "SP95": 0.001982,
        "E85": 0.000869,
        "E10": 0.001908,
        "SP98": 0.002008
      },
      "maj_gouv": {
        "Gazole": "2026-06-15 12:00:00",
        "SP95": "2026-06-12 06:00:00",
        "E85": "2026-06-10 06:00:00",
        "E10": "2026-06-11 12:00:00",
        "SP98": "2026-06-12 06:00:00"
      }
    },
    {
      "id": "60000017",
      "lat": 49.402495035409,
      "lon": 2.1278669713141003,
      "cp": "60000",
      "ville": "Allonne",
      "prix": {
        "Gazole": 0.0018859999999999999,
        "E85": 0.0008349999999999999,
        "E10": 0.001888,
        "SP98": 0.00199
      },
      "maj_gouv": {
        "Gazole": "2026-06-16 00:01:00",
        "E85": "2026-06-16 00:01:00",
        "E10": "2026-06-16 00:01:00",
        "SP98": "2026-06-16 00:01:00"
      }
    },
    {
      "id": "60210003",
      "lat": 49.666,
      "lon": 1.959,
      "cp": "60210",
      "ville": "Grandvilliers",
      "prix": {
        "Gazole": 0.001975,
        "SP95": 0.001981,
        "E85": 0.000809
      },
      "maj_gouv": {
        "Gazole": "2026-06-11 12:00:19",
        "SP95": "2026-06-11 12:00:20",
        "E85": "2026-06-11 12:00:20"
      }
    },
    {
      "id": "60110004",
      "lat": 49.21043,
      "lon": 2.151187,
      "cp": "60110",
      "ville": "MERU",
      "prix": {
        "Gazole": 0.002013,
        "E10": 0.00199
      },
      "maj_gouv": {
        "Gazole": "2026-06-16 00:01:00",
        "E10": "2026-06-16 00:01:00"
      }
    },
    {
      "id": "60140002",
      "lat": 49.329,
      "lon": 2.464,
      "cp": "60140",
      "ville": "Liancourt",
      "prix": {
        "Gazole": 0.001996,
        "SP95": 0.00199
      },
      "maj_gouv": {
        "Gazole": "2026-06-12 19:55:21",
        "SP95": "2026-06-12 19:55:21"
      }
    },
    {
      "id": "60200011",
      "lat": 49.38626,
      "lon": 2.7848,
      "cp": "60200",
      "ville": "Compiègne",
      "prix": {
        "Gazole": 0.001964,
        "E10": 0.001954,
        "SP98": 0.00199
      },
      "maj_gouv": {
        "Gazole": "2026-06-16 07:00:00",
        "E10": "2026-06-16 07:00:00",
        "SP98": "2026-03-13 07:00:00"
      }
    },
    {
      "id": "60126001",
      "lat": 49.359,
      "lon": 2.718,
      "cp": "60126",
      "ville": "Longueil-Sainte-Marie",
      "prix": {
        "Gazole": 0.0019690000000000003,
        "SP95": 0.001999
      },
      "maj_gouv": {
        "Gazole": "2026-06-12 14:02:38",
        "SP95": "2026-06-12 14:02:38"
      }
    },
    {
      "id": "60490007",
      "lat": 49.5236,
      "lon": 2.72292,
      "cp": "60490",
      "ville": "RESSONS SUR MATZ",
      "prix": {
        "Gazole": 0.00204,
        "E85": 0.000999,
        "GPLc": 0.0010689999999999999,
        "E10": 0.00199,
        "SP98": 0.00199
      },
      "maj_gouv": {
        "Gazole": "2026-06-16 00:01:00",
        "E85": "2026-06-16 00:01:00",
        "GPLc": "2026-06-16 00:01:00",
        "E10": "2026-06-16 00:01:00",
        "SP98": "2026-06-16 00:01:00"
      }
    },
    {
      "id": "60280003",
      "lat": 49.4312668816,
      "lon": 2.8373434750855,
      "cp": "60280",
      "ville": "CLAIROIX",
      "prix": {
        "Gazole": 0.0019690000000000003,
        "E85": 0.000809,
        "E10": 0.001909,
        "SP98": 0.002039
      },
      "maj_gouv": {
        "Gazole": "2026-06-10 09:19:07",
        "E85": "2026-06-12 13:26:33",
        "E10": "2026-06-10 09:19:08",
        "SP98": "2026-06-10 09:19:08"
      }
    },
    {
      "id": "60000012",
      "lat": 49.431,
      "lon": 2.118,
      "cp": "60000",
      "ville": "BEAUVAIS",
      "prix": {
        "Gazole": 0.001976,
        "E85": 0.000889,
        "GPLc": 0.000999,
        "E10": 0.0019590000000000002,
        "SP98": 0.00199
      },
      "maj_gouv": {
        "Gazole": "2026-06-16 00:01:00",
        "E85": "2026-06-16 00:01:00",
        "GPLc": "2026-06-16 00:01:00",
        "E10": "2026-06-16 00:01:00",
        "SP98": "2026-06-16 00:01:00"
      }
    },
    {
      "id": "60600004",
      "lat": 49.3826,
      "lon": 2.40177,
      "cp": "60600",
      "ville": "CLERMONT",
      "prix": {
        "Gazole": 0.0019790000000000003,
        "SP95": 0.00199,
        "E10": 0.0019190000000000001,
        "SP98": 0.002029
      },
      "maj_gouv": {
        "Gazole": "2026-06-12 09:53:43",
        "SP95": "2026-06-13 09:58:45",
        "E10": "2026-06-11 09:44:36",
        "SP98": "2026-06-13 09:58:46"
      }
    },
    {
      "id": "60112002",
      "lat": 49.484,
      "lon": 2.047,
      "cp": "60112",
      "ville": "Troissereux",
      "prix": {
        "Gazole": 0.001961,
        "E10": 0.0019479999999999999,
        "SP98": 0.00199
      },
      "maj_gouv": {
        "Gazole": "2026-06-16 07:39:40",
        "E10": "2026-06-16 07:39:41",
        "SP98": "2026-06-05 08:05:32"
      }
    },
    {
      "id": "60410003",
      "lat": 49.309,
      "lon": 2.73,
      "cp": "60410",
      "ville": "Verberie",
      "prix": {
        "Gazole": 0.002059,
        "SP95": 0.002029,
        "SP98": 0.002099
      },
      "maj_gouv": {
        "Gazole": "2026-06-09 12:42:22",
        "SP95": "2026-06-09 12:42:22",
        "SP98": "2026-06-09 12:42:23"
      }
    },
    {
      "id": "60160003",
      "lat": 49.256,
      "lon": 2.432,
      "cp": "60160",
      "ville": "MONTATAIRE",
      "prix": {
        "Gazole": 0.001867,
        "E85": 0.000812,
        "E10": 0.001861,
        "SP98": 0.001977
      },
      "maj_gouv": {
        "Gazole": "2026-06-16 00:01:00",
        "E85": "2026-06-16 00:01:00",
        "E10": "2026-06-16 00:01:00",
        "SP98": "2026-06-16 00:01:00"
      }
    },
    {
      "id": "60180001",
      "lat": 49.276,
      "lon": 2.486,
      "cp": "60180",
      "ville": "NOGENT-SUR-OISE",
      "prix": {
        "Gazole": 0.0019479999999999999,
        "E85": 0.000839,
        "GPLc": 0.000989,
        "E10": 0.001908,
        "SP98": 0.00199
      },
      "maj_gouv": {
        "Gazole": "2026-06-15 10:00:00",
        "E85": "2026-06-05 09:15:00",
        "GPLc": "2026-06-12 09:00:00",
        "E10": "2026-06-15 10:00:00",
        "SP98": "2026-06-08 08:52:30"
      }
    },
    {
      "id": "60540002",
      "lat": 49.2013605,
      "lon": 2.2042972,
      "cp": "60540",
      "ville": "BORNEL",
      "prix": {
        "Gazole": 0.0019950000000000002,
        "SP95": 0.001981,
        "SP98": 0.002045
      },
      "maj_gouv": {
        "Gazole": "2026-06-11 10:24:23",
        "SP95": "2026-06-11 10:24:23",
        "SP98": "2026-06-11 10:24:23"
      }
    },
    {
      "id": "60300007",
      "lat": 49.211,
      "lon": 2.593,
      "cp": "60300",
      "ville": "SENLIS",
      "prix": {
        "Gazole": 0.0019850000000000002,
        "E85": 0.000846,
        "GPLc": 0.000986,
        "E10": 0.0019690000000000003,
        "SP98": 0.00199
      },
      "maj_gouv": {
        "Gazole": "2026-06-16 00:01:00",
        "E85": "2026-06-16 00:01:00",
        "GPLc": "2026-06-16 00:01:00",
        "E10": "2026-06-16 00:01:00",
        "SP98": "2026-06-16 00:01:00"
      }
    },
    {
      "id": "60230004",
      "lat": 49.188,
      "lon": 2.235,
      "cp": "60230",
      "ville": "CHAMBLY",
      "prix": {
        "Gazole": 0.001885,
        "GPLc": 0.000939,
        "E10": 0.001874,
        "SP98": 0.0019890000000000003
      },
      "maj_gouv": {
        "Gazole": "2026-06-16 00:01:00",
        "GPLc": "2026-06-16 00:01:00",
        "E10": "2026-06-16 00:01:00",
        "SP98": "2026-06-16 00:01:00"
      }
    },
    {
      "id": "60240001",
      "lat": 49.272,
      "lon": 1.874,
      "cp": "60240",
      "ville": "Chaumont-en-Vexin",
      "prix": {
        "Gazole": 0.001984,
        "E10": 0.0019199999999999998,
        "SP98": 0.002029
      },
      "maj_gouv": {
        "Gazole": "2026-06-09 13:24:51",
        "E10": "2026-06-13 09:16:44",
        "SP98": "2026-06-13 09:16:44"
      }
    },
    {
      "id": "60680003",
      "lat": 49.403,
      "lon": 2.739,
      "cp": "60680",
      "ville": "JONQUIERES",
      "prix": {
        "Gazole": 0.001867,
        "E85": 0.000825,
        "E10": 0.001863,
        "SP98": 0.001983
      },
      "maj_gouv": {
        "Gazole": "2026-06-16 00:01:00",
        "E85": "2026-06-16 00:01:00",
        "E10": "2026-06-16 00:01:00",
        "SP98": "2026-06-16 00:01:00"
      }
    },
    {
      "id": "60300010",
      "lat": 49.221,
      "lon": 2.593,
      "cp": "60300",
      "ville": "CHAMANT",
      "prix": {
        "Gazole": 0.001978,
        "SP95": 0.00199,
        "E85": 0.000846,
        "E10": 0.001964
      },
      "maj_gouv": {
        "Gazole": "2026-06-16 00:01:00",
        "SP95": "2026-06-15 13:06:58",
        "E85": "2026-06-16 00:01:00",
        "E10": "2026-06-16 00:01:00"
      }
    },
    {
      "id": "60870003",
      "lat": 49.284,
      "lon": 2.492,
      "cp": "60870",
      "ville": "Villers-Saint-Paul",
      "prix": {
        "Gazole": 0.001877,
        "E85": 0.000839,
        "E10": 0.001875,
        "SP98": 0.00199
      },
      "maj_gouv": {
        "Gazole": "2026-06-16 00:01:00",
        "E85": "2026-06-16 00:01:00",
        "E10": "2026-06-16 00:01:00",
        "SP98": "2026-06-16 00:01:00"
      }
    },
    {
      "id": "60120005",
      "lat": 49.641,
      "lon": 2.279,
      "cp": "60120",
      "ville": "BRETEUIL",
      "prix": {
        "Gazole": 0.0019590000000000002,
        "SP95": 0.0019950000000000002,
        "E85": 0.00078,
        "E10": 0.0019450000000000001
      },
      "maj_gouv": {
        "Gazole": "2026-06-12 08:53:03",
        "SP95": "2026-06-10 08:42:07",
        "E85": "2026-06-12 08:53:03",
        "E10": "2026-06-10 08:42:07"
      }
    },
    {
      "id": "60390001",
      "lat": 49.368,
      "lon": 1.987,
      "cp": "60390",
      "ville": "AUNEUIL",
      "prix": {
        "Gazole": 0.001968,
        "E10": 0.001918,
        "SP98": 0.002021
      },
      "maj_gouv": {
        "Gazole": "2026-06-15 10:30:17",
        "E10": "2026-06-12 10:06:43",
        "SP98": "2026-06-15 10:30:17"
      }
    },
    {
      "id": "60340001",
      "lat": 49.208,
      "lon": 2.391,
      "cp": "60340",
      "ville": "VILLERS-SOUS-SAINT-LEU",
      "prix": {
        "Gazole": 0.001998,
        "E10": 0.001958,
        "SP98": 0.002061
      },
      "maj_gouv": {
        "Gazole": "2026-06-13 10:30:04",
        "E10": "2026-06-13 10:30:05",
        "SP98": "2026-06-13 10:30:05"
      }
    },
    {
      "id": "60500008",
      "lat": 49.202,
      "lon": 2.463,
      "cp": "60500",
      "ville": "Chantilly",
      "prix": {
        "Gazole": 0.0019950000000000002,
        "SP95": 0.001996,
        "SP98": 0.002075
      },
      "maj_gouv": {
        "Gazole": "2026-06-15 12:43:07",
        "SP95": "2026-06-15 12:43:07",
        "SP98": "2026-06-15 12:43:07"
      }
    },
    {
      "id": "60300005",
      "lat": 49.221,
      "lon": 2.591,
      "cp": "60300",
      "ville": "SENLIS",
      "prix": {
        "Gazole": 0.001967,
        "E85": 0.000809,
        "E10": 0.0019270000000000001,
        "SP98": 0.002027
      },
      "maj_gouv": {
        "Gazole": "2026-06-15 08:05:06",
        "E85": "2026-06-11 07:36:04",
        "E10": "2026-06-11 07:41:02",
        "SP98": "2026-06-11 07:41:02"
      }
    },
    {
      "id": "60190003",
      "lat": 49.403,
      "lon": 2.626,
      "cp": "60190",
      "ville": "MOYVILLERS",
      "prix": {
        "Gazole": 0.001966,
        "E85": 0.0008449999999999999,
        "E10": 0.001957,
        "SP98": 0.00199
      },
      "maj_gouv": {
        "Gazole": "2026-06-16 00:01:00",
        "E85": "2026-06-16 00:01:00",
        "E10": "2026-06-16 00:01:00",
        "SP98": "2026-06-16 00:01:00"
      }
    },
    {
      "id": "60200001",
      "lat": 49.413,
      "lon": 2.816,
      "cp": "60200",
      "ville": "COMPIèGNE",
      "prix": {
        "Gazole": 0.001949,
        "E10": 0.0019019999999999998,
        "SP98": 0.00199
      },
      "maj_gouv": {
        "Gazole": "2026-06-15 12:59:34",
        "E10": "2026-06-15 12:59:34",
        "SP98": "2026-06-15 12:59:34"
      }
    },
    {
      "id": "60000001",
      "lat": 49.409,
      "lon": 2.115,
      "cp": "60000",
      "ville": "BEAUVAIS",
      "prix": {
        "Gazole": 0.0019690000000000003,
        "E85": 0.000809,
        "GPLc": 0.000988,
        "E10": 0.001921,
        "SP98": 0.0020150000000000003
      },
      "maj_gouv": {
        "Gazole": "2026-06-11 10:46:26",
        "E85": "2026-06-15 10:54:05",
        "GPLc": "2026-05-07 09:39:18",
        "E10": "2026-06-15 10:54:05",
        "SP98": "2026-06-09 10:45:05"
      }
    },
    {
      "id": "60700002",
      "lat": 49.306285410005,
      "lon": 2.5930277243297,
      "cp": "60700",
      "ville": "Pont-Sainte-Maxence",
      "prix": {
        "Gazole": 0.001949,
        "SP95": 0.0019850000000000002,
        "E10": 0.00191,
        "SP98": 0.0020099999999999996
      },
      "maj_gouv": {
        "Gazole": "2026-06-16 07:14:11",
        "SP95": "2026-06-16 07:14:11",
        "E10": "2026-06-16 07:14:11",
        "SP98": "2026-06-16 07:14:11"
      }
    },
    {
      "id": "95472001",
      "lat": 49.101,
      "lon": 2.528,
      "cp": "60520",
      "ville": "La Chapelle-en-Serval",
      "prix": {
        "Gazole": 0.002019,
        "E10": 0.0019690000000000003,
        "SP98": 0.002069
      },
      "maj_gouv": {
        "Gazole": "2026-06-16 00:15:00",
        "E10": "2026-06-15 07:59:22",
        "SP98": "2026-06-09 00:15:00"
      }
    },
    {
      "id": "60420003",
      "lat": 49.592835751644,
      "lon": 2.5133434965423,
      "cp": "60420",
      "ville": "Ferrières",
      "prix": {
        "Gazole": 0.0020099999999999996,
        "SP95": 0.00202
      },
      "maj_gouv": {
        "Gazole": "2026-06-09 12:44:44",
        "SP95": "2026-06-11 14:02:12"
      }
    },
    {
      "id": "60600001",
      "lat": 49.362,
      "lon": 2.422,
      "cp": "60600",
      "ville": "BREUIL-LE-VERT",
      "prix": {
        "Gazole": 0.0019790000000000003,
        "E10": 0.0019190000000000001,
        "SP98": 0.002029
      },
      "maj_gouv": {
        "Gazole": "2026-06-15 13:20:58",
        "E10": "2026-06-15 13:20:58",
        "SP98": "2026-06-15 13:20:58"
      }
    },
    {
      "id": "60600006",
      "lat": 49.396,
      "lon": 2.419,
      "cp": "60600",
      "ville": "FITZ-JAMES",
      "prix": {
        "Gazole": 0.0019890000000000003,
        "E85": 0.000882,
        "E10": 0.0019190000000000001
      },
      "maj_gouv": {
        "Gazole": "2026-06-12 10:59:48",
        "E85": "2026-06-02 16:24:58",
        "E10": "2026-06-11 10:28:18"
      }
    },
    {
      "id": "60300009",
      "lat": 49.20834539496099,
      "lon": 2.6023127084038,
      "cp": "60300",
      "ville": "Senlis",
      "prix": {
        "Gazole": 0.002009,
        "E85": 0.000855,
        "E10": 0.00199,
        "SP98": 0.00199
      },
      "maj_gouv": {
        "Gazole": "2026-06-12 18:38:44",
        "E85": "2026-06-12 18:38:45",
        "E10": "2026-06-12 18:38:45",
        "SP98": "2026-06-12 18:38:45"
      }
    },
    {
      "id": "60390004",
      "lat": 49.371485,
      "lon": 1.988032,
      "cp": "60390",
      "ville": "Auneuil",
      "prix": {
        "Gazole": 0.001968,
        "E10": 0.001918,
        "SP98": 0.002021
      },
      "maj_gouv": {
        "Gazole": "2026-06-15 08:43:45",
        "E10": "2026-06-12 08:18:22",
        "SP98": "2026-06-15 08:43:46"
      }
    },
    {
      "id": "60005001",
      "lat": 49.456,
      "lon": 2.1,
      "cp": "60000",
      "ville": "BEAUVAIS",
      "prix": {
        "Gazole": 0.002027,
        "E10": 0.00199,
        "SP98": 0.00199
      },
      "maj_gouv": {
        "Gazole": "2026-06-15 08:42:43",
        "E10": "2026-06-01 09:01:56",
        "SP98": "2026-06-15 08:42:43"
      }
    },
    {
      "id": "60260001",
      "lat": 49.156,
      "lon": 2.445,
      "cp": "60260",
      "ville": "LAMORLAYE",
      "prix": {
        "Gazole": 0.001997,
        "SP95": 0.002002,
        "E85": 0.000799,
        "E10": 0.001957,
        "SP98": 0.0020800000000000003
      },
      "maj_gouv": {
        "Gazole": "2026-06-13 09:48:51",
        "SP95": "2026-06-13 09:48:52",
        "E85": "2026-06-13 09:48:52",
        "E10": "2026-06-13 09:48:52",
        "SP98": "2026-06-13 09:48:52"
      }
    },
    {
      "id": "60640001",
      "lat": 49.655,
      "lon": 3.05,
      "cp": "60640",
      "ville": "GUISCARD",
      "prix": {
        "Gazole": 0.001955,
        "E10": 0.001934,
        "SP98": 0.00199
      },
      "maj_gouv": {
        "Gazole": "2026-06-15 19:41:43",
        "E10": "2026-06-15 19:41:43",
        "SP98": "2026-06-15 19:41:43"
      }
    },
    {
      "id": "60130001",
      "lat": 49.512,
      "lon": 2.431,
      "cp": "60130",
      "ville": "SAINT-JUST-EN-CHAUSSéE",
      "prix": {
        "Gazole": 0.001934,
        "SP95": 0.00198,
        "E85": 0.00078,
        "SP98": 0.0020350000000000004
      },
      "maj_gouv": {
        "Gazole": "2026-06-15 07:55:20",
        "SP95": "2026-06-12 09:00:53",
        "E85": "2026-06-11 11:24:33",
        "SP98": "2026-06-11 11:24:33"
      }
    },
    {
      "id": "60000011",
      "lat": 49.41,
      "lon": 2.109,
      "cp": "60000",
      "ville": "BEAUVAIS",
      "prix": {
        "Gazole": 0.001999,
        "SP95": 0.001999,
        "E85": 0.0008629999999999999,
        "GPLc": 0.000988,
        "SP98": 0.00219
      },
      "maj_gouv": {
        "Gazole": "2026-06-05 09:03:56",
        "SP95": "2026-06-12 08:57:59",
        "E85": "2026-05-27 11:03:20",
        "GPLc": "2026-05-06 08:07:45",
        "SP98": "2026-06-12 09:58:47"
      }
    },
    {
      "id": "60270003",
      "lat": 49.188755748479004,
      "lon": 2.413338110243,
      "cp": "60270",
      "ville": "GOUVIEUX",
      "prix": {
        "Gazole": 0.001983,
        "E10": 0.001923,
        "SP98": 0.002043
      },
      "maj_gouv": {
        "Gazole": "2026-06-12 12:36:41",
        "E10": "2026-06-12 12:36:42",
        "SP98": "2026-06-12 12:36:42"
      }
    },
    {
      "id": "60590001",
      "lat": 49.289,
      "lon": 1.807,
      "cp": "60590",
      "ville": "Trie-Château",
      "prix": {
        "Gazole": 0.001954,
        "SP95": 0.001988,
        "E85": 0.000808,
        "E10": 0.0019190000000000001,
        "SP98": 0.002028
      },
      "maj_gouv": {
        "Gazole": "2026-06-12 08:30:11",
        "SP95": "2026-06-11 11:23:56",
        "E85": "2026-06-15 08:29:59",
        "E10": "2026-06-15 08:29:59",
        "SP98": "2026-06-15 08:29:59"
      }
    },
    {
      "id": "60280001",
      "lat": 49.408,
      "lon": 2.781,
      "cp": "60280",
      "ville": "VENETTE",
      "prix": {
        "Gazole": 0.001967,
        "SP95": 0.002025,
        "E85": 0.0008020000000000001,
        "GPLc": 0.000923,
        "E10": 0.0019399999999999999,
        "SP98": 0.002062
      },
      "maj_gouv": {
        "Gazole": "2026-06-15 08:36:35",
        "SP95": "2026-06-15 08:36:36",
        "E85": "2026-06-15 08:36:36",
        "GPLc": "2026-06-15 08:36:36",
        "E10": "2026-06-15 08:36:36",
        "SP98": "2026-06-15 08:36:36"
      }
    },
    {
      "id": "60150005",
      "lat": 49.47,
      "lon": 2.86,
      "cp": "60150",
      "ville": "LONGUEIL ANNEL",
      "prix": {
        "Gazole": 0.0019690000000000003,
        "E10": 0.0019399999999999999,
        "SP98": 0.001999
      },
      "maj_gouv": {
        "Gazole": "2026-06-11 12:59:11",
        "E10": "2026-06-11 12:59:11",
        "SP98": "2026-06-11 12:59:11"
      }
    },
    {
      "id": "60610002",
      "lat": 49.357318877451,
      "lon": 2.7763757910323,
      "cp": "60610",
      "ville": "Lacroix-Saint-Ouen",
      "prix": {
        "Gazole": 0.001899,
        "E85": 0.000799,
        "E10": 0.0019190000000000001,
        "SP98": 0.001999
      },
      "maj_gouv": {
        "Gazole": "2026-06-15 11:10:21",
        "E85": "2026-06-11 10:34:51",
        "E10": "2026-06-12 10:27:34",
        "SP98": "2026-06-15 11:10:21"
      }
    },
    {
      "id": "60000008",
      "lat": 49.433,
      "lon": 2.046,
      "cp": "60000",
      "ville": "Goincourt",
      "prix": {
        "Gazole": 0.001949,
        "E85": 0.000809,
        "E10": 0.0019190000000000001,
        "SP98": 0.001999
      },
      "maj_gouv": {
        "Gazole": "2026-06-16 06:43:11",
        "E85": "2026-06-15 07:09:27",
        "E10": "2026-06-12 07:48:50",
        "SP98": "2026-06-16 06:43:11"
      }
    },
    {
      "id": "60120002",
      "lat": 49.63618,
      "lon": 2.29025,
      "cp": "60120",
      "ville": "BRETEUIL",
      "prix": {
        "Gazole": 0.0019590000000000002,
        "SP95": 0.0019950000000000002,
        "SP98": 0.00219
      },
      "maj_gouv": {
        "Gazole": "2026-06-12 16:52:35",
        "SP95": "2026-06-12 16:52:35",
        "SP98": "2026-06-04 09:15:48"
      }
    },
    {
      "id": "60000007",
      "lat": 49.431,
      "lon": 2.071,
      "cp": "60000",
      "ville": "Beauvais",
      "prix": {
        "Gazole": 0.001925,
        "E10": 0.001924,
        "SP98": 0.002
      },
      "maj_gouv": {
        "Gazole": "2026-06-15 15:34:14",
        "E10": "2026-06-15 15:34:14",
        "SP98": "2026-06-15 15:34:14"
      }
    },
    {
      "id": "60690001",
      "lat": 49.582,
      "lon": 1.954,
      "cp": "60690",
      "ville": "MARSEILLE EN BEAUVAISIS",
      "prix": {
        "Gazole": 0.0019790000000000003,
        "SP95": 0.002021,
        "E85": 0.000809,
        "E10": 0.001957,
        "SP98": 0.002047
      },
      "maj_gouv": {
        "Gazole": "2026-06-15 08:30:00",
        "SP95": "2026-06-15 08:30:00",
        "E85": "2026-06-15 08:30:00",
        "E10": "2026-06-15 08:30:00",
        "SP98": "2026-06-10 08:30:00"
      }
    },
    {
      "id": "60490009",
      "lat": 49.519649613694995,
      "lon": 2.7195533558196,
      "cp": "60490",
      "ville": "RESSONS SUR MATZ",
      "prix": {
        "Gazole": 0.001994,
        "E85": 0.000998,
        "GPLc": 0.0010580000000000001,
        "E10": 0.00199,
        "SP98": 0.00199
      },
      "maj_gouv": {
        "Gazole": "2026-06-16 00:01:00",
        "E85": "2026-06-16 00:01:00",
        "GPLc": "2026-06-16 00:01:00",
        "E10": "2026-06-16 00:01:00",
        "SP98": "2026-06-16 00:01:00"
      }
    },
    {
      "id": "60730002",
      "lat": 49.29,
      "lon": 2.201,
      "cp": "60730",
      "ville": "SAINTE-GENEVIèVE",
      "prix": {
        "Gazole": 0.001963,
        "E10": 0.001918,
        "SP98": 0.001999
      },
      "maj_gouv": {
        "Gazole": "2026-06-15 10:25:00",
        "E10": "2026-06-15 10:25:00",
        "SP98": "2026-06-15 10:25:00"
      }
    },
    {
      "id": "60350002",
      "lat": 49.401,
      "lon": 2.994,
      "cp": "60350",
      "ville": "Trosly-Breuil",
      "prix": {
        "Gazole": 0.00195,
        "E85": 0.000809,
        "E10": 0.001923,
        "SP98": 0.002033
      },
      "maj_gouv": {
        "Gazole": "2026-06-15 08:59:48",
        "E85": "2026-06-12 07:17:29",
        "E10": "2026-06-15 08:59:48",
        "SP98": "2026-06-15 08:59:48"
      }
    },
    {
      "id": "60740001",
      "lat": 49.239,
      "lon": 2.471,
      "cp": "60740",
      "ville": "SAINT-MAXIMIN",
      "prix": {
        "Gazole": 0.002,
        "GPLc": 0.000959,
        "E10": 0.00198,
        "SP98": 0.0020499999999999997
      },
      "maj_gouv": {
        "Gazole": "2026-06-01 10:07:39",
        "GPLc": "2026-06-08 10:25:10",
        "E10": "2026-06-01 10:07:39",
        "SP98": "2026-06-01 10:07:39"
      }
    },
    {
      "id": "60190002",
      "lat": 49.41449,
      "lon": 2.64666,
      "cp": "60190",
      "ville": "Moyvillers",
      "prix": {
        "Gazole": 0.001977,
        "SP95": 0.001999,
        "SP98": 0.0020510000000000003
      },
      "maj_gouv": {
        "Gazole": "2026-06-16 07:16:38",
        "SP95": "2026-06-10 05:40:41",
        "SP98": "2026-06-16 07:16:38"
      }
    },
    {
      "id": "60160002",
      "lat": 49.253,
      "lon": 2.428,
      "cp": "60160",
      "ville": "MONTATAIRE",
      "prix": {
        "Gazole": 0.001999,
        "E85": 0.000799,
        "E10": 0.0019790000000000003,
        "SP98": 0.002049
      },
      "maj_gouv": {
        "Gazole": "2026-05-30 08:00:00",
        "E85": "2026-06-09 07:54:11",
        "E10": "2026-05-30 08:00:00",
        "SP98": "2026-05-30 08:00:00"
      }
    },
    {
      "id": "60650007",
      "lat": 49.438949,
      "lon": 1.887184,
      "cp": "60650",
      "ville": "Saint Aubin en Bray",
      "prix": {
        "Gazole": 0.001978,
        "E85": 0.000799,
        "E10": 0.001958,
        "SP98": 0.0020310000000000003
      },
      "maj_gouv": {
        "Gazole": "2026-06-15 08:27:22",
        "E85": "2026-04-24 08:33:52",
        "E10": "2026-06-15 08:27:22",
        "SP98": "2026-06-08 08:16:09"
      }
    },
    {
      "id": "60200012",
      "lat": 49.407,
      "lon": 2.813,
      "cp": "60200",
      "ville": "COMPIEGNE",
      "prix": {
        "Gazole": 0.0018700000000000001,
        "E85": 0.0008209999999999999,
        "E10": 0.001869,
        "SP98": 0.0019890000000000003
      },
      "maj_gouv": {
        "Gazole": "2026-06-16 05:38:41",
        "E85": "2026-06-16 05:38:41",
        "E10": "2026-06-16 05:38:41",
        "SP98": "2026-06-16 05:38:41"
      }
    },
    {
      "id": "60170003",
      "lat": 49.515,
      "lon": 2.924,
      "cp": "60170",
      "ville": "Ribécourt-Dreslincourt",
      "prix": {
        "Gazole": 0.001949,
        "E10": 0.001961,
        "SP98": 0.002039
      },
      "maj_gouv": {
        "Gazole": "2026-06-15 09:34:07",
        "E10": "2026-06-15 09:34:07",
        "SP98": "2026-06-15 09:34:07"
      }
    },
    {
      "id": "60290005",
      "lat": 49.337,
      "lon": 2.434,
      "cp": "60290",
      "ville": "RANTIGNY",
      "prix": {
        "Gazole": 0.001865,
        "E85": 0.000815,
        "E10": 0.001863,
        "SP98": 0.001978
      },
      "maj_gouv": {
        "Gazole": "2026-06-16 00:01:00",
        "E85": "2026-06-16 00:01:00",
        "E10": "2026-06-16 00:01:00",
        "SP98": "2026-06-16 00:01:00"
      }
    }
  ]
}