{
  "departement": "29",
  "date": "2026-05-29",
  "stations": [
    {
      "id": "29450001",
      "lat": 48.411,
      "lon": -4.087,
      "cp": "29450",
      "ville": "Sizun",
      "prix": {
        "Gazole": 0.0021190000000000002,
        "SP95": 0.002149,
        "SP98": 0.002179
      },
      "maj_gouv": {
        "Gazole": "2026-05-20 12:33:07",
        "SP95": "2026-05-27 10:17:43",
        "SP98": "2026-05-27 10:17:44"
      }
    },
    {
      "id": "29270003",
      "lat": 48.27519,
      "lon": -3.58155,
      "cp": "29270",
      "ville": "Carhaix-Plouguer",
      "prix": {
        "Gazole": 0.002039,
        "SP95": 0.002068,
        "E85": 0.000798,
        "E10": 0.002045
      },
      "maj_gouv": {
        "Gazole": "2026-05-28 10:40:17",
        "SP95": "2026-05-28 10:40:17",
        "E85": "2026-05-28 10:40:17",
        "E10": "2026-05-28 10:40:17"
      }
    },
    {
      "id": "29610002",
      "lat": 48.57,
      "lon": -3.708,
      "cp": "29610",
      "ville": "PLOUIGNEAU",
      "prix": {
        "Gazole": 0.00215,
        "SP95": 0.0021669999999999997,
        "E10": 0.002132
      },
      "maj_gouv": {
        "Gazole": "2026-05-22 12:24:25",
        "SP95": "2026-05-22 12:24:25",
        "E10": "2026-05-22 12:24:25"
      }
    },
    {
      "id": "29510005",
      "lat": 47.938,
      "lon": -4.023,
      "cp": "29170",
      "ville": "Saint-Évarzec",
      "prix": {
        "Gazole": 0.002049,
        "E85": 0.000819,
        "E10": 0.002029,
        "SP98": 0.002109
      },
      "maj_gouv": {
        "Gazole": "2026-05-28 09:50:38",
        "E85": "2026-04-17 10:14:43",
        "E10": "2026-05-28 09:50:38",
        "SP98": "2026-05-28 09:50:38"
      }
    },
    {
      "id": "29880005",
      "lat": 48.60691644999999,
      "lon": -4.5110560012668,
      "cp": "29880",
      "ville": "Plouguerneau",
      "prix": {
        "Gazole": 0.002169,
        "SP95": 0.002109,
        "SP98": 0.002199
      },
      "maj_gouv": {
        "Gazole": "2026-05-22 12:29:16",
        "SP95": "2026-05-22 12:29:17",
        "SP98": "2026-05-22 12:29:17"
      }
    },
    {
      "id": "29690002",
      "lat": 48.368,
      "lon": -3.749,
      "cp": "29690",
      "ville": "HUELGOAT",
      "prix": {
        "Gazole": 0.002106,
        "SP95": 0.002096,
        "E10": 0.002045
      },
      "maj_gouv": {
        "Gazole": "2026-05-21 14:30:00",
        "SP95": "2026-05-21 14:30:00",
        "E10": "2026-05-21 14:30:00"
      }
    },
    {
      "id": "29400003",
      "lat": 48.515,
      "lon": -4.054,
      "cp": "29400",
      "ville": "Landivisiau",
      "prix": {
        "Gazole": 0.0020440000000000002,
        "E10": 0.002018,
        "SP98": 0.002098
      },
      "maj_gouv": {
        "Gazole": "2026-05-28 17:41:00",
        "E10": "2026-05-28 17:41:00",
        "SP98": "2026-05-28 17:41:00"
      }
    },
    {
      "id": "29590001",
      "lat": 48.298,
      "lon": -4.17,
      "cp": "29590",
      "ville": "LE FAOU",
      "prix": {
        "Gazole": 0.002098,
        "SP95": 0.002095,
        "SP98": 0.0021309999999999996
      },
      "maj_gouv": {
        "Gazole": "2026-05-16 09:20:03",
        "SP95": "2026-05-16 09:20:04",
        "SP98": "2026-05-16 09:20:04"
      }
    },
    {
      "id": "29710004",
      "lat": 48.001,
      "lon": -4.336,
      "cp": "29710",
      "ville": "LANDUDEC",
      "prix": {
        "Gazole": 0.002065,
        "SP95": 0.002105,
        "SP98": 0.002145
      },
      "maj_gouv": {
        "Gazole": "2026-05-28 07:34:24",
        "SP95": "2026-05-26 07:44:46",
        "SP98": "2026-05-26 07:44:46"
      }
    },
    {
      "id": "29250002",
      "lat": 48.679,
      "lon": -3.999,
      "cp": "29250",
      "ville": "SAINT-POL-DE-LéON",
      "prix": {
        "Gazole": 0.0020729999999999998,
        "SP95": 0.0021520000000000003,
        "GPLc": 0.0010680000000000002,
        "E10": 0.002092,
        "SP98": 0.002197
      },
      "maj_gouv": {
        "Gazole": "2026-05-21 09:05:06",
        "SP95": "2026-05-28 09:31:00",
        "GPLc": "2026-04-22 09:39:54",
        "E10": "2026-05-28 09:31:00",
        "SP98": "2026-05-27 08:38:41"
      }
    },
    {
      "id": "29170001",
      "lat": 47.902,
      "lon": -4.027,
      "cp": "29170",
      "ville": "FOUESNANT",
      "prix": {
        "Gazole": 0.0020350000000000004,
        "E85": 0.000795,
        "GPLc": 0.0010249999999999999,
        "E10": 0.002025,
        "SP98": 0.0021070000000000004
      },
      "maj_gouv": {
        "Gazole": "2026-05-28 10:04:34",
        "E85": "2026-05-04 14:50:06",
        "GPLc": "2026-04-23 10:39:42",
        "E10": "2026-05-28 10:04:34",
        "SP98": "2026-05-28 10:04:34"
      }
    },
    {
      "id": "29150003",
      "lat": 48.20011,
      "lon": -4.08904,
      "cp": "29150",
      "ville": "CHâTEAULIN",
      "prix": {
        "Gazole": 0.002068,
        "SP95": 0.002088,
        "E10": 0.002008,
        "SP98": 0.002108
      },
      "maj_gouv": {
        "Gazole": "2026-05-27 10:41:07",
        "SP95": "2026-05-23 09:01:37",
        "E10": "2026-05-27 10:41:07",
        "SP98": "2026-05-27 10:41:07"
      }
    },
    {
      "id": "29120003",
      "lat": 47.86445693,
      "lon": -4.23442414,
      "cp": "29120",
      "ville": "PONT-L'ABBé",
      "prix": {
        "Gazole": 0.002039,
        "SP95": 0.002079,
        "E85": 0.0009350000000000001,
        "GPLc": 0.00107,
        "E10": 0.002039,
        "SP98": 0.002129
      },
      "maj_gouv": {
        "Gazole": "2026-05-28 09:43:01",
        "SP95": "2026-05-22 09:56:27",
        "E85": "2026-04-15 11:45:25",
        "GPLc": "2026-04-07 09:42:39",
        "E10": "2026-05-22 09:56:27",
        "SP98": "2026-05-22 09:56:27"
      }
    },
    {
      "id": "29770003",
      "lat": 48.029076625233,
      "lon": -4.62560169386,
      "cp": "29770",
      "ville": "PRIMELIN",
      "prix": {
        "Gazole": 0.002133,
        "SP95": 0.002089,
        "SP98": 0.002129
      },
      "maj_gouv": {
        "Gazole": "2026-05-15 11:17:03",
        "SP95": "2026-05-23 11:06:15",
        "SP98": "2026-05-23 11:06:15"
      }
    },
    {
      "id": "29360002",
      "lat": 47.798,
      "lon": -3.58,
      "cp": "29360",
      "ville": "Clohars-Carnoët",
      "prix": {
        "Gazole": 0.002099,
        "E10": 0.002039,
        "SP98": 0.002129
      },
      "maj_gouv": {
        "Gazole": "2026-05-22 09:59:58",
        "E10": "2026-05-22 09:59:58",
        "SP98": "2026-05-22 09:59:58"
      }
    },
    {
      "id": "29000016",
      "lat": 47.9819675773,
      "lon": -4.0737967263716,
      "cp": "29000",
      "ville": "Quimper",
      "prix": {
        "Gazole": 0.002049,
        "E10": 0.002029,
        "SP98": 0.002109
      },
      "maj_gouv": {
        "Gazole": "2026-05-28 08:50:25",
        "E10": "2026-05-28 08:50:25",
        "SP98": "2026-05-28 08:50:25"
      }
    },
    {
      "id": "29140002",
      "lat": 47.965,
      "lon": -3.852,
      "cp": "29140",
      "ville": "Rosporden",
      "prix": {
        "Gazole": 0.0020800000000000003,
        "SP95": 0.0021000000000000003,
        "E10": 0.002058,
        "SP98": 0.002145
      },
      "maj_gouv": {
        "Gazole": "2026-05-26 09:38:24",
        "SP95": "2026-05-26 09:38:24",
        "E10": "2026-05-20 16:49:59",
        "SP98": "2026-05-26 09:38:24"
      }
    },
    {
      "id": "29120004",
      "lat": 47.865,
      "lon": -4.23,
      "cp": "29120",
      "ville": "PONT-L'ABBé",
      "prix": {
        "Gazole": 0.0023,
        "E10": 0.002039,
        "SP98": 0.002129
      },
      "maj_gouv": {
        "Gazole": "2026-04-17 11:24:42",
        "E10": "2026-05-27 18:35:31",
        "SP98": "2026-05-21 04:45:15"
      }
    },
    {
      "id": "29250001",
      "lat": 48.6876564083,
      "lon": -3.98867020449,
      "cp": "29250",
      "ville": "SAINT-POL-DE-LéON",
      "prix": {
        "Gazole": 0.002105,
        "SP95": 0.00213,
        "E85": 0.000799,
        "SP98": 0.00214
      },
      "maj_gouv": {
        "Gazole": "2026-05-22 08:28:02",
        "SP95": "2026-05-20 09:04:13",
        "E85": "2026-05-11 07:32:51",
        "SP98": "2026-05-18 08:29:02"
      }
    },
    {
      "id": "29790002",
      "lat": 48.043898054157005,
      "lon": -4.4896091624,
      "cp": "29790",
      "ville": "Pont-Croix",
      "prix": {
        "Gazole": 0.00209,
        "E10": 0.002079,
        "SP98": 0.002164
      },
      "maj_gouv": {
        "Gazole": "2026-05-22 17:40:18",
        "E10": "2026-05-22 17:40:18",
        "SP98": "2026-05-22 17:40:18"
      }
    },
    {
      "id": "59730005",
      "lat": 47.805036148463,
      "lon": -4.2805982128066,
      "cp": "29730",
      "ville": "Guilvinec",
      "prix": {
        "Gazole": 0.0024790000000000003,
        "SP95": 0.002059,
        "SP98": 0.002141
      },
      "maj_gouv": {
        "Gazole": "2026-04-08 11:08:57",
        "SP95": "2026-04-08 11:08:57",
        "SP98": "2026-04-08 11:09:38"
      }
    },
    {
      "id": "29830003",
      "lat": 48.538,
      "lon": -4.659,
      "cp": "29830",
      "ville": "PLOUDALMéZEAU",
      "prix": {
        "Gazole": 0.0021349999999999997,
        "SP95": 0.002146,
        "E10": 0.002099
      },
      "maj_gouv": {
        "Gazole": "2026-05-21 15:09:06",
        "SP95": "2026-05-21 15:09:06",
        "E10": "2026-05-21 15:09:07"
      }
    },
    {
      "id": "29300004",
      "lat": 47.88,
      "lon": -3.554,
      "cp": "29300",
      "ville": "QUIMPERLE",
      "prix": {
        "Gazole": 0.002025,
        "SP95": 0.0021070000000000004,
        "E85": 0.000819,
        "GPLc": 0.001099,
        "E10": 0.002028
      },
      "maj_gouv": {
        "Gazole": "2026-05-28 10:35:42",
        "SP95": "2026-05-28 10:35:42",
        "E85": "2026-04-16 13:54:52",
        "GPLc": "2026-04-27 10:03:26",
        "E10": "2026-05-28 10:35:42"
      }
    },
    {
      "id": "29160003",
      "lat": 48.2506817631,
      "lon": -4.47202790147,
      "cp": "29160",
      "ville": "CROZON",
      "prix": {
        "Gazole": 0.002041,
        "SP95": 0.0020440000000000002,
        "E85": 0.000739,
        "E10": 0.002012
      },
      "maj_gouv": {
        "Gazole": "2026-05-28 08:52:18",
        "SP95": "2026-05-28 08:52:19",
        "E85": "2026-05-28 08:52:19",
        "E10": "2026-05-28 08:52:19"
      }
    },
    {
      "id": "29860003",
      "lat": 48.493,
      "lon": -4.431,
      "cp": "29860",
      "ville": "Plabennec",
      "prix": {
        "Gazole": 0.002079,
        "E85": 0.000798,
        "E10": 0.002039,
        "SP98": 0.002149
      },
      "maj_gouv": {
        "Gazole": "2026-05-27 09:00:00",
        "E85": "2026-05-15 08:58:13",
        "E10": "2026-05-27 09:00:00",
        "SP98": "2026-05-27 09:00:00"
      }
    },
    {
      "id": "29520005",
      "lat": 48.183069029473,
      "lon": -3.8265415659759,
      "cp": "29520",
      "ville": "Chateauneuf du Faou",
      "prix": {
        "Gazole": 0.002068,
        "E85": 0.000795,
        "E10": 0.002059
      },
      "maj_gouv": {
        "Gazole": "2026-05-27 11:06:07",
        "E85": "2026-05-27 11:06:07",
        "E10": "2026-05-27 11:06:07"
      }
    },
    {
      "id": "29290001",
      "lat": 48.4289,
      "lon": -4.61368,
      "cp": "29290",
      "ville": "Saint-Renan",
      "prix": {
        "Gazole": 0.002029,
        "SP95": 0.002049,
        "E85": 0.000819,
        "GPLc": 0.0010500000000000002,
        "E10": 0.001999,
        "SP98": 0.002129
      },
      "maj_gouv": {
        "Gazole": "2026-05-28 10:02:50",
        "SP95": "2026-05-26 11:53:21",
        "E85": "2026-05-23 10:45:58",
        "GPLc": "2026-04-17 10:15:41",
        "E10": "2026-05-26 11:53:21",
        "SP98": "2026-05-26 11:53:21"
      }
    },
    {
      "id": "29100004",
      "lat": 48.082,
      "lon": -4.317,
      "cp": "29100",
      "ville": "Douarnenez",
      "prix": {
        "Gazole": 0.002099,
        "SP95": 0.002079,
        "E10": 0.002009,
        "SP98": 0.002115
      },
      "maj_gouv": {
        "Gazole": "2026-05-27 11:05:21",
        "SP95": "2026-05-27 11:05:21",
        "E10": "2026-05-27 11:05:21",
        "SP98": "2026-05-27 11:05:21"
      }
    },
    {
      "id": "29750001",
      "lat": 47.833,
      "lon": -4.185,
      "cp": "29750",
      "ville": "Loctudy",
      "prix": {
        "Gazole": 0.002049,
        "SP95": 0.002069,
        "SP98": 0.002109
      },
      "maj_gouv": {
        "Gazole": "2026-05-28 11:13:58",
        "SP95": "2026-05-28 11:13:58",
        "SP98": "2026-05-28 11:13:58"
      }
    },
    {
      "id": "29600003",
      "lat": 48.558,
      "lon": -3.824,
      "cp": "29600",
      "ville": "Plourin-lès-Morlaix",
      "prix": {
        "Gazole": 0.002045,
        "SP95": 0.002049,
        "E10": 0.001999
      },
      "maj_gouv": {
        "Gazole": "2026-05-27 09:25:06",
        "SP95": "2026-05-27 09:25:06",
        "E10": "2026-05-27 09:25:06"
      }
    },
    {
      "id": "29290003",
      "lat": 48.37506,
      "lon": -4.64481,
      "cp": "29280",
      "ville": "Locmaria-Plouzané",
      "prix": {
        "Gazole": 0.00217,
        "SP95": 0.002059,
        "SP98": 0.002139
      },
      "maj_gouv": {
        "Gazole": "2026-05-16 08:43:21",
        "SP95": "2026-05-16 08:43:21",
        "SP98": "2026-05-21 11:00:17"
      }
    },
    {
      "id": "29430002",
      "lat": 48.651,
      "lon": -4.185,
      "cp": "29430",
      "ville": "PLOUESCAT",
      "prix": {
        "Gazole": 0.002108,
        "SP95": 0.002094,
        "E10": 0.002042,
        "SP98": 0.002154
      },
      "maj_gouv": {
        "Gazole": "2026-05-20 12:14:34",
        "SP95": "2026-05-20 12:14:34",
        "E10": "2026-05-20 12:14:34",
        "SP98": "2026-05-20 12:14:34"
      }
    },
    {
      "id": "29290002",
      "lat": 48.435,
      "lon": -4.622,
      "cp": "29290",
      "ville": "Saint-Renan",
      "prix": {
        "Gazole": 0.00225,
        "SP95": 0.00199,
        "E85": 0.000909,
        "E10": 0.00199
      },
      "maj_gouv": {
        "Gazole": "2026-05-26 19:07:06",
        "SP95": "2026-05-26 16:28:00",
        "E85": "2026-04-13 07:46:55",
        "E10": "2026-05-26 16:28:00"
      }
    },
    {
      "id": "29000006",
      "lat": 48.01593,
      "lon": -4.08164,
      "cp": "29000",
      "ville": "Quimper",
      "prix": {
        "Gazole": 0.002049,
        "SP95": 0.002069,
        "E10": 0.002029,
        "SP98": 0.002109
      },
      "maj_gouv": {
        "Gazole": "2026-05-28 07:28:28",
        "SP95": "2026-05-28 07:28:28",
        "E10": "2026-05-28 07:28:28",
        "SP98": "2026-05-28 07:28:28"
      }
    },
    {
      "id": "29260005",
      "lat": 48.488019036541004,
      "lon": -4.2940031439909,
      "cp": "29260",
      "ville": "Ploudaniel",
      "prix": {
        "Gazole": 0.002249,
        "SP98": 0.0022890000000000002
      },
      "maj_gouv": {
        "Gazole": "2026-05-20 15:21:03",
        "SP98": "2026-05-26 14:11:03"
      }
    },
    {
      "id": "29600005",
      "lat": 48.572600950939005,
      "lon": -3.8498448524414,
      "cp": "29600",
      "ville": "Saint-Martin-des-Champs",
      "prix": {
        "Gazole": 0.002055,
        "GPLc": 0.0010049999999999998,
        "E10": 0.002039,
        "SP98": 0.002139
      },
      "maj_gouv": {
        "Gazole": "2026-05-28 08:10:39",
        "GPLc": "2026-05-27 08:12:46",
        "E10": "2026-05-28 08:10:39",
        "SP98": "2026-05-28 08:10:39"
      }
    },
    {
      "id": "29800004",
      "lat": 48.472,
      "lon": -4.323,
      "cp": "29800",
      "ville": "SAINT-THONAN",
      "prix": {
        "Gazole": 0.002069,
        "SP95": 0.002074,
        "E10": 0.002039
      },
      "maj_gouv": {
        "Gazole": "2026-05-29 01:17:00",
        "SP95": "2026-05-29 01:17:00",
        "E10": "2026-05-29 01:17:00"
      }
    },
    {
      "id": "29950001",
      "lat": 47.882,
      "lon": -4.112,
      "cp": "29950",
      "ville": "BENODET",
      "prix": {
        "Gazole": 0.0020819999999999996,
        "E10": 0.002059,
        "SP98": 0.002153
      },
      "maj_gouv": {
        "Gazole": "2026-05-26 11:32:58",
        "E10": "2026-05-26 13:34:17",
        "SP98": "2026-05-26 11:32:58"
      }
    },
    {
      "id": "29350001",
      "lat": 47.812185308536,
      "lon": -3.6303261418590997,
      "cp": "29350",
      "ville": "MOëLAN-SUR-MER",
      "prix": {
        "Gazole": 0.002069,
        "E85": 0.000798,
        "E10": 0.002029,
        "SP98": 0.0021190000000000002
      },
      "maj_gouv": {
        "Gazole": "2026-05-28 11:29:37",
        "E85": "2026-05-28 11:29:37",
        "E10": "2026-05-28 11:29:37",
        "SP98": "2026-05-28 11:29:38"
      }
    },
    {
      "id": "29890003",
      "lat": 48.644635,
      "lon": -4.368640999999999,
      "cp": "29890",
      "ville": "KERLOUAN",
      "prix": {
        "Gazole": 0.002068,
        "E10": 0.002072,
        "SP98": 0.0021469999999999996
      },
      "maj_gouv": {
        "Gazole": "2026-05-23 09:00:00",
        "E10": "2026-05-23 09:00:00",
        "SP98": "2026-05-23 09:00:00"
      }
    },
    {
      "id": "29740001",
      "lat": 47.824659584100004,
      "lon": -4.24275383367,
      "cp": "29740",
      "ville": "PLOBANNALEC-LESCONIL",
      "prix": {
        "Gazole": 0.0021070000000000004,
        "SP95": 0.002118,
        "SP98": 0.002154
      },
      "maj_gouv": {
        "Gazole": "2026-05-26 08:57:34",
        "SP95": "2026-05-26 08:57:34",
        "SP98": "2026-05-26 08:57:34"
      }
    },
    {
      "id": "29420001",
      "lat": 48.628,
      "lon": -3.988,
      "cp": "29420",
      "ville": "Plouénan",
      "prix": {
        "Gazole": 0.002099,
        "SP95": 0.002115,
        "SP98": 0.002169
      },
      "maj_gouv": {
        "Gazole": "2026-05-19 09:33:27",
        "SP95": "2026-05-23 09:20:31",
        "SP98": "2026-05-28 09:27:59"
      }
    },
    {
      "id": "29228001",
      "lat": 48.43,
      "lon": -4.472,
      "cp": "29200",
      "ville": "BREST",
      "prix": {
        "Gazole": 0.002029,
        "SP95": 0.00207,
        "E85": 0.000699,
        "E10": 0.001999
      },
      "maj_gouv": {
        "Gazole": "2026-05-28 10:23:59",
        "SP95": "2026-05-28 10:23:59",
        "E85": "2026-04-10 09:56:40",
        "E10": "2026-05-28 10:23:59"
      }
    },
    {
      "id": "29000014",
      "lat": 48.00916273,
      "lon": -4.10575563,
      "cp": "29000",
      "ville": "QUIMPER",
      "prix": {
        "Gazole": 0.002049,
        "SP95": 0.002069,
        "SP98": 0.002109
      },
      "maj_gouv": {
        "Gazole": "2026-05-28 07:29:02",
        "SP95": "2026-05-28 07:29:02",
        "SP98": "2026-05-28 07:29:02"
      }
    },
    {
      "id": "29200016",
      "lat": 48.393,
      "lon": -4.45,
      "cp": "29200",
      "ville": "BREST",
      "prix": {
        "Gazole": 0.0019890000000000003,
        "E85": 0.000829
      },
      "maj_gouv": {
        "Gazole": "2026-05-29 00:01:00",
        "E85": "2026-05-29 00:01:00"
      }
    },
    {
      "id": "29860002",
      "lat": 48.503,
      "lon": -4.427,
      "cp": "29860",
      "ville": "PLABENNEC",
      "prix": {
        "Gazole": 0.002078,
        "SP95": 0.0021219999999999998,
        "SP98": 0.002132
      },
      "maj_gouv": {
        "Gazole": "2026-05-27 11:43:27",
        "SP95": "2026-05-27 11:43:28",
        "SP98": "2026-05-27 11:43:28"
      }
    },
    {
      "id": "29000015",
      "lat": 47.974,
      "lon": -4.092,
      "cp": "29000",
      "ville": "Quimper",
      "prix": {
        "Gazole": 0.002049,
        "GPLc": 0.001035,
        "E10": 0.002002,
        "SP98": 0.0021190000000000002
      },
      "maj_gouv": {
        "Gazole": "2026-05-28 08:00:26",
        "GPLc": "2026-04-21 09:17:44",
        "E10": "2026-05-27 09:36:49",
        "SP98": "2026-05-22 08:56:22"
      }
    },
    {
      "id": "29419001",
      "lat": 48.466,
      "lon": -4.256,
      "cp": "29800",
      "ville": "Landerneau",
      "prix": {
        "Gazole": 0.002069,
        "SP95": 0.00207,
        "E85": 0.000799,
        "E10": 0.002039,
        "SP98": 0.002109
      },
      "maj_gouv": {
        "Gazole": "2026-05-29 01:17:00",
        "SP95": "2026-05-29 01:17:00",
        "E85": "2026-05-29 01:17:00",
        "E10": "2026-05-29 01:17:00",
        "SP98": "2026-05-29 01:17:00"
      }
    },
    {
      "id": "29200002",
      "lat": 48.4075684317,
      "lon": -4.49567358546,
      "cp": "29200",
      "ville": "BREST",
      "prix": {
        "Gazole": 0.002149,
        "SP95": 0.002099,
        "SP98": 0.002149
      },
      "maj_gouv": {
        "Gazole": "2026-05-18 10:34:02",
        "SP95": "2026-05-18 10:34:02",
        "SP98": "2026-05-18 10:34:03"
      }
    },
    {
      "id": "29850001",
      "lat": 48.447642699999996,
      "lon": -4.4645979,
      "cp": "29850",
      "ville": "Gouesnou",
      "prix": {
        "Gazole": 0.00225,
        "SP95": 0.00199
      },
      "maj_gouv": {
        "Gazole": "2026-04-28 18:47:19",
        "SP95": "2026-04-28 18:47:19"
      }
    },
    {
      "id": "29620001",
      "lat": 48.642,
      "lon": -3.72,
      "cp": "29620",
      "ville": "LANMEUR",
      "prix": {
        "Gazole": 0.002055,
        "E85": 0.000799,
        "E10": 0.002059,
        "SP98": 0.002139
      },
      "maj_gouv": {
        "Gazole": "2026-05-27 09:29:45",
        "E85": "2026-04-17 08:52:15",
        "E10": "2026-05-27 09:29:45",
        "SP98": "2026-05-27 09:29:45"
      }
    },
    {
      "id": "29280003",
      "lat": 48.379,
      "lon": -4.601,
      "cp": "29280",
      "ville": "PLOUZANE",
      "prix": {
        "Gazole": 0.002069,
        "SP95": 0.002069,
        "E10": 0.001999
      },
      "maj_gouv": {
        "Gazole": "2026-05-27 13:34:54",
        "SP95": "2026-05-27 13:34:54",
        "E10": "2026-05-27 13:34:54"
      }
    },
    {
      "id": "29150004",
      "lat": 48.196,
      "lon": -4.091,
      "cp": "29150",
      "ville": "CHâTEAULIN",
      "prix": {
        "Gazole": 0.002069,
        "E10": 0.002009,
        "SP98": 0.002109
      },
      "maj_gouv": {
        "Gazole": "2026-05-27 09:33:16",
        "E10": "2026-05-27 09:33:16",
        "SP98": "2026-05-27 09:33:17"
      }
    },
    {
      "id": "29700002",
      "lat": 47.98,
      "lon": -4.182,
      "cp": "29700",
      "ville": "PLUGUFFAN",
      "prix": {
        "Gazole": 0.002069,
        "E10": 0.002039,
        "SP98": 0.002139
      },
      "maj_gouv": {
        "Gazole": "2026-05-27 15:03:09",
        "E10": "2026-05-27 15:03:09",
        "SP98": "2026-05-22 14:04:06"
      }
    },
    {
      "id": "29170005",
      "lat": 47.895,
      "lon": -4.017,
      "cp": "29170",
      "ville": "FOUESNANT",
      "prix": {
        "Gazole": 0.0020350000000000004,
        "SP95": 0.002069,
        "SP98": 0.0021070000000000004
      },
      "maj_gouv": {
        "Gazole": "2026-05-28 10:21:26",
        "SP95": "2026-05-28 10:21:26",
        "SP98": "2026-05-28 10:21:26"
      }
    },
    {
      "id": "29520001",
      "lat": 48.195,
      "lon": -3.82,
      "cp": "29520",
      "ville": "CHâTEAUNEUF-DU-FAOU",
      "prix": {
        "Gazole": 0.002068,
        "GPLc": 0.0010500000000000002,
        "E10": 0.002059,
        "SP98": 0.002129
      },
      "maj_gouv": {
        "Gazole": "2026-05-27 11:05:31",
        "GPLc": "2026-05-27 11:05:32",
        "E10": "2026-05-27 11:05:32",
        "SP98": "2026-05-27 11:05:32"
      }
    },
    {
      "id": "29600004",
      "lat": 48.581,
      "lon": -3.864,
      "cp": "29600",
      "ville": "Saint-Martin-des-Champs",
      "prix": {
        "Gazole": 0.002053,
        "E10": 0.00199
      },
      "maj_gouv": {
        "Gazole": "2026-05-29 00:01:00",
        "E10": "2026-05-29 00:01:00"
      }
    },
    {
      "id": "29400001",
      "lat": 48.50972,
      "lon": -4.07554,
      "cp": "29400",
      "ville": "LANDIVISIAU",
      "prix": {
        "Gazole": 0.002039,
        "SP95": 0.002059,
        "E85": 0.000799,
        "SP98": 0.0021190000000000002
      },
      "maj_gouv": {
        "Gazole": "2026-05-28 17:13:47",
        "SP95": "2026-05-28 17:13:47",
        "E85": "2026-05-06 09:32:18",
        "SP98": "2026-05-28 17:13:47"
      }
    },
    {
      "id": "29820002",
      "lat": 48.376,
      "lon": -4.555,
      "cp": "29200",
      "ville": "Brest",
      "prix": {
        "Gazole": 0.0021190000000000002,
        "E10": 0.002089,
        "SP98": 0.002189
      },
      "maj_gouv": {
        "Gazole": "2026-05-22 09:42:09",
        "E10": "2026-05-23 11:02:57",
        "SP98": "2026-05-23 11:02:57"
      }
    },
    {
      "id": "29000013",
      "lat": 48.00023,
      "lon": -4.08988,
      "cp": "29000",
      "ville": "QUIMPER",
      "prix": {
        "Gazole": 0.0019890000000000003,
        "GPLc": 0.0010329999999999998
      },
      "maj_gouv": {
        "Gazole": "2026-05-29 00:01:00",
        "GPLc": "2026-05-29 00:01:00"
      }
    },
    {
      "id": "29140008",
      "lat": 47.959,
      "lon": -3.958,
      "cp": "29140",
      "ville": "Saint-Yvi",
      "prix": {
        "Gazole": 0.0019890000000000003,
        "E85": 0.000839,
        "E10": 0.001961,
        "SP98": 0.00199
      },
      "maj_gouv": {
        "Gazole": "2026-05-29 00:01:00",
        "E85": "2026-05-29 00:01:00",
        "E10": "2026-05-29 00:01:00",
        "SP98": "2026-05-29 00:01:00"
      }
    },
    {
      "id": "29900004",
      "lat": 47.87,
      "lon": -3.895,
      "cp": "29900",
      "ville": "CONCARNEAU",
      "prix": {
        "Gazole": 0.002049,
        "E10": 0.001999,
        "SP98": 0.002099
      },
      "maj_gouv": {
        "Gazole": "2026-05-28 17:36:54",
        "E10": "2026-05-28 17:36:54",
        "SP98": "2026-05-28 17:36:54"
      }
    },
    {
      "id": "29120001",
      "lat": 47.885,
      "lon": -4.169,
      "cp": "29120",
      "ville": "Combrit",
      "prix": {
        "Gazole": 0.002079,
        "E85": 0.000795,
        "E10": 0.002059,
        "SP98": 0.002129
      },
      "maj_gouv": {
        "Gazole": "2026-05-21 09:32:03",
        "E85": "2026-04-29 11:52:00",
        "E10": "2026-05-17 10:12:13",
        "SP98": "2026-05-17 10:12:13"
      }
    },
    {
      "id": "29650001",
      "lat": 48.514,
      "lon": -3.588,
      "cp": "29650",
      "ville": "Guerlesquin",
      "prix": {
        "Gazole": 0.002115,
        "SP95": 0.00217,
        "SP98": 0.0022080000000000003
      },
      "maj_gouv": {
        "Gazole": "2026-05-21 09:34:35",
        "SP95": "2026-05-21 09:34:36",
        "SP98": "2026-05-21 09:34:36"
      }
    },
    {
      "id": "29770002",
      "lat": 48.028807028900005,
      "lon": -4.55726292638,
      "cp": "29770",
      "ville": "AUDIERNE",
      "prix": {
        "Gazole": 0.002065,
        "SP95": 0.002089,
        "E10": 0.002059,
        "SP98": 0.002129
      },
      "maj_gouv": {
        "Gazole": "2026-05-28 10:39:46",
        "SP95": "2026-05-23 09:43:51",
        "E10": "2026-05-23 09:43:51",
        "SP98": "2026-05-23 09:43:51"
      }
    },
    {
      "id": "29120005",
      "lat": 47.842,
      "lon": -4.283,
      "cp": "29120",
      "ville": "PLOMEUR",
      "prix": {
        "Gazole": 0.002049,
        "SP95": 0.002069,
        "SP98": 0.002109
      },
      "maj_gouv": {
        "Gazole": "2026-05-28 09:52:45",
        "SP95": "2026-05-28 09:52:45",
        "SP98": "2026-05-28 09:52:45"
      }
    },
    {
      "id": "29710002",
      "lat": 48.014,
      "lon": -4.204,
      "cp": "29710",
      "ville": "Plonéis",
      "prix": {
        "Gazole": 0.002069,
        "E85": 0.000798,
        "E10": 0.0020350000000000004,
        "SP98": 0.002129
      },
      "maj_gouv": {
        "Gazole": "2026-05-28 16:06:40",
        "E85": "2026-05-19 14:07:18",
        "E10": "2026-05-28 16:06:40",
        "SP98": "2026-05-28 16:06:40"
      }
    },
    {
      "id": "29800003",
      "lat": 48.45,
      "lon": -4.265,
      "cp": "29800",
      "ville": "Landerneau",
      "prix": {
        "Gazole": 0.002089,
        "E85": 0.000819,
        "E10": 0.002059,
        "SP98": 0.002129
      },
      "maj_gouv": {
        "Gazole": "2026-05-27 09:33:18",
        "E85": "2026-05-22 10:35:24",
        "E10": "2026-05-23 12:13:25",
        "SP98": "2026-05-22 10:35:24"
      }
    },
    {
      "id": "29140010",
      "lat": 47.914984000000004,
      "lon": -3.84233,
      "cp": "29140",
      "ville": "MELGVEN",
      "prix": {
        "Gazole": 0.002129,
        "SP95": 0.002099,
        "SP98": 0.002189
      },
      "maj_gouv": {
        "Gazole": "2026-05-19 09:52:04",
        "SP95": "2026-05-13 08:49:06",
        "SP98": "2026-05-13 08:49:06"
      }
    },
    {
      "id": "29200004",
      "lat": 48.41,
      "lon": -4.515,
      "cp": "29200",
      "ville": "BREST",
      "prix": {
        "Gazole": 0.002007,
        "E85": 0.000829,
        "GPLc": 0.00107
      },
      "maj_gouv": {
        "Gazole": "2026-05-28 07:14:36",
        "E85": "2026-05-28 07:14:36",
        "GPLc": "2026-05-28 07:14:36"
      }
    },
    {
      "id": "29300002",
      "lat": 47.871,
      "lon": -3.567,
      "cp": "29300",
      "ville": "Quimperlé",
      "prix": {
        "Gazole": 0.002025,
        "SP95": 0.0021070000000000004,
        "E10": 0.002028,
        "SP98": 0.002117
      },
      "maj_gouv": {
        "Gazole": "2026-05-29 01:17:00",
        "SP95": "2026-05-29 01:17:00",
        "E10": "2026-05-29 01:17:00",
        "SP98": "2026-05-29 01:17:00"
      }
    },
    {
      "id": "29300003",
      "lat": 47.87,
      "lon": -3.589,
      "cp": "29300",
      "ville": "MELLAC",
      "prix": {
        "Gazole": 0.002055,
        "GPLc": 0.001135,
        "E10": 0.002028
      },
      "maj_gouv": {
        "Gazole": "2026-05-28 10:38:11",
        "GPLc": "2026-04-23 09:16:47",
        "E10": "2026-05-28 10:38:11"
      }
    },
    {
      "id": "29260002",
      "lat": 48.55312,
      "lon": -4.30937,
      "cp": "29260",
      "ville": "Ploudaniel",
      "prix": {
        "Gazole": 0.0020710000000000004,
        "E10": 0.00199,
        "SP98": 0.00199
      },
      "maj_gouv": {
        "Gazole": "2026-05-28 06:00:00",
        "E10": "2026-05-28 06:00:00",
        "SP98": "2026-05-28 06:00:00"
      }
    },
    {
      "id": "29900003",
      "lat": 47.89,
      "lon": -3.917,
      "cp": "29900",
      "ville": "CONCARNEAU",
      "prix": {
        "Gazole": 0.0020350000000000004,
        "SP95": 0.002069,
        "E10": 0.002025,
        "SP98": 0.0021070000000000004
      },
      "maj_gouv": {
        "Gazole": "2026-05-28 08:37:26",
        "SP95": "2026-05-28 08:37:26",
        "E10": "2026-05-28 08:37:26",
        "SP98": "2026-05-28 08:37:26"
      }
    },
    {
      "id": "29660002",
      "lat": 48.66,
      "lon": -3.919,
      "cp": "29660",
      "ville": "CARANTEC",
      "prix": {
        "Gazole": 0.002129,
        "SP95": 0.0021349999999999997,
        "E10": 0.002117
      },
      "maj_gouv": {
        "Gazole": "2026-05-21 10:45:15",
        "SP95": "2026-05-21 10:45:16",
        "E10": "2026-05-28 09:11:58"
      }
    },
    {
      "id": "29460003",
      "lat": 48.361,
      "lon": -4.26,
      "cp": "29460",
      "ville": "DAOULAS",
      "prix": {
        "Gazole": 0.00225,
        "E10": 0.00199
      },
      "maj_gouv": {
        "Gazole": "2026-04-14 11:48:40",
        "E10": "2026-03-20 17:16:53"
      }
    },
    {
      "id": "29403001",
      "lat": 48.503958653800005,
      "lon": -4.0732258805,
      "cp": "29400",
      "ville": "LANDIVISIAU",
      "prix": {
        "Gazole": 0.0020350000000000004,
        "E85": 0.000799,
        "E10": 0.002009,
        "SP98": 0.002125
      },
      "maj_gouv": {
        "Gazole": "2026-05-28 11:47:32",
        "E85": "2026-05-07 09:42:57",
        "E10": "2026-05-28 11:47:33",
        "SP98": "2026-05-28 11:47:33"
      }
    },
    {
      "id": "29120007",
      "lat": 47.86938,
      "lon": -4.22187,
      "cp": "29120",
      "ville": "Pont-l'Abbé",
      "prix": {
        "Gazole": 0.0019890000000000003
      },
      "maj_gouv": {
        "Gazole": "2026-05-29 00:01:00"
      }
    },
    {
      "id": "29700001",
      "lat": 47.936,
      "lon": -4.157,
      "cp": "29700",
      "ville": "PLOMELIN",
      "prix": {
        "Gazole": 0.002169,
        "SP95": 0.002149
      },
      "maj_gouv": {
        "Gazole": "2026-05-21 08:16:10",
        "SP95": "2026-05-21 08:16:10"
      }
    },
    {
      "id": "29500004",
      "lat": 47.997,
      "lon": -4.027,
      "cp": "29500",
      "ville": "Ergué-Gabéric",
      "prix": {
        "Gazole": 0.0022389999999999997,
        "SP98": 0.0022589999999999997
      },
      "maj_gouv": {
        "Gazole": "2026-05-12 14:00:44",
        "SP98": "2026-04-10 10:54:20"
      }
    },
    {
      "id": "29260004",
      "lat": 48.563,
      "lon": -4.341,
      "cp": "29260",
      "ville": "LE FOLGOëT",
      "prix": {
        "Gazole": 0.001999,
        "SP95": 0.002069,
        "E10": 0.002029
      },
      "maj_gouv": {
        "Gazole": "2026-05-28 08:30:00",
        "SP95": "2026-05-28 08:30:00",
        "E10": "2026-05-28 08:30:00"
      }
    },
    {
      "id": "29470003",
      "lat": 48.383,
      "lon": -4.348,
      "cp": "29470",
      "ville": "PLOUGASTEL-DAOULAS",
      "prix": {
        "Gazole": 0.002049,
        "SP95": 0.002079,
        "E85": 0.000759,
        "E10": 0.002039,
        "SP98": 0.0021190000000000002
      },
      "maj_gouv": {
        "Gazole": "2026-05-27 11:26:43",
        "SP95": "2026-05-27 11:26:43",
        "E85": "2026-05-26 10:35:12",
        "E10": "2026-05-27 11:26:43",
        "SP98": "2026-05-26 09:10:32"
      }
    },
    {
      "id": "29280001",
      "lat": 48.372,
      "lon": -4.589,
      "cp": "29280",
      "ville": "Plouzané",
      "prix": {
        "Gazole": 0.001999,
        "SP95": 0.002029,
        "E85": 0.000819,
        "GPLc": 0.0010500000000000002,
        "E10": 0.0019890000000000003,
        "SP98": 0.002109
      },
      "maj_gouv": {
        "Gazole": "2026-05-28 10:32:00",
        "SP95": "2026-05-28 10:32:00",
        "E85": "2026-05-22 09:55:15",
        "GPLc": "2026-04-17 09:42:24",
        "E10": "2026-05-28 10:32:00",
        "SP98": "2026-05-28 10:32:00"
      }
    },
    {
      "id": "29233001",
      "lat": 48.664,
      "lon": -4.1,
      "cp": "29233",
      "ville": "CLEDER",
      "prix": {
        "Gazole": 0.002105,
        "SP95": 0.002149,
        "SP98": 0.0021869999999999997
      },
      "maj_gouv": {
        "Gazole": "2026-05-22 19:07:59",
        "SP95": "2026-05-22 19:07:59",
        "SP98": "2026-05-22 19:07:59"
      }
    },
    {
      "id": "29170004",
      "lat": 47.898,
      "lon": -4.017,
      "cp": "29170",
      "ville": "FOUESNANT",
      "prix": {
        "Gazole": 0.0020710000000000004
      },
      "maj_gouv": {
        "Gazole": "2026-05-28 08:28:49"
      }
    },
    {
      "id": "29143001",
      "lat": 47.98644,
      "lon": -4.42386,
      "cp": "29710",
      "ville": "Plozévet",
      "prix": {
        "Gazole": 0.002063,
        "E10": 0.002018,
        "SP98": 0.002126
      },
      "maj_gouv": {
        "Gazole": "2026-05-28 06:09:43",
        "E10": "2026-05-16 06:02:56",
        "SP98": "2026-05-16 06:02:30"
      }
    },
    {
      "id": "29930002",
      "lat": 47.858,
      "lon": -3.75,
      "cp": "29930",
      "ville": "Pont-Aven",
      "prix": {
        "Gazole": 0.002199,
        "E10": 0.002099,
        "SP98": 0.002199
      },
      "maj_gouv": {
        "Gazole": "2026-05-19 12:03:45",
        "E10": "2026-05-19 09:52:21",
        "SP98": "2026-05-19 09:52:21"
      }
    },
    {
      "id": "29540001",
      "lat": 48.199,
      "lon": -3.7,
      "cp": "29540",
      "ville": "Spezet",
      "prix": {
        "Gazole": 0.002052,
        "E85": 0.000859,
        "E10": 0.002039,
        "SP98": 0.002129
      },
      "maj_gouv": {
        "Gazole": "2026-05-27 14:33:02",
        "E85": "2026-05-18 12:29:40",
        "E10": "2026-05-27 14:33:02",
        "SP98": "2026-05-27 14:33:02"
      }
    },
    {
      "id": "29440001",
      "lat": 48.606,
      "lon": -4.115,
      "cp": "29440",
      "ville": "Plouzévédé",
      "prix": {
        "Gazole": 0.002089,
        "E10": 0.002039,
        "SP98": 0.0021379999999999997
      },
      "maj_gouv": {
        "Gazole": "2026-05-27 09:56:21",
        "E10": "2026-05-27 09:56:21",
        "SP98": "2026-05-27 09:56:21"
      }
    },
    {
      "id": "29410001",
      "lat": 48.518,
      "lon": -3.868,
      "cp": "29410",
      "ville": "PLEYBER-CHRIST",
      "prix": {
        "Gazole": 0.002049,
        "SP95": 0.002085,
        "SP98": 0.002155
      },
      "maj_gouv": {
        "Gazole": "2026-05-28 08:06:26",
        "SP95": "2026-05-28 08:06:27",
        "SP98": "2026-05-26 09:44:44"
      }
    },
    {
      "id": "29100007",
      "lat": 48.081,
      "lon": -4.328,
      "cp": "29100",
      "ville": "DOUARNENEZ",
      "prix": {
        "Gazole": 0.0019890000000000003,
        "E85": 0.000839,
        "E10": 0.001961,
        "SP98": 0.00199
      },
      "maj_gouv": {
        "Gazole": "2026-05-29 00:01:00",
        "E85": "2026-05-29 00:01:00",
        "E10": "2026-05-29 00:01:00",
        "SP98": "2026-05-29 00:01:00"
      }
    },
    {
      "id": "29470004",
      "lat": 48.37935,
      "lon": -4.37494,
      "cp": "29470",
      "ville": "PLOUGASTEL-DAOULAS",
      "prix": {
        "Gazole": 0.0021349999999999997,
        "SP95": 0.002149,
        "E10": 0.002101,
        "SP98": 0.002185
      },
      "maj_gouv": {
        "Gazole": "2026-05-23 08:26:12",
        "SP95": "2026-05-23 08:26:13",
        "E10": "2026-05-23 08:26:13",
        "SP98": "2026-05-23 08:26:13"
      }
    },
    {
      "id": "29630002",
      "lat": 48.694,
      "lon": -3.788,
      "cp": "29630",
      "ville": "Plougasnou",
      "prix": {
        "Gazole": 0.002099,
        "SP95": 0.002099
      },
      "maj_gouv": {
        "Gazole": "2026-05-26 10:10:12",
        "SP95": "2026-05-26 10:10:12"
      }
    },
    {
      "id": "29100003",
      "lat": 48.09234,
      "lon": -4.34503,
      "cp": "29100",
      "ville": "Douarnenez",
      "prix": {
        "Gazole": 0.002027,
        "SP95": 0.00207,
        "SP98": 0.002104
      },
      "maj_gouv": {
        "Gazole": "2026-05-27 09:28:44",
        "SP95": "2026-05-27 09:28:44",
        "SP98": "2026-05-27 09:28:44"
      }
    },
    {
      "id": "29640001",
      "lat": 48.521,
      "lon": -3.715,
      "cp": "29640",
      "ville": "PLOUGONVEN",
      "prix": {
        "Gazole": 0.002139,
        "SP95": 0.002149,
        "E10": 0.002109
      },
      "maj_gouv": {
        "Gazole": "2026-05-22 09:46:52",
        "SP95": "2026-05-22 09:46:52",
        "E10": "2026-05-22 09:46:52"
      }
    },
    {
      "id": "29340002",
      "lat": 47.84604,
      "lon": -3.68699,
      "cp": "29340",
      "ville": "Riec-sur-Belon",
      "prix": {
        "Gazole": 0.002025,
        "SP95": 0.0021070000000000004,
        "E10": 0.002028
      },
      "maj_gouv": {
        "Gazole": "2026-05-28 10:35:24",
        "SP95": "2026-05-28 10:35:24",
        "E10": "2026-05-28 10:35:24"
      }
    },
    {
      "id": "29129001",
      "lat": 47.824,
      "lon": -3.794,
      "cp": "29920",
      "ville": "Névez",
      "prix": {
        "Gazole": 0.002089,
        "E85": 0.000798,
        "E10": 0.002019,
        "SP98": 0.0021190000000000002
      },
      "maj_gouv": {
        "Gazole": "2026-05-26 12:02:07",
        "E85": "2026-05-15 18:43:23",
        "E10": "2026-05-26 12:02:07",
        "SP98": "2026-05-26 12:02:07"
      }
    },
    {
      "id": "29200014",
      "lat": 48.401,
      "lon": -4.446,
      "cp": "29200",
      "ville": "BREST",
      "prix": {
        "Gazole": 0.002065,
        "E10": 0.002029,
        "SP98": 0.002109
      },
      "maj_gouv": {
        "Gazole": "2026-05-26 10:35:33",
        "E10": "2026-05-26 10:35:34",
        "SP98": "2026-05-26 10:35:34"
      }
    },
    {
      "id": "29180001",
      "lat": 48.08,
      "lon": -4.194,
      "cp": "29180",
      "ville": "Plogonnec",
      "prix": {
        "Gazole": 0.002069,
        "SP95": 0.002079,
        "SP98": 0.0021190000000000002
      },
      "maj_gouv": {
        "Gazole": "2026-05-28 08:16:11",
        "SP95": "2026-05-28 08:16:11",
        "SP98": "2026-05-28 08:16:11"
      }
    },
    {
      "id": "29800001",
      "lat": 48.445,
      "lon": -4.258,
      "cp": "29800",
      "ville": "LANDERNEAU",
      "prix": {
        "Gazole": 0.00199,
        "E10": 0.00199
      },
      "maj_gouv": {
        "Gazole": "2026-05-28 07:50:25",
        "E10": "2026-05-28 07:50:26"
      }
    },
    {
      "id": "29420003",
      "lat": 48.578,
      "lon": -4.033,
      "cp": "29420",
      "ville": "Plouvorn",
      "prix": {
        "Gazole": 0.002129,
        "SP95": 0.002089,
        "SP98": 0.002149
      },
      "maj_gouv": {
        "Gazole": "2026-05-21 13:48:58",
        "SP95": "2026-05-21 13:48:58",
        "SP98": "2026-05-21 13:48:58"
      }
    },
    {
      "id": "29810002",
      "lat": 48.432,
      "lon": -4.721,
      "cp": "29810",
      "ville": "Plouarzel",
      "prix": {
        "Gazole": 0.002049,
        "E10": 0.002049,
        "SP98": 0.002129
      },
      "maj_gouv": {
        "Gazole": "2026-05-27 08:05:01",
        "E10": "2026-05-20 08:35:35",
        "SP98": "2026-05-27 08:05:02"
      }
    },
    {
      "id": "29833001",
      "lat": 48.27996,
      "lon": -3.56533,
      "cp": "29270",
      "ville": "CARHAIX-PLOUGUER",
      "prix": {
        "Gazole": 0.002039,
        "E10": 0.002045,
        "SP98": 0.002149
      },
      "maj_gouv": {
        "Gazole": "2026-05-28 09:34:46",
        "E10": "2026-05-28 09:34:46",
        "SP98": "2026-05-28 09:34:46"
      }
    },
    {
      "id": "29870003",
      "lat": 48.573,
      "lon": -4.512,
      "cp": "29870",
      "ville": "Lannilis",
      "prix": {
        "Gazole": 0.0020710000000000004,
        "E10": 0.00199,
        "SP98": 0.00199
      },
      "maj_gouv": {
        "Gazole": "2026-05-28 08:40:09",
        "E10": "2026-05-28 14:16:02",
        "SP98": "2026-05-28 14:16:02"
      }
    },
    {
      "id": "29200015",
      "lat": 48.413,
      "lon": -4.49,
      "cp": "29200",
      "ville": "BREST",
      "prix": {
        "Gazole": 0.0019890000000000003,
        "E10": 0.001961
      },
      "maj_gouv": {
        "Gazole": "2026-05-29 00:01:00",
        "E10": "2026-05-29 00:01:00"
      }
    },
    {
      "id": "29780001",
      "lat": 48.01695,
      "lon": -4.50181,
      "cp": "29780",
      "ville": "PLOUHINEC",
      "prix": {
        "Gazole": 0.002169,
        "SP95": 0.002108,
        "SP98": 0.002193
      },
      "maj_gouv": {
        "Gazole": "2026-05-11 09:11:33",
        "SP95": "2026-05-22 10:17:28",
        "SP98": "2026-05-22 10:17:28"
      }
    },
    {
      "id": "29380001",
      "lat": 47.927,
      "lon": -3.704,
      "cp": "29380",
      "ville": "BANNALEC",
      "prix": {
        "Gazole": 0.002045,
        "SP95": 0.002069,
        "E10": 0.002005,
        "SP98": 0.002115
      },
      "maj_gouv": {
        "Gazole": "2026-05-28 06:38:10",
        "SP95": "2026-05-28 06:38:10",
        "E10": "2026-05-28 06:38:11",
        "SP98": "2026-05-28 06:38:11"
      }
    },
    {
      "id": "29760004",
      "lat": 47.8146,
      "lon": -4.33281,
      "cp": "29760",
      "ville": "Penmarch",
      "prix": {
        "Gazole": 0.002079,
        "SP95": 0.002059,
        "SP98": 0.002099
      },
      "maj_gouv": {
        "Gazole": "2026-05-18 12:11:04",
        "SP95": "2026-05-18 12:11:04",
        "SP98": "2026-05-18 12:11:04"
      }
    },
    {
      "id": "29200017",
      "lat": 48.413,
      "lon": -4.49,
      "cp": "29200",
      "ville": "BREST",
      "prix": {
        "Gazole": 0.0019890000000000003,
        "E85": 0.000829,
        "GPLc": 0.001019
      },
      "maj_gouv": {
        "Gazole": "2026-05-29 00:01:00",
        "E85": "2026-05-29 00:01:00",
        "GPLc": "2026-05-29 00:01:00"
      }
    },
    {
      "id": "29420002",
      "lat": 48.582,
      "lon": -4.048,
      "cp": "29420",
      "ville": "PLOUVORN",
      "prix": {
        "Gazole": 0.002199,
        "SP95": 0.00199,
        "SP98": 0.00199
      },
      "maj_gouv": {
        "Gazole": "2026-05-28 07:41:26",
        "SP95": "2026-05-28 07:41:26",
        "SP98": "2026-05-28 07:41:26"
      }
    },
    {
      "id": "29480001",
      "lat": 48.4,
      "lon": -4.406,
      "cp": "29480",
      "ville": "LE RELECQ-KERHUON",
      "prix": {
        "Gazole": 0.002023,
        "E85": 0.000714,
        "E10": 0.0020099999999999996,
        "SP98": 0.002109
      },
      "maj_gouv": {
        "Gazole": "2026-05-29 01:16:00",
        "E85": "2026-05-29 01:16:00",
        "E10": "2026-05-29 01:16:00",
        "SP98": "2026-05-29 01:16:00"
      }
    },
    {
      "id": "29217001",
      "lat": 48.342,
      "lon": -4.723,
      "cp": "29217",
      "ville": "PLOUGONVELIN",
      "prix": {
        "Gazole": 0.002049,
        "E85": 0.000798,
        "E10": 0.001992,
        "SP98": 0.002096
      },
      "maj_gouv": {
        "Gazole": "2026-05-28 10:03:37",
        "E85": "2026-05-22 10:07:28",
        "E10": "2026-05-28 10:03:37",
        "SP98": "2026-05-28 10:03:37"
      }
    },
    {
      "id": "29196001",
      "lat": 47.984,
      "lon": -4.11,
      "cp": "29000",
      "ville": "QUIMPER",
      "prix": {
        "Gazole": 0.002096,
        "SP95": 0.002092,
        "GPLc": 0.0010329999999999998,
        "E10": 0.002004,
        "SP98": 0.00215
      },
      "maj_gouv": {
        "Gazole": "2026-05-26 09:52:09",
        "SP95": "2026-05-28 09:23:45",
        "GPLc": "2026-05-15 09:45:48",
        "E10": "2026-05-27 08:55:46",
        "SP98": "2026-05-27 08:55:47"
      }
    },
    {
      "id": "29390002",
      "lat": 48.02,
      "lon": -3.719,
      "cp": "29390",
      "ville": "SCAER",
      "prix": {
        "Gazole": 0.0020310000000000003,
        "SP95": 0.0020670000000000003,
        "SP98": 0.002113
      },
      "maj_gouv": {
        "Gazole": "2026-05-29 01:17:00",
        "SP95": "2026-05-29 01:17:00",
        "SP98": "2026-05-29 01:17:00"
      }
    },
    {
      "id": "29150005",
      "lat": 48.155,
      "lon": -4.141,
      "cp": "29150",
      "ville": "Cast",
      "prix": {
        "Gazole": 0.00219
      },
      "maj_gouv": {
        "Gazole": "2026-05-27 07:59:20"
      }
    },
    {
      "id": "29570001",
      "lat": 48.27454,
      "lon": -4.59482,
      "cp": "29570",
      "ville": "Camaret-sur-Mer",
      "prix": {
        "Gazole": 0.002099,
        "SP95": 0.002038,
        "E85": 0.0007289999999999999,
        "E10": 0.002016,
        "SP98": 0.002111
      },
      "maj_gouv": {
        "Gazole": "2026-05-15 09:58:37",
        "SP95": "2026-05-11 11:43:28",
        "E85": "2026-04-16 11:23:01",
        "E10": "2026-05-15 09:58:37",
        "SP98": "2026-04-23 10:57:30"
      }
    },
    {
      "id": "29000012",
      "lat": 47.98,
      "lon": -4.084,
      "cp": "29000",
      "ville": "QUIMPER",
      "prix": {},
      "maj_gouv": {}
    },
    {
      "id": "29720003",
      "lat": 47.87171854,
      "lon": -4.24078876,
      "cp": "29720",
      "ville": "Plonéour-Lanvern",
      "prix": {
        "Gazole": 0.002039,
        "SP95": 0.002079,
        "E85": 0.0009350000000000001,
        "GPLc": 0.00107,
        "E10": 0.002039,
        "SP98": 0.002129
      },
      "maj_gouv": {
        "Gazole": "2026-05-28 09:43:19",
        "SP95": "2026-05-22 09:57:08",
        "E85": "2026-04-15 11:46:07",
        "GPLc": "2026-04-07 09:41:58",
        "E10": "2026-05-22 09:57:08",
        "SP98": "2026-05-22 09:57:08"
      }
    },
    {
      "id": "29120006",
      "lat": 47.82021,
      "lon": -4.28489,
      "cp": "29120",
      "ville": "Plomeur",
      "prix": {
        "Gazole": 0.002077,
        "E10": 0.002039,
        "SP98": 0.002129
      },
      "maj_gouv": {
        "Gazole": "2026-05-26 17:33:38",
        "E10": "2026-05-21 10:22:17",
        "SP98": "2026-05-26 17:33:39"
      }
    },
    {
      "id": "29260007",
      "lat": 48.576,
      "lon": -4.318,
      "cp": "29260",
      "ville": "Lesneven",
      "prix": {
        "Gazole": 0.002025,
        "E10": 0.001999,
        "SP98": 0.002096
      },
      "maj_gouv": {
        "Gazole": "2026-05-28 09:27:24",
        "E10": "2026-05-28 09:27:24",
        "SP98": "2026-05-28 09:27:24"
      }
    },
    {
      "id": "29700004",
      "lat": 47.972251594559,
      "lon": -4.1352462363191,
      "cp": "29700",
      "ville": "PLUGUFFAN",
      "prix": {
        "Gazole": 0.002209,
        "E10": 0.00199
      },
      "maj_gouv": {
        "Gazole": "2026-05-26 23:59:00",
        "E10": "2026-04-23 17:00:00"
      }
    },
    {
      "id": "29500003",
      "lat": 47.999,
      "lon": -4.053,
      "cp": "29500",
      "ville": "Ergué-Gabéric",
      "prix": {
        "Gazole": 0.002069,
        "SP95": 0.002079,
        "SP98": 0.0021190000000000002
      },
      "maj_gouv": {
        "Gazole": "2026-05-27 17:36:25",
        "SP95": "2026-05-27 17:36:25",
        "SP98": "2026-05-27 17:36:25"
      }
    },
    {
      "id": "29200018",
      "lat": 48.403,
      "lon": -4.478,
      "cp": "29200",
      "ville": "Brest",
      "prix": {
        "Gazole": 0.00219,
        "E85": 0.000819,
        "E10": 0.00209,
        "SP98": 0.002149
      },
      "maj_gouv": {
        "Gazole": "2026-05-15 08:54:42",
        "E85": "2026-05-15 08:54:42",
        "E10": "2026-05-15 08:54:42",
        "SP98": "2026-05-15 08:54:43"
      }
    },
    {
      "id": "29550001",
      "lat": 48.181,
      "lon": -4.23,
      "cp": "29550",
      "ville": "PLOMODIERN",
      "prix": {
        "Gazole": 0.002099,
        "SP95": 0.002048,
        "E85": 0.000798,
        "E10": 0.002019
      },
      "maj_gouv": {
        "Gazole": "2026-05-18 07:48:31",
        "SP95": "2026-05-07 08:31:53",
        "E85": "2026-05-18 07:48:31",
        "E10": "2026-05-20 07:51:37"
      }
    },
    {
      "id": "29820001",
      "lat": 48.427,
      "lon": -4.573,
      "cp": "29820",
      "ville": "GUILERS",
      "prix": {
        "Gazole": 0.002029,
        "E85": 0.000989,
        "E10": 0.002019,
        "SP98": 0.002129
      },
      "maj_gouv": {
        "Gazole": "2026-05-28 10:25:17",
        "E85": "2026-04-11 19:00:00",
        "E10": "2026-05-28 10:26:18",
        "SP98": "2026-05-28 10:21:04"
      }
    },
    {
      "id": "29830002",
      "lat": 48.54,
      "lon": -4.66,
      "cp": "29830",
      "ville": "PLOUDALMéZEAU",
      "prix": {
        "Gazole": 0.0019790000000000003,
        "E85": 0.000789,
        "E10": 0.0019790000000000003,
        "SP98": 0.002079
      },
      "maj_gouv": {
        "Gazole": "2026-05-28 08:03:32",
        "E85": "2026-04-14 12:15:21",
        "E10": "2026-05-28 08:03:33",
        "SP98": "2026-05-28 08:03:33"
      }
    },
    {
      "id": "29160005",
      "lat": 48.248307562087,
      "lon": -4.4160090342354,
      "cp": "29160",
      "ville": "Crozon",
      "prix": {
        "Gazole": 0.00215,
        "GPLc": 0.001199,
        "E10": 0.00199
      },
      "maj_gouv": {
        "Gazole": "2026-05-26 07:28:04",
        "GPLc": "2026-05-18 10:09:07",
        "E10": "2026-05-28 08:26:13"
      }
    },
    {
      "id": "29200008",
      "lat": 48.389,
      "lon": -4.528,
      "cp": "29200",
      "ville": "Brest",
      "prix": {
        "Gazole": 0.001992,
        "SP95": 0.002028,
        "E10": 0.00199,
        "SP98": 0.002117
      },
      "maj_gouv": {
        "Gazole": "2026-05-28 08:45:00",
        "SP95": "2026-05-28 08:45:00",
        "E10": "2026-05-28 08:45:00",
        "SP98": "2026-05-28 08:45:00"
      }
    },
    {
      "id": "29880002",
      "lat": 48.606,
      "lon": -4.504,
      "cp": "29880",
      "ville": "Plouguerneau",
      "prix": {
        "Gazole": 0.002029,
        "E85": 0.000798,
        "E10": 0.002039,
        "SP98": 0.002099
      },
      "maj_gouv": {
        "Gazole": "2026-05-27 09:07:14",
        "E85": "2026-05-21 08:43:23",
        "E10": "2026-05-27 08:35:21",
        "SP98": "2026-05-27 08:35:22"
      }
    },
    {
      "id": "29770001",
      "lat": 48.03,
      "lon": -4.559,
      "cp": "29770",
      "ville": "ESQUIBIEN",
      "prix": {
        "Gazole": 0.002053,
        "E10": 0.00199,
        "SP98": 0.00199
      },
      "maj_gouv": {
        "Gazole": "2026-05-28 19:02:05",
        "E10": "2026-05-27 20:54:12",
        "SP98": "2026-05-28 14:26:32"
      }
    },
    {
      "id": "29600002",
      "lat": 48.587,
      "lon": -3.813,
      "cp": "29600",
      "ville": "MORLAIX",
      "prix": {
        "Gazole": 0.001999,
        "E85": 0.000799,
        "GPLc": 0.0010049999999999998,
        "E10": 0.0019890000000000003,
        "SP98": 0.002139
      },
      "maj_gouv": {
        "Gazole": "2026-05-28 11:58:42",
        "E85": "2026-04-16 09:00:00",
        "GPLc": "2026-05-05 09:00:00",
        "E10": "2026-05-28 11:58:42",
        "SP98": "2026-05-27 09:00:00"
      }
    },
    {
      "id": "29900005",
      "lat": 47.861,
      "lon": -3.885,
      "cp": "29900",
      "ville": "Concarneau",
      "prix": {
        "Gazole": 0.0020710000000000004,
        "E10": 0.00199,
        "SP98": 0.00199
      },
      "maj_gouv": {
        "Gazole": "2026-05-28 10:33:50",
        "E10": "2026-05-28 10:33:50",
        "SP98": "2026-05-28 10:33:50"
      }
    },
    {
      "id": "29910004",
      "lat": 47.856905999999995,
      "lon": -3.866559,
      "cp": "29910",
      "ville": "TREGUNC",
      "prix": {
        "Gazole": 0.002099,
        "E85": 0.000798,
        "E10": 0.002039,
        "SP98": 0.002129
      },
      "maj_gouv": {
        "Gazole": "2026-05-22 14:35:51",
        "E85": "2026-05-15 07:07:15",
        "E10": "2026-05-22 10:44:03",
        "SP98": "2026-05-22 10:44:03"
      }
    },
    {
      "id": "29460001",
      "lat": 48.359,
      "lon": -4.254,
      "cp": "29460",
      "ville": "DAOULAS",
      "prix": {
        "Gazole": 0.002089,
        "E10": 0.002089,
        "SP98": 0.0021190000000000002
      },
      "maj_gouv": {
        "Gazole": "2026-05-15 06:26:48",
        "E10": "2026-05-20 09:15:15",
        "SP98": "2026-05-20 09:15:15"
      }
    },
    {
      "id": "29140003",
      "lat": 47.958,
      "lon": -3.823,
      "cp": "29140",
      "ville": "ROSPORDEN",
      "prix": {
        "Gazole": 0.0020710000000000004,
        "E10": 0.00199,
        "SP98": 0.00199
      },
      "maj_gouv": {
        "Gazole": "2026-05-28 08:54:58",
        "E10": "2026-05-27 10:57:13",
        "SP98": "2026-05-27 10:57:13"
      }
    },
    {
      "id": "29000011",
      "lat": 47.993,
      "lon": -4.084,
      "cp": "29000",
      "ville": "QUIMPER",
      "prix": {
        "Gazole": 0.002053
      },
      "maj_gouv": {
        "Gazole": "2026-05-29 00:01:00"
      }
    },
    {
      "id": "29510004",
      "lat": 48.1,
      "lon": -4.013,
      "cp": "29510",
      "ville": "BRIEC",
      "prix": {
        "Gazole": 0.002049,
        "E85": 0.000798,
        "E10": 0.002029,
        "SP98": 0.002113
      },
      "maj_gouv": {
        "Gazole": "2026-05-28 09:07:02",
        "E85": "2026-05-19 09:13:21",
        "E10": "2026-05-28 09:07:02",
        "SP98": "2026-05-28 09:07:02"
      }
    },
    {
      "id": "29190001",
      "lat": 48.222,
      "lon": -3.972,
      "cp": "29190",
      "ville": "PLEYBEN",
      "prix": {
        "Gazole": 0.002079,
        "E10": 0.002029,
        "SP98": 0.002129
      },
      "maj_gouv": {
        "Gazole": "2026-05-26 07:36:32",
        "E10": "2026-05-27 07:39:12",
        "SP98": "2026-05-27 07:39:12"
      }
    },
    {
      "id": "29200019",
      "lat": 48.408,
      "lon": -4.468,
      "cp": "29200",
      "ville": "BREST",
      "prix": {
        "Gazole": 0.002065,
        "E10": 0.002029,
        "SP98": 0.002109
      },
      "maj_gouv": {
        "Gazole": "2026-05-22 09:30:00",
        "E10": "2026-05-27 10:30:21",
        "SP98": "2026-05-22 09:45:00"
      }
    },
    {
      "id": "29870001",
      "lat": 48.57,
      "lon": -4.512,
      "cp": "29870",
      "ville": "Lannilis",
      "prix": {
        "Gazole": 0.001999,
        "SP95": 0.002039,
        "E85": 0.000769,
        "E10": 0.001999,
        "SP98": 0.002129
      },
      "maj_gouv": {
        "Gazole": "2026-05-28 09:11:21",
        "SP95": "2026-05-27 08:58:12",
        "E85": "2026-05-21 09:46:50",
        "E10": "2026-05-28 09:11:21",
        "SP98": "2026-05-27 08:58:12"
      }
    },
    {
      "id": "29490002",
      "lat": 48.436,
      "lon": -4.405,
      "cp": "29490",
      "ville": "GUIPAVAS",
      "prix": {
        "Gazole": 0.0021190000000000002,
        "SP95": 0.002129,
        "E85": 0.000789,
        "E10": 0.002099
      },
      "maj_gouv": {
        "Gazole": "2026-05-26 09:07:06",
        "SP95": "2026-05-26 09:07:06",
        "E85": "2026-05-26 09:07:06",
        "E10": "2026-05-26 09:07:07"
      }
    },
    {
      "id": "29160004",
      "lat": 48.2482909,
      "lon": -4.4194473,
      "cp": "29160",
      "ville": "CROZON",
      "prix": {
        "Gazole": 0.002041,
        "SP95": 0.0020440000000000002,
        "E85": 0.000739,
        "E10": 0.002012
      },
      "maj_gouv": {
        "Gazole": "2026-05-28 08:51:52",
        "SP95": "2026-05-28 08:51:52",
        "E85": "2026-05-28 08:51:52",
        "E10": "2026-05-28 08:51:52"
      }
    }
  ]
}