{
  "departement": "66",
  "date": "2026-06-11",
  "stations": [
    {
      "id": "66170002",
      "lat": 42.692,
      "lon": 2.691,
      "cp": "66170",
      "ville": "MILLAS",
      "prix": {
        "Gazole": 0.002065,
        "SP95": 0.002105,
        "SP98": 0.002175
      },
      "maj_gouv": {
        "Gazole": "2026-06-04 06:30:00",
        "SP95": "2026-05-29 19:30:00",
        "SP98": "2026-05-29 19:30:00"
      }
    },
    {
      "id": "66700003",
      "lat": 42.55,
      "lon": 3.041,
      "cp": "66700",
      "ville": "ARGELèS-SUR-MER",
      "prix": {
        "Gazole": 0.002039,
        "SP95": 0.002029,
        "E85": 0.000859,
        "GPLc": 0.001129,
        "SP98": 0.002089
      },
      "maj_gouv": {
        "Gazole": "2026-06-08 07:07:48",
        "SP95": "2026-06-08 07:07:49",
        "E85": "2026-05-30 08:06:53",
        "GPLc": "2026-05-19 07:15:18",
        "SP98": "2026-06-08 07:07:49"
      }
    },
    {
      "id": "66005001",
      "lat": 42.686492490449,
      "lon": 2.8827135110700004,
      "cp": "66000",
      "ville": "Perpignan",
      "prix": {
        "Gazole": 0.0019590000000000002,
        "SP95": 0.001975,
        "E85": 0.0008070000000000001,
        "SP98": 0.0020150000000000003
      },
      "maj_gouv": {
        "Gazole": "2026-06-11 01:17:00",
        "SP95": "2026-06-11 01:17:00",
        "E85": "2026-06-11 01:17:00",
        "SP98": "2026-06-11 01:17:00"
      }
    },
    {
      "id": "66028001",
      "lat": 42.668,
      "lon": 2.884,
      "cp": "66000",
      "ville": "PERPIGNAN",
      "prix": {
        "Gazole": 0.0019590000000000002,
        "E85": 0.0008060000000000001,
        "GPLc": 0.0010500000000000002,
        "E10": 0.001909,
        "SP98": 0.0020150000000000003
      },
      "maj_gouv": {
        "Gazole": "2026-06-08 09:43:38",
        "E85": "2026-06-10 08:59:34",
        "GPLc": "2026-06-02 09:30:56",
        "E10": "2026-06-10 08:59:34",
        "SP98": "2026-06-08 09:43:38"
      }
    },
    {
      "id": "66510001",
      "lat": 42.46292,
      "lon": 2.63868,
      "cp": "66150",
      "ville": "Arles-sur-Tech",
      "prix": {
        "Gazole": 0.00209,
        "E85": 0.001059
      },
      "maj_gouv": {
        "Gazole": "2026-05-30 06:32:24",
        "E85": "2026-04-30 20:10:16"
      }
    },
    {
      "id": "66250001",
      "lat": 42.773,
      "lon": 3.011,
      "cp": "66250",
      "ville": "Saint-Laurent-de-la-Salanque",
      "prix": {
        "Gazole": 0.002043,
        "E10": 0.00199,
        "SP98": 0.00199
      },
      "maj_gouv": {
        "Gazole": "2026-06-10 18:50:44",
        "E10": "2026-06-10 18:50:44",
        "SP98": "2026-06-10 18:50:44"
      }
    },
    {
      "id": "66420003",
      "lat": 42.824,
      "lon": 3.035,
      "cp": "66420",
      "ville": "LE BARCARèS",
      "prix": {
        "Gazole": 0.001999,
        "E85": 0.000823,
        "E10": 0.001949,
        "SP98": 0.002045
      },
      "maj_gouv": {
        "Gazole": "2026-06-10 19:01:34",
        "E85": "2026-06-10 19:01:35",
        "E10": "2026-06-10 19:01:35",
        "SP98": "2026-06-10 19:01:35"
      }
    },
    {
      "id": "66740003",
      "lat": 42.548,
      "lon": 2.941,
      "cp": "66740",
      "ville": "Laroque-des-Albères",
      "prix": {
        "Gazole": 0.0019590000000000002,
        "SP95": 0.0019690000000000003,
        "E10": 0.001899,
        "SP98": 0.002039
      },
      "maj_gouv": {
        "Gazole": "2026-06-08 08:45:00",
        "SP95": "2026-06-01 08:43:00",
        "E10": "2026-06-01 08:43:00",
        "SP98": "2026-06-01 08:43:00"
      }
    },
    {
      "id": "66200001",
      "lat": 42.607,
      "lon": 2.977,
      "cp": "66200",
      "ville": "ELNE",
      "prix": {
        "Gazole": 0.001999,
        "E10": 0.001999,
        "SP98": 0.002079
      },
      "maj_gouv": {
        "Gazole": "2026-06-10 08:21:50",
        "E10": "2026-06-10 08:21:50",
        "SP98": "2026-06-10 08:21:51"
      }
    },
    {
      "id": "66300013",
      "lat": 42.578357582464,
      "lon": 2.8474529225529004,
      "cp": "66300",
      "ville": "Banyuls-dels-Aspres",
      "prix": {
        "Gazole": 0.002199,
        "GPLc": 0.0011610000000000001,
        "E10": 0.002139,
        "SP98": 0.0022589999999999997
      },
      "maj_gouv": {
        "Gazole": "2026-06-10 14:00:00",
        "GPLc": "2026-06-10 14:00:00",
        "E10": "2026-06-10 14:00:00",
        "SP98": "2026-06-10 14:00:00"
      }
    },
    {
      "id": "66210005",
      "lat": 42.507,
      "lon": 2.123,
      "cp": "66210",
      "ville": "LA CABANASSE / MONT LOUIS",
      "prix": {
        "Gazole": 0.00233,
        "SP95": 0.00222,
        "E85": 0.000987
      },
      "maj_gouv": {
        "Gazole": "2026-05-21 16:05:00",
        "SP95": "2026-05-11 07:35:00",
        "E85": "2026-05-11 07:35:01"
      }
    },
    {
      "id": "66100002",
      "lat": 42.682,
      "lon": 2.911,
      "cp": "66100",
      "ville": "PERPIGNAN",
      "prix": {
        "Gazole": 0.002045,
        "E85": 0.000879,
        "E10": 0.00199,
        "SP98": 0.00199
      },
      "maj_gouv": {
        "Gazole": "2026-06-11 00:01:00",
        "E85": "2026-06-11 00:01:00",
        "E10": "2026-06-11 00:01:00",
        "SP98": "2026-06-11 00:01:00"
      }
    },
    {
      "id": "66962001",
      "lat": 42.701,
      "lon": 2.944,
      "cp": "66000",
      "ville": "PERPIGNAN",
      "prix": {
        "Gazole": 0.001916,
        "SP95": 0.001906,
        "E85": 0.0008399999999999999,
        "E10": 0.001859,
        "SP98": 0.001976
      },
      "maj_gouv": {
        "Gazole": "2026-06-09 06:57:42",
        "SP95": "2026-06-05 11:30:00",
        "E85": "2026-06-02 10:38:18",
        "E10": "2026-06-05 11:30:00",
        "SP98": "2026-06-09 06:57:42"
      }
    },
    {
      "id": "66530001",
      "lat": 42.777,
      "lon": 2.917,
      "cp": "66530",
      "ville": "CLAIRA",
      "prix": {
        "Gazole": 0.001965,
        "SP95": 0.0019690000000000003,
        "GPLc": 0.0010400000000000001,
        "E10": 0.001924,
        "SP98": 0.002009
      },
      "maj_gouv": {
        "Gazole": "2026-06-10 00:42:00",
        "SP95": "2026-06-10 00:42:00",
        "GPLc": "2026-05-23 08:20:00",
        "E10": "2026-06-10 00:42:00",
        "SP98": "2026-06-10 00:42:00"
      }
    },
    {
      "id": "66420001",
      "lat": 42.78737,
      "lon": 3.0349,
      "cp": "66420",
      "ville": "LE BARCARèS",
      "prix": {
        "Gazole": 0.0019590000000000002,
        "E10": 0.0019590000000000002,
        "SP98": 0.001999
      },
      "maj_gouv": {
        "Gazole": "2026-06-03 09:11:57",
        "E10": "2026-06-03 09:11:58",
        "SP98": "2026-06-03 09:11:58"
      }
    },
    {
      "id": "66270004",
      "lat": 42.686090286948,
      "lon": 2.8171065594274998,
      "cp": "66270",
      "ville": "LE SOLER",
      "prix": {
        "Gazole": 0.002002,
        "E10": 0.001949,
        "SP98": 0.002099
      },
      "maj_gouv": {
        "Gazole": "2026-06-09 17:49:02",
        "E10": "2026-06-09 17:49:02",
        "SP98": "2026-06-09 17:49:02"
      }
    },
    {
      "id": "66420002",
      "lat": 42.787,
      "lon": 3.035,
      "cp": "66420",
      "ville": "LE BARCARèS",
      "prix": {
        "Gazole": 0.001998,
        "E10": 0.0019590000000000002,
        "SP98": 0.002009
      },
      "maj_gouv": {
        "Gazole": "2026-06-10 19:02:07",
        "E10": "2026-06-10 19:02:08",
        "SP98": "2026-06-10 19:02:08"
      }
    },
    {
      "id": "66330002",
      "lat": 42.692,
      "lon": 2.92,
      "cp": "66330",
      "ville": "Cabestany",
      "prix": {
        "Gazole": 0.001934,
        "SP95": 0.0019219999999999999,
        "E85": 0.000798,
        "E10": 0.001861
      },
      "maj_gouv": {
        "Gazole": "2026-06-08 07:52:18",
        "SP95": "2026-06-08 07:52:18",
        "E85": "2026-05-15 08:11:46",
        "E10": "2026-06-08 07:52:18"
      }
    },
    {
      "id": "66160004",
      "lat": 42.533,
      "lon": 2.839,
      "cp": "66160",
      "ville": "Le Boulou",
      "prix": {
        "Gazole": 0.001952,
        "E10": 0.001914,
        "SP98": 0.00199
      },
      "maj_gouv": {
        "Gazole": "2026-06-11 00:01:00",
        "E10": "2026-06-11 00:01:00",
        "SP98": "2026-06-09 10:37:23"
      }
    },
    {
      "id": "66000003",
      "lat": 42.684,
      "lon": 2.865,
      "cp": "66000",
      "ville": "PERPIGNAN",
      "prix": {
        "Gazole": 0.002019,
        "E10": 0.001949,
        "SP98": 0.0021190000000000002
      },
      "maj_gouv": {
        "Gazole": "2026-06-10 14:00:00",
        "E10": "2026-06-10 14:00:00",
        "SP98": "2026-06-10 14:00:00"
      }
    },
    {
      "id": "66650002",
      "lat": 42.48173,
      "lon": 3.12928,
      "cp": "66650",
      "ville": "BANYULS-SUR-MER",
      "prix": {
        "Gazole": 0.00196,
        "E10": 0.0019450000000000001,
        "SP98": 0.002065
      },
      "maj_gouv": {
        "Gazole": "2026-06-04 04:55:17",
        "E10": "2026-06-04 04:55:18",
        "SP98": "2026-06-04 04:55:18"
      }
    },
    {
      "id": "66210004",
      "lat": 42.514676682713,
      "lon": 2.0621731288780003,
      "cp": "66210",
      "ville": "Bolquère",
      "prix": {
        "Gazole": 0.0019890000000000003,
        "E10": 0.0019790000000000003,
        "SP98": 0.002089
      },
      "maj_gouv": {
        "Gazole": "2026-05-30 10:49:47",
        "E10": "2026-05-30 10:49:47",
        "SP98": "2026-05-30 10:49:47"
      }
    },
    {
      "id": "66250003",
      "lat": 42.774,
      "lon": 2.998,
      "cp": "66250",
      "ville": "SAINT-LAURENT-DE-LA-SALANQUE",
      "prix": {
        "Gazole": 0.0022299999999999998,
        "SP95": 0.0020299999999999997
      },
      "maj_gouv": {
        "Gazole": "2026-05-20 12:21:03",
        "SP95": "2026-06-08 20:28:05"
      }
    },
    {
      "id": "66120001",
      "lat": 42.498,
      "lon": 2.013,
      "cp": "66120",
      "ville": "ÉGAT",
      "prix": {
        "Gazole": 0.0019890000000000003,
        "E85": 0.000949,
        "E10": 0.0019790000000000003,
        "SP98": 0.002089
      },
      "maj_gouv": {
        "Gazole": "2026-05-30 12:00:00",
        "E85": "2026-05-30 12:00:00",
        "E10": "2026-06-05 08:48:10",
        "SP98": "2026-05-30 12:00:00"
      }
    },
    {
      "id": "66600002",
      "lat": 42.78,
      "lon": 2.899,
      "cp": "66600",
      "ville": "RIVESALTES",
      "prix": {
        "Gazole": 0.001949,
        "E85": 0.000839,
        "E10": 0.0019190000000000001,
        "SP98": 0.00199
      },
      "maj_gouv": {
        "Gazole": "2026-06-11 00:01:00",
        "E85": "2026-06-11 00:01:00",
        "E10": "2026-06-11 00:01:00",
        "SP98": "2026-06-11 00:01:00"
      }
    },
    {
      "id": "66300012",
      "lat": 42.631,
      "lon": 2.762,
      "cp": "66300",
      "ville": "THUIR",
      "prix": {
        "Gazole": 0.001955,
        "E10": 0.0018839999999999998,
        "SP98": 0.0021190000000000002
      },
      "maj_gouv": {
        "Gazole": "2026-06-03 12:00:49",
        "E10": "2026-06-03 12:00:50",
        "SP98": "2026-05-19 18:45:33"
      }
    },
    {
      "id": "66700007",
      "lat": 42.575,
      "lon": 3.035,
      "cp": "66700",
      "ville": "Argelès-sur-Mer",
      "prix": {
        "Gazole": 0.002055,
        "E85": 0.000832,
        "E10": 0.00199
      },
      "maj_gouv": {
        "Gazole": "2026-06-11 00:01:00",
        "E85": "2026-06-10 00:01:00",
        "E10": "2026-05-28 10:36:38"
      }
    },
    {
      "id": "66240001",
      "lat": 42.717,
      "lon": 2.839,
      "cp": "66240",
      "ville": "SAINT-ESTèVE",
      "prix": {
        "Gazole": 0.001943,
        "SP95": 0.002009,
        "E10": 0.001949
      },
      "maj_gouv": {
        "Gazole": "2026-06-09 08:53:38",
        "SP95": "2026-06-09 08:53:39",
        "E10": "2026-06-09 08:53:39"
      }
    },
    {
      "id": "66140003",
      "lat": 42.700202999999995,
      "lon": 3.020355,
      "cp": "66140",
      "ville": "Canet-en-Roussillon",
      "prix": {
        "Gazole": 0.001999,
        "E85": 0.000798,
        "E10": 0.001939,
        "SP98": 0.002059
      },
      "maj_gouv": {
        "Gazole": "2026-06-08 09:46:25",
        "E85": "2026-05-15 10:36:42",
        "E10": "2026-06-10 14:20:29",
        "SP98": "2026-06-10 14:20:30"
      }
    },
    {
      "id": "66500001",
      "lat": 42.625,
      "lon": 2.428,
      "cp": "66500",
      "ville": "Prades",
      "prix": {
        "Gazole": 0.0019590000000000002,
        "E85": 0.000795,
        "E10": 0.001929,
        "SP98": 0.002019
      },
      "maj_gouv": {
        "Gazole": "2026-06-06 07:31:58",
        "E85": "2026-06-08 07:40:27",
        "E10": "2026-06-10 08:23:29",
        "SP98": "2026-06-10 08:23:29"
      }
    },
    {
      "id": "66170001",
      "lat": 42.693,
      "lon": 2.687,
      "cp": "66170",
      "ville": "Millas",
      "prix": {
        "Gazole": 0.0019850000000000002,
        "E85": 0.000798,
        "E10": 0.0019690000000000003,
        "SP98": 0.002069
      },
      "maj_gouv": {
        "Gazole": "2026-06-10 07:13:21",
        "E85": "2026-06-10 07:13:21",
        "E10": "2026-06-10 07:13:21",
        "SP98": "2026-06-10 07:13:21"
      }
    },
    {
      "id": "66600001",
      "lat": 42.7577057024,
      "lon": 2.8656329183900002,
      "cp": "66600",
      "ville": "RIVESALTES",
      "prix": {
        "Gazole": 0.0019590000000000002,
        "E85": 0.000798,
        "E10": 0.001899
      },
      "maj_gouv": {
        "Gazole": "2026-06-09 08:54:15",
        "E85": "2026-06-09 08:54:16",
        "E10": "2026-06-09 08:54:16"
      }
    },
    {
      "id": "66130002",
      "lat": 42.677,
      "lon": 2.634,
      "cp": "66130",
      "ville": "ILLE-SUR-TêT",
      "prix": {
        "Gazole": 0.001935,
        "E85": 0.000798,
        "GPLc": 0.001099,
        "E10": 0.001895,
        "SP98": 0.001999
      },
      "maj_gouv": {
        "Gazole": "2026-06-10 14:57:06",
        "E85": "2026-06-01 14:36:56",
        "GPLc": "2026-04-18 16:15:27",
        "E10": "2026-06-10 14:57:07",
        "SP98": "2026-06-10 14:57:07"
      }
    },
    {
      "id": "66000018",
      "lat": 42.677771792859,
      "lon": 2.8906260773837995,
      "cp": "66000",
      "ville": "PERPIGNAN",
      "prix": {
        "Gazole": 0.001961,
        "E85": 0.000853,
        "GPLc": 0.001029,
        "E10": 0.001929,
        "SP98": 0.00199
      },
      "maj_gouv": {
        "Gazole": "2026-06-11 00:01:00",
        "E85": "2026-06-11 00:01:00",
        "GPLc": "2026-06-11 00:01:00",
        "E10": "2026-06-11 00:01:00",
        "SP98": "2026-06-11 00:01:00"
      }
    },
    {
      "id": "66330001",
      "lat": 42.658,
      "lon": 2.952,
      "cp": "66280",
      "ville": "SALEILLES",
      "prix": {
        "Gazole": 0.002038,
        "E10": 0.00199,
        "SP98": 0.00199
      },
      "maj_gouv": {
        "Gazole": "2026-06-10 07:17:33",
        "E10": "2026-06-02 11:08:54",
        "SP98": "2026-06-09 12:00:43"
      }
    },
    {
      "id": "66200002",
      "lat": 42.607883503923,
      "lon": 2.9237131744831997,
      "cp": "66200",
      "ville": "MONTESCOT",
      "prix": {
        "Gazole": 0.002059,
        "E85": 0.000798,
        "E10": 0.0019790000000000003,
        "SP98": 0.002099
      },
      "maj_gouv": {
        "Gazole": "2026-06-04 15:37:05",
        "E85": "2026-06-04 15:37:05",
        "E10": "2026-06-04 15:37:05",
        "SP98": "2026-06-04 15:37:05"
      }
    },
    {
      "id": "66660002",
      "lat": 42.514,
      "lon": 3.104,
      "cp": "66660",
      "ville": "Port-Vendres",
      "prix": {
        "Gazole": 0.002012,
        "E85": 0.000798,
        "E10": 0.001996,
        "SP98": 0.0021160000000000003
      },
      "maj_gouv": {
        "Gazole": "2026-05-30 10:45:24",
        "E85": "2026-06-09 14:28:07",
        "E10": "2026-05-30 10:45:25",
        "SP98": "2026-05-30 10:45:25"
      }
    },
    {
      "id": "66270001",
      "lat": 42.686,
      "lon": 2.813,
      "cp": "66270",
      "ville": "Le Soler",
      "prix": {
        "Gazole": 0.001946,
        "E10": 0.001956
      },
      "maj_gouv": {
        "Gazole": "2026-06-10 07:37:10",
        "E10": "2026-06-06 08:24:42"
      }
    },
    {
      "id": "66750004",
      "lat": 42.636,
      "lon": 3.034,
      "cp": "66750",
      "ville": "Saint-Cyprien",
      "prix": {
        "Gazole": 0.0019590000000000002,
        "E85": 0.000829,
        "E10": 0.001926,
        "SP98": 0.00199
      },
      "maj_gouv": {
        "Gazole": "2026-06-11 00:01:00",
        "E85": "2026-06-11 00:01:00",
        "E10": "2026-06-11 00:01:00",
        "SP98": "2026-06-11 00:01:00"
      }
    },
    {
      "id": "66000010",
      "lat": 42.689,
      "lon": 2.894,
      "cp": "66000",
      "ville": "Perpignan",
      "prix": {
        "Gazole": 0.001997,
        "E85": 0.000954,
        "E10": 0.001984,
        "SP98": 0.002064
      },
      "maj_gouv": {
        "Gazole": "2026-06-05 07:40:00",
        "E85": "2026-06-05 07:40:00",
        "E10": "2026-06-05 07:40:00",
        "SP98": "2026-06-05 07:40:00"
      }
    },
    {
      "id": "66380001",
      "lat": 42.749,
      "lon": 2.895,
      "cp": "66380",
      "ville": "Pia",
      "prix": {
        "Gazole": 0.0020009999999999997,
        "E10": 0.001981,
        "SP98": 0.002096
      },
      "maj_gouv": {
        "Gazole": "2026-06-10 06:30:00",
        "E10": "2026-06-10 06:30:00",
        "SP98": "2026-06-10 06:30:00"
      }
    },
    {
      "id": "66000020",
      "lat": 42.726622344591,
      "lon": 2.8992196288361,
      "cp": "66000",
      "ville": "PERPIGNAN",
      "prix": {
        "Gazole": 0.001951,
        "E85": 0.000856,
        "E10": 0.001917,
        "SP98": 0.00199
      },
      "maj_gouv": {
        "Gazole": "2026-06-11 00:01:00",
        "E85": "2026-06-11 00:01:00",
        "E10": "2026-06-11 00:01:00",
        "SP98": "2026-06-11 00:01:00"
      }
    },
    {
      "id": "66300015",
      "lat": 42.626,
      "lon": 2.767,
      "cp": "66300",
      "ville": "LLUPIA",
      "prix": {
        "Gazole": 0.001955,
        "E85": 0.000798,
        "E10": 0.0018839999999999998,
        "SP98": 0.0021190000000000002
      },
      "maj_gouv": {
        "Gazole": "2026-06-02 11:51:13",
        "E85": "2026-05-19 18:21:01",
        "E10": "2026-06-02 11:51:13",
        "SP98": "2026-05-19 18:21:01"
      }
    },
    {
      "id": "66000012",
      "lat": 42.689,
      "lon": 2.878,
      "cp": "66000",
      "ville": "PERPIGNAN",
      "prix": {
        "Gazole": 0.002022,
        "SP95": 0.002028,
        "E10": 0.001983
      },
      "maj_gouv": {
        "Gazole": "2026-06-11 04:30:00",
        "SP95": "2026-06-11 04:30:00",
        "E10": "2026-06-11 04:30:00"
      }
    },
    {
      "id": "66690001",
      "lat": 42.553,
      "lon": 2.977,
      "cp": "66690",
      "ville": "Saint-André",
      "prix": {
        "Gazole": 0.002049,
        "E85": 0.000798,
        "E10": 0.0019590000000000002,
        "SP98": 0.002079
      },
      "maj_gouv": {
        "Gazole": "2026-06-10 08:47:29",
        "E85": "2026-05-20 08:40:09",
        "E10": "2026-06-05 08:30:00",
        "SP98": "2026-06-05 08:30:00"
      }
    },
    {
      "id": "66220001",
      "lat": 42.809,
      "lon": 2.5,
      "cp": "66220",
      "ville": "SAINT-PAUL-DE-FENOUILLET",
      "prix": {
        "Gazole": 0.001999,
        "E10": 0.002059,
        "SP98": 0.001929
      },
      "maj_gouv": {
        "Gazole": "2026-06-05 12:30:00",
        "E10": "2026-06-05 12:30:00",
        "SP98": "2026-06-05 12:30:00"
      }
    },
    {
      "id": "66624001",
      "lat": 42.716,
      "lon": 2.844,
      "cp": "66240",
      "ville": "Saint-Estève",
      "prix": {
        "Gazole": 0.00213,
        "SP95": 0.0021000000000000003,
        "E85": 0.00086,
        "SP98": 0.00217
      },
      "maj_gouv": {
        "Gazole": "2026-06-09 14:22:40",
        "SP95": "2026-06-09 14:22:40",
        "E85": "2026-06-09 14:22:40",
        "SP98": "2026-06-09 14:22:40"
      }
    },
    {
      "id": "66530002",
      "lat": 42.777,
      "lon": 2.951,
      "cp": "66530",
      "ville": "CLAIRA",
      "prix": {
        "Gazole": 0.001973,
        "E85": 0.000839,
        "E10": 0.0019190000000000001
      },
      "maj_gouv": {
        "Gazole": "2026-06-09 09:47:33",
        "E85": "2026-05-27 12:23:34",
        "E10": "2026-06-09 09:54:16"
      }
    },
    {
      "id": "66201001",
      "lat": 42.611,
      "lon": 2.962,
      "cp": "66200",
      "ville": "Elne",
      "prix": {
        "Gazole": 0.002039,
        "SP95": 0.002034,
        "E10": 0.002027
      },
      "maj_gouv": {
        "Gazole": "2026-06-08 09:29:34",
        "SP95": "2026-06-08 09:29:34",
        "E10": "2026-06-08 09:29:34"
      }
    },
    {
      "id": "66160001",
      "lat": 42.532,
      "lon": 2.84,
      "cp": "66160",
      "ville": "LE BOULOU",
      "prix": {
        "Gazole": 0.001939,
        "E85": 0.000798,
        "E10": 0.001899,
        "SP98": 0.00199
      },
      "maj_gouv": {
        "Gazole": "2026-06-11 01:18:00",
        "E85": "2026-06-11 01:18:00",
        "E10": "2026-06-11 01:18:00",
        "SP98": "2026-06-11 01:18:00"
      }
    },
    {
      "id": "66000005",
      "lat": 42.71,
      "lon": 2.885,
      "cp": "66000",
      "ville": "PERPIGNAN",
      "prix": {
        "Gazole": 0.001939,
        "SP95": 0.0019690000000000003,
        "E10": 0.001899,
        "SP98": 0.002009
      },
      "maj_gouv": {
        "Gazole": "2026-06-09 10:10:49",
        "SP95": "2026-06-09 10:10:49",
        "E10": "2026-06-09 10:10:49",
        "SP98": "2026-06-09 10:10:49"
      }
    },
    {
      "id": "66450001",
      "lat": 42.641,
      "lon": 2.877,
      "cp": "66450",
      "ville": "POLLESTRES",
      "prix": {
        "Gazole": 0.001997,
        "SP95": 0.002029,
        "E85": 0.000798,
        "E10": 0.0019690000000000003
      },
      "maj_gouv": {
        "Gazole": "2026-06-08 08:51:05",
        "SP95": "2026-06-01 08:51:25",
        "E85": "2026-05-26 09:05:28",
        "E10": "2026-06-01 08:51:25"
      }
    },
    {
      "id": "66430002",
      "lat": 42.721427735008,
      "lon": 2.9340018281029003,
      "cp": "66430",
      "ville": "BOMPAS",
      "prix": {
        "Gazole": 0.0019590000000000002,
        "SP95": 0.0019790000000000003,
        "SP98": 0.002099
      },
      "maj_gouv": {
        "Gazole": "2026-06-10 09:42:52",
        "SP95": "2026-06-10 09:42:52",
        "SP98": "2026-06-10 09:42:52"
      }
    },
    {
      "id": "66250002",
      "lat": 42.774,
      "lon": 3.014,
      "cp": "66250",
      "ville": "Saint-Laurent-de-la-Salanque",
      "prix": {
        "Gazole": 0.0019690000000000003,
        "E85": 0.000798,
        "E10": 0.001909
      },
      "maj_gouv": {
        "Gazole": "2026-06-08 07:57:03",
        "E85": "2026-05-15 07:48:58",
        "E10": "2026-06-08 07:57:03"
      }
    },
    {
      "id": "66200003",
      "lat": 42.609517496565005,
      "lon": 3.0095001852417,
      "cp": "66200",
      "ville": "Latour-Bas-Elne",
      "prix": {
        "Gazole": 0.001966,
        "E85": 0.000798,
        "E10": 0.001999,
        "SP98": 0.002099
      },
      "maj_gouv": {
        "Gazole": "2026-06-10 08:20:35",
        "E85": "2026-06-05 15:48:32",
        "E10": "2026-06-05 15:48:32",
        "SP98": "2026-06-05 15:48:32"
      }
    },
    {
      "id": "66000021",
      "lat": 42.667,
      "lon": 2.895,
      "cp": "66000",
      "ville": "PERPIGNAN",
      "prix": {
        "Gazole": 0.001961,
        "E10": 0.001929,
        "SP98": 0.00199
      },
      "maj_gouv": {
        "Gazole": "2026-06-11 00:01:00",
        "E10": "2026-06-11 00:01:00",
        "SP98": "2026-05-28 19:09:02"
      }
    },
    {
      "id": "66300014",
      "lat": 42.64,
      "lon": 2.757,
      "cp": "66300",
      "ville": "THUIR",
      "prix": {
        "Gazole": 0.001939,
        "E85": 0.000798,
        "E10": 0.001899,
        "SP98": 0.001999
      },
      "maj_gouv": {
        "Gazole": "2026-06-10 13:01:00",
        "E85": "2026-05-27 11:00:12",
        "E10": "2026-06-10 13:01:01",
        "SP98": "2026-06-10 13:01:01"
      }
    },
    {
      "id": "66680001",
      "lat": 42.663,
      "lon": 2.846,
      "cp": "66680",
      "ville": "Canohès",
      "prix": {
        "Gazole": 0.002029,
        "E85": 0.000798,
        "E10": 0.001949,
        "SP98": 0.002069
      },
      "maj_gouv": {
        "Gazole": "2026-06-08 07:39:08",
        "E85": "2026-06-08 07:39:08",
        "E10": "2026-06-08 07:39:08",
        "SP98": "2026-06-08 07:39:08"
      }
    },
    {
      "id": "66000016",
      "lat": 42.679,
      "lon": 2.852,
      "cp": "66000",
      "ville": "Perpignan",
      "prix": {
        "Gazole": 0.001957,
        "E85": 0.000859,
        "E10": 0.001926,
        "SP98": 0.00199
      },
      "maj_gouv": {
        "Gazole": "2026-06-11 00:01:00",
        "E85": "2026-06-11 00:01:00",
        "E10": "2026-06-11 00:01:00",
        "SP98": "2026-06-10 19:18:17"
      }
    },
    {
      "id": "66300017",
      "lat": 42.591422,
      "lon": 2.842523,
      "cp": "66300",
      "ville": "VILLEMOLAQUE",
      "prix": {
        "Gazole": 0.002039,
        "E10": 0.0019790000000000003
      },
      "maj_gouv": {
        "Gazole": "2026-06-09 08:01:28",
        "E10": "2026-06-09 08:01:29"
      }
    },
    {
      "id": "66200005",
      "lat": 42.609543969102,
      "lon": 2.9985217187759,
      "cp": "66200",
      "ville": "Latour-Bas-Elne",
      "prix": {
        "Gazole": 0.002053,
        "E10": 0.002008,
        "SP98": 0.0021219999999999998
      },
      "maj_gouv": {
        "Gazole": "2026-06-03 09:21:52",
        "E10": "2026-06-03 09:21:52",
        "SP98": "2026-06-03 09:21:52"
      }
    },
    {
      "id": "66400004",
      "lat": 42.501,
      "lon": 2.758,
      "cp": "66400",
      "ville": "CéRET",
      "prix": {
        "Gazole": 0.001944,
        "E85": 0.000798,
        "E10": 0.001909,
        "SP98": 0.0020150000000000003
      },
      "maj_gouv": {
        "Gazole": "2026-06-09 08:53:00",
        "E85": "2026-05-30 08:38:53",
        "E10": "2026-06-10 08:22:37",
        "SP98": "2026-06-10 08:22:37"
      }
    },
    {
      "id": "66140002",
      "lat": 42.707,
      "lon": 3.015,
      "cp": "66140",
      "ville": "Canet-en-Roussillon",
      "prix": {
        "Gazole": 0.001999,
        "E85": 0.000798,
        "E10": 0.001939,
        "SP98": 0.002059
      },
      "maj_gouv": {
        "Gazole": "2026-06-10 14:04:23",
        "E85": "2026-05-15 10:46:26",
        "E10": "2026-06-10 14:04:23",
        "SP98": "2026-06-10 14:04:24"
      }
    },
    {
      "id": "66700001",
      "lat": 42.557,
      "lon": 3.01,
      "cp": "66700",
      "ville": "ARGELèS-SUR-MER",
      "prix": {
        "Gazole": 0.0019890000000000003,
        "SP95": 0.0019950000000000002,
        "E10": 0.0019450000000000001
      },
      "maj_gouv": {
        "Gazole": "2026-06-10 08:35:53",
        "SP95": "2026-06-10 08:35:53",
        "E10": "2026-06-10 08:35:53"
      }
    },
    {
      "id": "66000006",
      "lat": 42.692,
      "lon": 2.842,
      "cp": "66000",
      "ville": "Perpignan",
      "prix": {
        "Gazole": 0.00209,
        "E10": 0.00199
      },
      "maj_gouv": {
        "Gazole": "2026-06-09 13:37:17",
        "E10": "2026-06-09 13:37:17"
      }
    },
    {
      "id": "66962002",
      "lat": 42.742,
      "lon": 2.892,
      "cp": "66962",
      "ville": "Perpignan",
      "prix": {
        "Gazole": 0.0019590000000000002,
        "SP95": 0.0019690000000000003,
        "E85": 0.0008489999999999999,
        "GPLc": 0.001099,
        "SP98": 0.002009
      },
      "maj_gouv": {
        "Gazole": "2026-06-07 01:00:00",
        "SP95": "2026-06-07 01:00:00",
        "E85": "2026-04-14 01:00:00",
        "GPLc": "2026-04-08 11:04:33",
        "SP98": "2026-06-07 01:00:00"
      }
    },
    {
      "id": "66820001",
      "lat": 42.557,
      "lon": 2.384,
      "cp": "66820",
      "ville": "VERNET-LES-BAINS",
      "prix": {
        "Gazole": 0.0019790000000000003,
        "E10": 0.0019790000000000003,
        "SP98": 0.002059
      },
      "maj_gouv": {
        "Gazole": "2026-06-05 13:00:00",
        "E10": "2026-06-05 13:00:00",
        "SP98": "2026-06-05 13:00:00"
      }
    },
    {
      "id": "66360001",
      "lat": 42.553539623093,
      "lon": 2.2678783322119,
      "cp": "66360",
      "ville": "Olette",
      "prix": {
        "Gazole": 0.002049,
        "E10": 0.002059
      },
      "maj_gouv": {
        "Gazole": "2026-06-10 14:00:00",
        "E10": "2026-06-10 14:00:00"
      }
    },
    {
      "id": "66470002",
      "lat": 42.732195074947,
      "lon": 3.0252647534558004,
      "cp": "66470",
      "ville": "SAINTE MARIE LA MER",
      "prix": {
        "Gazole": 0.002079,
        "E85": 0.000819,
        "E10": 0.0019950000000000002,
        "SP98": 0.002105
      },
      "maj_gouv": {
        "Gazole": "2026-06-04 05:30:50",
        "E85": "2026-05-27 04:44:39",
        "E10": "2026-06-04 05:30:51",
        "SP98": "2026-06-04 05:30:51"
      }
    },
    {
      "id": "66400006",
      "lat": 42.49,
      "lon": 2.751,
      "cp": "66400",
      "ville": "ceret",
      "prix": {
        "Gazole": 0.001944,
        "SP95": 0.0019590000000000002,
        "SP98": 0.001999
      },
      "maj_gouv": {
        "Gazole": "2026-06-09 15:42:49",
        "SP95": "2026-06-06 12:18:51",
        "SP98": "2026-06-09 15:42:50"
      }
    },
    {
      "id": "66310002",
      "lat": 42.774847,
      "lon": 2.712237,
      "cp": "66310",
      "ville": "ESTAGEL",
      "prix": {
        "Gazole": 0.001999,
        "E85": 0.000799,
        "E10": 0.001929,
        "SP98": 0.002059
      },
      "maj_gouv": {
        "Gazole": "2026-06-08 01:17:02",
        "E85": "2026-06-03 17:26:07",
        "E10": "2026-06-03 17:26:07",
        "SP98": "2026-06-03 17:26:08"
      }
    }
  ]
}