{
  "departement": "89",
  "date": "2026-06-11",
  "stations": [
    {
      "id": "89100001",
      "lat": 48.183,
      "lon": 3.309,
      "cp": "89100",
      "ville": "SENS",
      "prix": {
        "Gazole": 0.001999,
        "E85": 0.000829,
        "E10": 0.0019590000000000002,
        "SP98": 0.002129
      },
      "maj_gouv": {
        "Gazole": "2026-06-02 09:20:15",
        "E85": "2026-05-04 09:44:51",
        "E10": "2026-06-02 09:20:16",
        "SP98": "2026-05-04 09:44:51"
      }
    },
    {
      "id": "89330001",
      "lat": 48.0361,
      "lon": 3.30502,
      "cp": "89330",
      "ville": "Saint-Julien-du-Sault",
      "prix": {
        "Gazole": 0.0020150000000000003,
        "E10": 0.001946,
        "SP98": 0.0020499999999999997
      },
      "maj_gouv": {
        "Gazole": "2026-06-10 08:34:00",
        "E10": "2026-06-10 08:34:00",
        "SP98": "2026-06-10 08:34:00"
      }
    },
    {
      "id": "89690001",
      "lat": 48.2,
      "lon": 2.992,
      "cp": "89690",
      "ville": "CHEROY",
      "prix": {
        "Gazole": 0.001998,
        "E85": 0.000809,
        "E10": 0.0019399999999999999,
        "SP98": 0.002029
      },
      "maj_gouv": {
        "Gazole": "2026-06-11 06:07:37",
        "E85": "2026-06-11 06:07:38",
        "E10": "2026-06-11 06:07:38",
        "SP98": "2026-06-11 06:07:38"
      }
    },
    {
      "id": "89380001",
      "lat": 47.880826805196,
      "lon": 3.5268365139365,
      "cp": "89380",
      "ville": "APPOIGNY",
      "prix": {
        "Gazole": 0.001999,
        "SP95": 0.002099,
        "SP98": 0.002149
      },
      "maj_gouv": {
        "Gazole": "2026-06-03 00:00:00",
        "SP95": "2026-06-03 00:00:00",
        "SP98": "2026-06-03 00:00:00"
      }
    },
    {
      "id": "89000004",
      "lat": 47.793,
      "lon": 3.575,
      "cp": "89000",
      "ville": "Auxerre",
      "prix": {
        "Gazole": 0.002063,
        "E10": 0.00199,
        "SP98": 0.00199
      },
      "maj_gouv": {
        "Gazole": "2026-06-10 06:55:22",
        "E10": "2026-06-10 06:55:22",
        "SP98": "2026-06-10 06:55:22"
      }
    },
    {
      "id": "89140004",
      "lat": 48.284,
      "lon": 3.212,
      "cp": "89140",
      "ville": "Pont-sur-Yonne",
      "prix": {
        "Gazole": 0.0020800000000000003,
        "E10": 0.00199,
        "SP98": 0.00199
      },
      "maj_gouv": {
        "Gazole": "2026-06-10 15:06:03",
        "E10": "2026-05-26 11:22:48",
        "SP98": "2026-06-08 22:06:40"
      }
    },
    {
      "id": "89290001",
      "lat": 47.74,
      "lon": 3.599,
      "cp": "89290",
      "ville": "CHAMPS-SUR-YONNE",
      "prix": {
        "Gazole": 0.001999,
        "SP95": 0.002099,
        "SP98": 0.002199
      },
      "maj_gouv": {
        "Gazole": "2026-06-03 00:00:00",
        "SP95": "2026-06-03 00:00:00",
        "SP98": "2026-06-03 00:00:00"
      }
    },
    {
      "id": "89250001",
      "lat": 47.902354808005,
      "lon": 3.6105720708072,
      "cp": "89250",
      "ville": "SEIGNELAY",
      "prix": {
        "Gazole": 0.001999,
        "SP95": 0.002099,
        "SP98": 0.002149
      },
      "maj_gouv": {
        "Gazole": "2026-06-03 00:00:00",
        "SP95": "2026-06-03 00:00:00",
        "SP98": "2026-06-03 00:00:00"
      }
    },
    {
      "id": "89420003",
      "lat": 47.504517327111,
      "lon": 4.0382550768547,
      "cp": "89420",
      "ville": "Sceaux",
      "prix": {
        "Gazole": 0.002229,
        "E85": 0.001055,
        "GPLc": 0.00116,
        "E10": 0.002179,
        "SP98": 0.0022789999999999998
      },
      "maj_gouv": {
        "Gazole": "2026-06-03 06:00:00",
        "E85": "2026-06-03 06:00:00",
        "GPLc": "2026-06-03 06:00:00",
        "E10": "2026-06-03 06:00:00",
        "SP98": "2026-06-03 06:00:00"
      }
    },
    {
      "id": "89000012",
      "lat": 47.809074609693,
      "lon": 3.5588100228173,
      "cp": "89000",
      "ville": "AUXERRE",
      "prix": {
        "Gazole": 0.002039,
        "E85": 0.000798,
        "E10": 0.001949,
        "SP98": 0.002059
      },
      "maj_gouv": {
        "Gazole": "2026-06-10 08:00:00",
        "E85": "2026-05-20 08:00:00",
        "E10": "2026-06-08 08:00:00",
        "SP98": "2026-06-08 08:00:00"
      }
    },
    {
      "id": "89190008",
      "lat": 48.247221052308,
      "lon": 3.5555068346406,
      "cp": "89190",
      "ville": "Villeneuve-l'Archevêque",
      "prix": {
        "Gazole": 0.002093,
        "GPLc": 0.001108,
        "E10": 0.002139,
        "SP98": 0.0022480000000000004
      },
      "maj_gouv": {
        "Gazole": "2026-06-09 09:30:00",
        "GPLc": "2026-06-09 09:30:00",
        "E10": "2026-06-09 09:30:00",
        "SP98": "2026-06-09 09:30:00"
      }
    },
    {
      "id": "89700001",
      "lat": 47.852,
      "lon": 3.985,
      "cp": "89700",
      "ville": "Tonnerre",
      "prix": {
        "Gazole": 0.001999,
        "SP95": 0.002099,
        "SP98": 0.002149
      },
      "maj_gouv": {
        "Gazole": "2026-06-03 00:00:00",
        "SP95": "2026-06-03 00:00:00",
        "SP98": "2026-06-03 00:00:00"
      }
    },
    {
      "id": "89130001",
      "lat": 47.762,
      "lon": 3.254,
      "cp": "89130",
      "ville": "TOUCY",
      "prix": {
        "Gazole": 0.001999,
        "E10": 0.002079,
        "SP98": 0.002149
      },
      "maj_gouv": {
        "Gazole": "2026-06-03 00:00:00",
        "E10": "2026-06-03 00:00:00",
        "SP98": "2026-06-03 00:00:00"
      }
    },
    {
      "id": "89200009",
      "lat": 47.491,
      "lon": 3.902,
      "cp": "89200",
      "ville": "AVALLON",
      "prix": {
        "Gazole": 0.001996,
        "SP95": 0.002045,
        "E10": 0.001988
      },
      "maj_gouv": {
        "Gazole": "2026-06-06 07:16:19",
        "SP95": "2026-06-06 07:16:19",
        "E10": "2026-06-06 07:16:20"
      }
    },
    {
      "id": "89000013",
      "lat": 47.815,
      "lon": 3.573,
      "cp": "89000",
      "ville": "AUXERRE",
      "prix": {
        "Gazole": 0.002009,
        "E85": 0.000773,
        "GPLc": 0.00107,
        "E10": 0.001943
      },
      "maj_gouv": {
        "Gazole": "2026-06-10 12:25:35",
        "E85": "2026-06-10 12:25:35",
        "GPLc": "2026-06-10 12:25:35",
        "E10": "2026-06-10 12:25:35"
      }
    },
    {
      "id": "89100007",
      "lat": 48.198,
      "lon": 3.277,
      "cp": "89100",
      "ville": "Sens",
      "prix": {
        "Gazole": 0.001999,
        "E10": 0.002079,
        "SP98": 0.002149
      },
      "maj_gouv": {
        "Gazole": "2026-06-02 21:00:00",
        "E10": "2026-06-02 21:00:00",
        "SP98": "2026-06-02 21:00:00"
      }
    },
    {
      "id": "89190006",
      "lat": 48.237,
      "lon": 3.552,
      "cp": "89190",
      "ville": "Villeneuve-l'Archevêque",
      "prix": {
        "Gazole": 0.002049,
        "SP95": 0.002029,
        "SP98": 0.002099
      },
      "maj_gouv": {
        "Gazole": "2026-06-09 11:49:06",
        "SP95": "2026-06-09 11:49:07",
        "SP98": "2026-06-09 11:49:07"
      }
    },
    {
      "id": "89400003",
      "lat": 47.973,
      "lon": 3.511,
      "cp": "89400",
      "ville": "Migennes",
      "prix": {
        "Gazole": 0.0019890000000000003,
        "E85": 0.0007970000000000001,
        "E10": 0.001939,
        "SP98": 0.0019890000000000003
      },
      "maj_gouv": {
        "Gazole": "2026-06-11 01:15:00",
        "E85": "2026-06-09 10:36:00",
        "E10": "2026-06-11 01:15:00",
        "SP98": "2026-06-11 01:15:00"
      }
    },
    {
      "id": "89270001",
      "lat": 47.664130022077,
      "lon": 3.7387714294689,
      "cp": "89270",
      "ville": "VERMENTON",
      "prix": {
        "Gazole": 0.002159,
        "SP95": 0.002139,
        "SP98": 0.002229
      },
      "maj_gouv": {
        "Gazole": "2026-05-19 10:55:23",
        "SP95": "2026-05-19 15:09:49",
        "SP98": "2026-05-18 12:53:51"
      }
    },
    {
      "id": "89170001",
      "lat": 47.642,
      "lon": 3.068,
      "cp": "89170",
      "ville": "Saint-Fargeau",
      "prix": {
        "Gazole": 0.001999,
        "SP95": 0.002149,
        "E10": 0.002079
      },
      "maj_gouv": {
        "Gazole": "2026-06-03 00:00:00",
        "SP95": "2026-06-03 00:00:00",
        "E10": "2026-06-03 00:00:00"
      }
    },
    {
      "id": "89200002",
      "lat": 47.49,
      "lon": 3.9,
      "cp": "89200",
      "ville": "Avallon",
      "prix": {
        "Gazole": 0.001999,
        "SP95": 0.002059
      },
      "maj_gouv": {
        "Gazole": "2026-06-03 00:00:00",
        "SP95": "2026-06-03 00:00:00"
      }
    },
    {
      "id": "89520001",
      "lat": 47.62,
      "lon": 3.198,
      "cp": "89520",
      "ville": "SAINT-SAUVEUR-EN-PUISAYE",
      "prix": {
        "Gazole": 0.001999,
        "SP95": 0.002099,
        "SP98": 0.002149
      },
      "maj_gouv": {
        "Gazole": "2026-06-03 00:00:00",
        "SP95": "2026-06-03 00:00:00",
        "SP98": "2026-06-03 00:00:00"
      }
    },
    {
      "id": "89200008",
      "lat": 47.491,
      "lon": 3.912,
      "cp": "89200",
      "ville": "Avallon",
      "prix": {
        "Gazole": 0.001999,
        "SP95": 0.002059,
        "E85": 0.000949,
        "GPLc": 0.0011979999999999998,
        "SP98": 0.002199
      },
      "maj_gouv": {
        "Gazole": "2026-06-03 00:00:00",
        "SP95": "2026-06-03 00:00:00",
        "E85": "2026-04-14 23:59:00",
        "GPLc": "2026-04-25 00:00:00",
        "SP98": "2026-04-14 23:59:00"
      }
    },
    {
      "id": "89500002",
      "lat": 48.087524187696,
      "lon": 3.2972951411349,
      "cp": "89500",
      "ville": "Villeneuve-sur-Yonne",
      "prix": {
        "Gazole": 0.0019950000000000002,
        "E85": 0.000798,
        "E10": 0.0019450000000000001,
        "SP98": 0.002018
      },
      "maj_gouv": {
        "Gazole": "2026-06-10 07:54:17",
        "E85": "2026-06-05 12:29:33",
        "E10": "2026-06-10 07:54:17",
        "SP98": "2026-06-05 12:29:33"
      }
    },
    {
      "id": "89130003",
      "lat": 47.732,
      "lon": 3.31,
      "cp": "89130",
      "ville": "TOUCY",
      "prix": {
        "Gazole": 0.001999,
        "SP95": 0.002099,
        "E85": 0.0008990000000000001
      },
      "maj_gouv": {
        "Gazole": "2026-06-03 00:10:00",
        "SP95": "2026-06-03 00:10:00",
        "E85": "2026-04-15 00:10:00"
      }
    },
    {
      "id": "89290002",
      "lat": 47.705,
      "lon": 3.634,
      "cp": "89290",
      "ville": "VINCELLES",
      "prix": {
        "Gazole": 0.002159,
        "SP95": 0.002099
      },
      "maj_gouv": {
        "Gazole": "2026-05-18 12:15:14",
        "SP95": "2026-05-18 12:15:51"
      }
    },
    {
      "id": "89100013",
      "lat": 48.172,
      "lon": 3.292,
      "cp": "89100",
      "ville": "Sens",
      "prix": {
        "Gazole": 0.001999,
        "SP95": 0.002099,
        "E10": 0.002079,
        "SP98": 0.002149
      },
      "maj_gouv": {
        "Gazole": "2026-06-03 00:00:00",
        "SP95": "2026-06-03 00:00:00",
        "E10": "2026-06-03 00:00:00",
        "SP98": "2026-06-03 00:00:00"
      }
    },
    {
      "id": "89520003",
      "lat": 47.518,
      "lon": 3.26,
      "cp": "89520",
      "ville": "Sainpuits",
      "prix": {
        "Gazole": 0.00219,
        "SP95": 0.0022,
        "SP98": 0.00227
      },
      "maj_gouv": {
        "Gazole": "2026-06-08 07:16:06",
        "SP95": "2026-06-08 07:16:06",
        "SP98": "2026-06-08 07:16:06"
      }
    },
    {
      "id": "89160001",
      "lat": 47.77,
      "lon": 4.175,
      "cp": "89160",
      "ville": "Ancy-le-Franc",
      "prix": {
        "Gazole": 0.002079,
        "SP95": 0.002059,
        "E85": 0.000959,
        "SP98": 0.002099
      },
      "maj_gouv": {
        "Gazole": "2026-05-29 09:10:49",
        "SP95": "2026-05-29 09:10:50",
        "E85": "2026-04-22 12:05:35",
        "SP98": "2026-05-29 09:10:50"
      }
    },
    {
      "id": "89470004",
      "lat": 47.846,
      "lon": 3.55,
      "cp": "89470",
      "ville": "MONETEAU",
      "prix": {
        "Gazole": 0.001972,
        "E85": 0.000839,
        "E10": 0.001921
      },
      "maj_gouv": {
        "Gazole": "2026-06-11 00:01:00",
        "E85": "2026-06-11 00:01:00",
        "E10": "2026-06-11 00:01:00"
      }
    },
    {
      "id": "89140001",
      "lat": 48.294584699999994,
      "lon": 3.195853,
      "cp": "89140",
      "ville": "Pont-sur-Yonne",
      "prix": {
        "Gazole": 0.001999,
        "SP95": 0.002149,
        "E85": 0.0008990000000000001
      },
      "maj_gouv": {
        "Gazole": "2026-06-03 00:00:00",
        "SP95": "2026-06-03 00:00:00",
        "E85": "2026-05-22 00:00:00"
      }
    },
    {
      "id": "89350001",
      "lat": 47.779,
      "lon": 3.077,
      "cp": "89350",
      "ville": "Champignelles",
      "prix": {
        "Gazole": 0.001999,
        "SP95": 0.002099,
        "SP98": 0.002149
      },
      "maj_gouv": {
        "Gazole": "2026-06-03 00:00:00",
        "SP95": "2026-06-03 00:00:00",
        "SP98": "2026-06-03 00:00:00"
      }
    },
    {
      "id": "89560001",
      "lat": 47.616,
      "lon": 3.497,
      "cp": "89560",
      "ville": "COURSON-LES-CARRIèRES",
      "prix": {
        "Gazole": 0.002079,
        "E10": 0.00199
      },
      "maj_gouv": {
        "Gazole": "2026-06-10 08:37:44",
        "E10": "2026-06-10 08:37:44"
      }
    },
    {
      "id": "89000008",
      "lat": 47.797,
      "lon": 3.579,
      "cp": "89000",
      "ville": "Auxerre",
      "prix": {
        "Gazole": 0.002009,
        "E85": 0.000773,
        "E10": 0.001943,
        "SP98": 0.002023
      },
      "maj_gouv": {
        "Gazole": "2026-06-11 01:15:00",
        "E85": "2026-06-11 01:15:00",
        "E10": "2026-06-11 01:15:00",
        "SP98": "2026-06-11 01:15:00"
      }
    },
    {
      "id": "89600001",
      "lat": 48.00053054102,
      "lon": 3.71870193155,
      "cp": "89600",
      "ville": "Saint-Florentin",
      "prix": {
        "Gazole": 0.001999,
        "E10": 0.002099,
        "SP98": 0.002149
      },
      "maj_gouv": {
        "Gazole": "2026-06-03 00:00:00",
        "E10": "2026-06-03 00:00:00",
        "SP98": "2026-06-03 00:00:00"
      }
    },
    {
      "id": "89100006",
      "lat": 48.216605760092996,
      "lon": 3.2771067499518,
      "cp": "89100",
      "ville": "Saint-Denis-lès-Sens",
      "prix": {
        "Gazole": 0.0019690000000000003,
        "E85": 0.000799,
        "GPLc": 0.001059,
        "E10": 0.001909,
        "SP98": 0.0019890000000000003
      },
      "maj_gouv": {
        "Gazole": "2026-06-10 09:00:00",
        "E85": "2026-04-20 09:00:00",
        "GPLc": "2026-04-24 09:00:00",
        "E10": "2026-06-10 09:00:00",
        "SP98": "2026-06-10 09:00:00"
      }
    },
    {
      "id": "89100015",
      "lat": 48.204,
      "lon": 3.271,
      "cp": "89100",
      "ville": "Sens",
      "prix": {
        "Gazole": 0.001965,
        "E85": 0.000829,
        "E10": 0.001924,
        "SP98": 0.00199
      },
      "maj_gouv": {
        "Gazole": "2026-06-11 00:01:00",
        "E85": "2026-06-11 00:01:00",
        "E10": "2026-06-11 00:01:00",
        "SP98": "2026-06-11 00:01:00"
      }
    },
    {
      "id": "89000007",
      "lat": 47.799,
      "lon": 3.553,
      "cp": "89000",
      "ville": "Auxerre",
      "prix": {
        "Gazole": 0.001961,
        "E10": 0.001955,
        "SP98": 0.0020350000000000004
      },
      "maj_gouv": {
        "Gazole": "2026-06-10 07:51:00",
        "E10": "2026-06-10 07:51:00",
        "SP98": "2026-06-10 07:51:00"
      }
    },
    {
      "id": "89330002",
      "lat": 48.032,
      "lon": 3.304,
      "cp": "89330",
      "ville": "SAINT-JULIEN-DU-SAULT",
      "prix": {
        "Gazole": 0.002128,
        "SP95": 0.002118
      },
      "maj_gouv": {
        "Gazole": "2026-06-01 07:40:27",
        "SP95": "2026-06-01 07:40:27"
      }
    },
    {
      "id": "89150002",
      "lat": 48.166,
      "lon": 3.172,
      "cp": "89150",
      "ville": "Fouchères",
      "prix": {
        "Gazole": 0.002189,
        "GPLc": 0.0010680000000000002,
        "E10": 0.00212,
        "SP98": 0.00222
      },
      "maj_gouv": {
        "Gazole": "2026-06-10 07:51:00",
        "GPLc": "2026-06-10 07:51:00",
        "E10": "2026-06-10 07:51:00",
        "SP98": "2026-06-10 07:51:00"
      }
    },
    {
      "id": "89380006",
      "lat": 47.880994937581995,
      "lon": 3.5280124431542,
      "cp": "89380",
      "ville": "APPOIGNY",
      "prix": {
        "Gazole": 0.001982,
        "E85": 0.000839,
        "E10": 0.001924,
        "SP98": 0.00199
      },
      "maj_gouv": {
        "Gazole": "2026-06-11 00:01:00",
        "E85": "2026-06-11 00:01:00",
        "E10": "2026-06-11 00:01:00",
        "SP98": "2026-06-11 00:01:00"
      }
    },
    {
      "id": "89400002",
      "lat": 47.963,
      "lon": 3.502,
      "cp": "89400",
      "ville": "Migennes",
      "prix": {
        "Gazole": 0.001998,
        "E10": 0.0019479999999999999,
        "SP98": 0.002028
      },
      "maj_gouv": {
        "Gazole": "2026-06-10 17:40:00",
        "E10": "2026-06-10 17:40:00",
        "SP98": "2026-06-10 17:40:00"
      }
    },
    {
      "id": "89600003",
      "lat": 48.001252533769005,
      "lon": 3.7213207423039996,
      "cp": "89600",
      "ville": "SAINT-FLORENTIN",
      "prix": {
        "Gazole": 0.0020729999999999998,
        "E10": 0.00199,
        "SP98": 0.00199
      },
      "maj_gouv": {
        "Gazole": "2026-06-10 18:50:57",
        "E10": "2026-06-10 18:50:57",
        "SP98": "2026-06-10 18:50:57"
      }
    },
    {
      "id": "89100014",
      "lat": 48.148,
      "lon": 3.307,
      "cp": "89100",
      "ville": "SENS",
      "prix": {
        "Gazole": 0.001963,
        "E85": 0.000829,
        "E10": 0.001933,
        "SP98": 0.00199
      },
      "maj_gouv": {
        "Gazole": "2026-06-11 00:01:00",
        "E85": "2026-06-11 00:01:00",
        "E10": "2026-06-11 00:01:00",
        "SP98": "2026-06-11 00:01:00"
      }
    },
    {
      "id": "89290007",
      "lat": 47.78765,
      "lon": 3.67211,
      "cp": "89290",
      "ville": "VENOY",
      "prix": {
        "Gazole": 0.0021709999999999998,
        "E85": 0.000998,
        "GPLc": 0.0010680000000000002,
        "E10": 0.00199,
        "SP98": 0.00199
      },
      "maj_gouv": {
        "Gazole": "2026-06-11 00:01:00",
        "E85": "2026-06-11 00:01:00",
        "GPLc": "2026-06-11 00:01:00",
        "E10": "2026-06-11 00:01:00",
        "SP98": "2026-06-11 00:01:00"
      }
    },
    {
      "id": "89000003",
      "lat": 47.811,
      "lon": 3.536,
      "cp": "89000",
      "ville": "SAINT-GEORGES-SUR-BAULCHE",
      "prix": {
        "Gazole": 0.001999,
        "E10": 0.002079,
        "SP98": 0.002149
      },
      "maj_gouv": {
        "Gazole": "2026-06-03 00:00:00",
        "E10": "2026-06-03 00:00:00",
        "SP98": "2026-06-03 00:00:00"
      }
    },
    {
      "id": "89116003",
      "lat": 47.97408,
      "lon": 3.19921,
      "cp": "89116",
      "ville": "Précy-sur-Vrin",
      "prix": {
        "Gazole": 0.002175,
        "E85": 0.000998,
        "GPLc": 0.0010680000000000002,
        "E10": 0.00199,
        "SP98": 0.00199
      },
      "maj_gouv": {
        "Gazole": "2026-06-11 00:01:00",
        "E85": "2026-06-11 00:01:00",
        "GPLc": "2026-06-11 00:01:00",
        "E10": "2026-06-11 00:01:00",
        "SP98": "2026-06-11 00:01:00"
      }
    },
    {
      "id": "89110001",
      "lat": 47.876,
      "lon": 3.353,
      "cp": "89110",
      "ville": "AILLANT-SUR-THOLON",
      "prix": {
        "Gazole": 0.001999,
        "SP95": 0.002099,
        "SP98": 0.002149
      },
      "maj_gouv": {
        "Gazole": "2026-06-03 00:00:00",
        "SP95": "2026-06-03 00:00:00",
        "SP98": "2026-06-03 00:00:00"
      }
    },
    {
      "id": "89630001",
      "lat": 47.371,
      "lon": 3.998,
      "cp": "89630",
      "ville": "Quarré-les-Tombes",
      "prix": {
        "Gazole": 0.002162,
        "E10": 0.002127
      },
      "maj_gouv": {
        "Gazole": "2026-05-28 08:31:00",
        "E10": "2026-05-28 08:31:00"
      }
    },
    {
      "id": "89400001",
      "lat": 47.962,
      "lon": 3.505,
      "cp": "89400",
      "ville": "MIGENNES",
      "prix": {
        "Gazole": 0.001999,
        "SP95": 0.002099,
        "SP98": 0.002149
      },
      "maj_gouv": {
        "Gazole": "2026-06-03 00:00:00",
        "SP95": "2026-06-03 00:00:00",
        "SP98": "2026-06-03 00:00:00"
      }
    },
    {
      "id": "89340004",
      "lat": 48.336,
      "lon": 3.08,
      "cp": "89340",
      "ville": "Villeblevin",
      "prix": {
        "Gazole": 0.002113,
        "SP95": 0.0020299999999999997
      },
      "maj_gouv": {
        "Gazole": "2026-06-03 16:10:58",
        "SP95": "2026-06-03 16:10:58"
      }
    },
    {
      "id": "89420007",
      "lat": 47.467419859402,
      "lon": 4.0803019554445,
      "cp": "89420",
      "ville": "Cussy les Forges",
      "prix": {
        "Gazole": 0.002049,
        "E85": 0.001019,
        "E10": 0.0019790000000000003,
        "SP98": 0.002159
      },
      "maj_gouv": {
        "Gazole": "2026-06-10 12:05:29",
        "E85": "2026-05-15 11:35:29",
        "E10": "2026-06-10 12:05:30",
        "SP98": "2026-06-10 12:05:30"
      }
    },
    {
      "id": "89000002",
      "lat": 47.792,
      "lon": 3.58,
      "cp": "89000",
      "ville": "Auxerre",
      "prix": {
        "Gazole": 0.001999,
        "SP95": 0.002149,
        "E10": 0.002079
      },
      "maj_gouv": {
        "Gazole": "2026-06-03 00:00:00",
        "SP95": "2026-06-03 00:00:00",
        "E10": "2026-06-03 00:00:00"
      }
    },
    {
      "id": "89800001",
      "lat": 47.81846,
      "lon": 3.78141,
      "cp": "89800",
      "ville": "Chablis",
      "prix": {
        "Gazole": 0.002069,
        "E10": 0.0019690000000000003,
        "SP98": 0.002099
      },
      "maj_gouv": {
        "Gazole": "2026-06-08 06:59:38",
        "E10": "2026-06-08 06:59:38",
        "SP98": "2026-06-08 06:59:39"
      }
    },
    {
      "id": "89220001",
      "lat": 47.694,
      "lon": 2.95,
      "cp": "89220",
      "ville": "BLéNEAU",
      "prix": {
        "Gazole": 0.001999,
        "E10": 0.002099,
        "SP98": 0.002149
      },
      "maj_gouv": {
        "Gazole": "2026-06-03 00:00:00",
        "E10": "2026-06-03 00:00:00",
        "SP98": "2026-06-03 00:00:00"
      }
    },
    {
      "id": "89200006",
      "lat": 47.4982722302,
      "lon": 3.89684379984,
      "cp": "89200",
      "ville": "AVALLON",
      "prix": {
        "Gazole": 0.002049,
        "SP95": 0.002039,
        "E10": 0.0019790000000000003,
        "SP98": 0.002159
      },
      "maj_gouv": {
        "Gazole": "2026-06-10 14:08:34",
        "SP95": "2026-06-10 14:08:34",
        "E10": "2026-06-10 14:08:34",
        "SP98": "2026-06-10 14:08:34"
      }
    },
    {
      "id": "89700002",
      "lat": 47.873,
      "lon": 3.967,
      "cp": "89700",
      "ville": "TONNERRE",
      "prix": {
        "Gazole": 0.001994,
        "E85": 0.0007970000000000001,
        "E10": 0.001949,
        "SP98": 0.002079
      },
      "maj_gouv": {
        "Gazole": "2026-06-11 01:15:00",
        "E85": "2026-06-11 01:15:00",
        "E10": "2026-06-11 01:15:00",
        "SP98": "2026-06-11 01:15:00"
      }
    },
    {
      "id": "89150004",
      "lat": 48.178,
      "lon": 3.11,
      "cp": "89150",
      "ville": "SAINT-VALERIEN",
      "prix": {
        "Gazole": 0.001999,
        "SP95": 0.002099,
        "SP98": 0.002149
      },
      "maj_gouv": {
        "Gazole": "2026-06-03 00:00:00",
        "SP95": "2026-06-03 00:00:00",
        "SP98": "2026-06-03 00:00:00"
      }
    },
    {
      "id": "89290008",
      "lat": 47.703,
      "lon": 3.628,
      "cp": "89290",
      "ville": "Vincelles",
      "prix": {
        "Gazole": 0.002159,
        "E10": 0.002099,
        "SP98": 0.002249
      },
      "maj_gouv": {
        "Gazole": "2026-06-08 17:09:29",
        "E10": "2026-06-08 17:09:29",
        "SP98": "2026-06-08 17:09:29"
      }
    },
    {
      "id": "89400004",
      "lat": 47.95,
      "lon": 3.469,
      "cp": "89400",
      "ville": "Épineau-les-Voves",
      "prix": {
        "Gazole": 0.0019890000000000003,
        "E85": 0.000772,
        "E10": 0.001928,
        "SP98": 0.0019890000000000003
      },
      "maj_gouv": {
        "Gazole": "2026-06-11 01:15:00",
        "E85": "2026-06-11 01:15:00",
        "E10": "2026-06-11 01:15:00",
        "SP98": "2026-06-11 01:15:00"
      }
    },
    {
      "id": "89210002",
      "lat": 47.99,
      "lon": 3.606,
      "cp": "89210",
      "ville": "Brienon-sur-Armançon",
      "prix": {
        "Gazole": 0.002064,
        "E10": 0.00199,
        "SP98": 0.00199
      },
      "maj_gouv": {
        "Gazole": "2026-06-10 09:42:55",
        "E10": "2026-06-10 09:42:55",
        "SP98": "2026-06-10 09:42:55"
      }
    },
    {
      "id": "89120001",
      "lat": 47.887,
      "lon": 3.096,
      "cp": "89120",
      "ville": "Charny",
      "prix": {
        "Gazole": 0.001999,
        "SP95": 0.002099,
        "SP98": 0.002149
      },
      "maj_gouv": {
        "Gazole": "2026-06-03 00:00:00",
        "SP95": "2026-06-03 00:00:00",
        "SP98": "2026-06-03 00:00:00"
      }
    },
    {
      "id": "89132001",
      "lat": 47.974,
      "lon": 3.198,
      "cp": "89116",
      "ville": "PRECY-SUR-VRIN",
      "prix": {
        "Gazole": 0.002229,
        "E85": 0.001055,
        "GPLc": 0.00116,
        "E10": 0.002179,
        "SP98": 0.0022789999999999998
      },
      "maj_gouv": {
        "Gazole": "2026-06-09 15:03:37",
        "E85": "2026-06-09 15:03:37",
        "GPLc": "2026-06-09 15:03:37",
        "E10": "2026-06-09 15:03:38",
        "SP98": "2026-06-09 15:03:38"
      }
    },
    {
      "id": "89190007",
      "lat": 48.242996678371,
      "lon": 3.5544017645264,
      "cp": "89190",
      "ville": "Villeneuve-l'Archevêque",
      "prix": {
        "Gazole": 0.002093,
        "GPLc": 0.001108,
        "E10": 0.002139,
        "SP98": 0.0022480000000000004
      },
      "maj_gouv": {
        "Gazole": "2026-06-09 09:30:00",
        "GPLc": "2026-06-09 09:30:00",
        "E10": "2026-06-09 09:30:00",
        "SP98": "2026-06-09 09:30:00"
      }
    },
    {
      "id": "89600004",
      "lat": 47.99973,
      "lon": 3.71494,
      "cp": "89600",
      "ville": "Saint-Florentin",
      "prix": {
        "Gazole": 0.0019890000000000003,
        "E85": 0.000798,
        "E10": 0.001999,
        "SP98": 0.002049
      },
      "maj_gouv": {
        "Gazole": "2026-06-03 08:32:40",
        "E85": "2026-05-28 09:24:20",
        "E10": "2026-06-03 08:32:40",
        "SP98": "2026-06-03 08:32:40"
      }
    },
    {
      "id": "89000011",
      "lat": 47.797,
      "lon": 3.547,
      "cp": "89000",
      "ville": "Auxerre",
      "prix": {
        "Gazole": 0.0019890000000000003,
        "SP95": 0.0019690000000000003,
        "SP98": 0.002019
      },
      "maj_gouv": {
        "Gazole": "2026-06-10 11:12:19",
        "SP95": "2026-06-10 11:12:19",
        "SP98": "2026-06-10 11:12:19"
      }
    },
    {
      "id": "89100002",
      "lat": 48.197,
      "lon": 3.266,
      "cp": "89100",
      "ville": "SENS",
      "prix": {
        "Gazole": 0.001999,
        "SP95": 0.002009,
        "E10": 0.0019590000000000002
      },
      "maj_gouv": {
        "Gazole": "2026-06-02 09:12:32",
        "SP95": "2026-06-02 09:12:33",
        "E10": "2026-06-02 09:12:33"
      }
    },
    {
      "id": "89200003",
      "lat": 47.499,
      "lon": 3.908,
      "cp": "89200",
      "ville": "AVALLON",
      "prix": {
        "Gazole": 0.001999,
        "SP95": 0.002059,
        "GPLc": 0.001199,
        "E10": 0.002049,
        "SP98": 0.002199
      },
      "maj_gouv": {
        "Gazole": "2026-06-03 00:00:00",
        "SP95": "2026-06-03 00:00:00",
        "GPLc": "2026-04-03 00:00:00",
        "E10": "2026-06-03 00:00:00",
        "SP98": "2026-04-15 00:00:00"
      }
    },
    {
      "id": "89300002",
      "lat": 47.98,
      "lon": 3.382,
      "cp": "89300",
      "ville": "Joigny",
      "prix": {
        "Gazole": 0.001942,
        "E85": 0.000798,
        "E10": 0.001929,
        "SP98": 0.002045
      },
      "maj_gouv": {
        "Gazole": "2026-06-09 09:00:00",
        "E85": "2026-05-15 09:55:08",
        "E10": "2026-06-09 09:00:00",
        "SP98": "2026-06-09 09:00:00"
      }
    },
    {
      "id": "89130002",
      "lat": 47.7217607339,
      "lon": 3.3131277129499996,
      "cp": "89130",
      "ville": "TOUCY",
      "prix": {
        "Gazole": 0.001982,
        "E85": 0.000798,
        "E10": 0.0019450000000000001,
        "SP98": 0.002049
      },
      "maj_gouv": {
        "Gazole": "2026-06-10 08:54:03",
        "E85": "2026-05-18 08:47:24",
        "E10": "2026-06-10 08:54:03",
        "SP98": "2026-06-02 09:33:25"
      }
    },
    {
      "id": "89450002",
      "lat": 47.462,
      "lon": 3.768,
      "cp": "89450",
      "ville": "ST PERE SOUS VEZELAY",
      "prix": {
        "Gazole": 0.002045,
        "SP95": 0.002049
      },
      "maj_gouv": {
        "Gazole": "2026-06-03 12:40:14",
        "SP95": "2026-06-03 12:40:14"
      }
    },
    {
      "id": "89920001",
      "lat": 47.79,
      "lon": 3.673,
      "cp": "89290",
      "ville": "Champs-sur-Yonne",
      "prix": {
        "Gazole": 0.002099,
        "E85": 0.000921,
        "GPLc": 0.0010680000000000002,
        "E10": 0.002053,
        "SP98": 0.002164
      },
      "maj_gouv": {
        "Gazole": "2026-06-09 00:30:00",
        "E85": "2026-06-09 00:30:00",
        "GPLc": "2026-06-09 00:30:00",
        "E10": "2026-06-09 00:30:00",
        "SP98": "2026-06-09 00:30:00"
      }
    },
    {
      "id": "89340003",
      "lat": 48.335,
      "lon": 3.065,
      "cp": "89340",
      "ville": "VILLENEUVE-LA-GUYARD",
      "prix": {
        "Gazole": 0.002029,
        "E85": 0.000798,
        "E10": 0.001949,
        "SP98": 0.002049
      },
      "maj_gouv": {
        "Gazole": "2026-06-10 08:00:00",
        "E85": "2026-05-21 08:00:00",
        "E10": "2026-06-08 08:00:00",
        "SP98": "2026-06-08 08:00:00"
      }
    },
    {
      "id": "89100009",
      "lat": 48.187222861284,
      "lon": 3.3178043719670995,
      "cp": "89100",
      "ville": "MALAY-LE-GRAND",
      "prix": {
        "Gazole": 0.001999,
        "E85": 0.000799,
        "E10": 0.0019590000000000002,
        "SP98": 0.002049
      },
      "maj_gouv": {
        "Gazole": "2026-06-02 12:21:25",
        "E85": "2026-05-13 18:54:03",
        "E10": "2026-06-02 12:21:25",
        "SP98": "2026-06-02 12:21:25"
      }
    },
    {
      "id": "89144002",
      "lat": 47.895,
      "lon": 3.758,
      "cp": "89144",
      "ville": "Ligny-le-Châtel",
      "prix": {
        "Gazole": 0.002045,
        "E85": 0.000879,
        "E10": 0.001978
      },
      "maj_gouv": {
        "Gazole": "2026-06-08 16:33:05",
        "E85": "2026-04-28 18:22:59",
        "E10": "2026-06-08 16:33:05"
      }
    },
    {
      "id": "89340001",
      "lat": 48.336,
      "lon": 3.08,
      "cp": "89340",
      "ville": "VILLEBLEVIN",
      "prix": {
        "Gazole": 0.002093,
        "SP95": 0.00199
      },
      "maj_gouv": {
        "Gazole": "2026-06-11 05:51:52",
        "SP95": "2026-06-11 05:51:52"
      }
    },
    {
      "id": "89000005",
      "lat": 47.804,
      "lon": 3.589,
      "cp": "89000",
      "ville": "AUXERRE",
      "prix": {
        "Gazole": 0.002052,
        "GPLc": 0.00107,
        "E10": 0.00199
      },
      "maj_gouv": {
        "Gazole": "2026-06-10 10:10:46",
        "GPLc": "2026-06-10 10:10:46",
        "E10": "2026-06-10 10:10:46"
      }
    },
    {
      "id": "89100004",
      "lat": 48.184,
      "lon": 3.287,
      "cp": "89100",
      "ville": "SENS",
      "prix": {
        "Gazole": 0.002076,
        "E10": 0.00199,
        "SP98": 0.00199
      },
      "maj_gouv": {
        "Gazole": "2026-06-10 07:23:06",
        "E10": "2026-05-27 10:39:46",
        "SP98": "2026-05-29 13:26:01"
      }
    },
    {
      "id": "89100017",
      "lat": 48.204847767689,
      "lon": 3.2890251042323,
      "cp": "89100",
      "ville": "SENS",
      "prix": {
        "Gazole": 0.002139,
        "E85": 0.000945,
        "GPLc": 0.001089,
        "E10": 0.002089,
        "SP98": 0.002199
      },
      "maj_gouv": {
        "Gazole": "2026-06-10 23:30:00",
        "E85": "2026-06-10 23:30:00",
        "GPLc": "2026-06-10 23:30:00",
        "E10": "2026-06-10 23:30:00",
        "SP98": "2026-06-10 23:30:00"
      }
    },
    {
      "id": "89120003",
      "lat": 47.877,
      "lon": 3.095,
      "cp": "89120",
      "ville": "Charny-Orée-de-Puisaye",
      "prix": {
        "Gazole": 0.001986,
        "E85": 0.000798,
        "E10": 0.0019790000000000003,
        "SP98": 0.002099
      },
      "maj_gouv": {
        "Gazole": "2026-06-08 16:05:31",
        "E85": "2026-05-15 15:00:00",
        "E10": "2026-06-05 15:26:45",
        "SP98": "2026-06-05 15:26:45"
      }
    },
    {
      "id": "89470001",
      "lat": 47.844,
      "lon": 3.551,
      "cp": "89470",
      "ville": "MONETEAU",
      "prix": {
        "Gazole": 0.002011,
        "GPLc": 0.000999,
        "E10": 0.001941,
        "SP98": 0.002058
      },
      "maj_gouv": {
        "Gazole": "2026-06-10 10:03:07",
        "GPLc": "2026-06-10 10:03:08",
        "E10": "2026-06-10 10:03:08",
        "SP98": "2026-06-10 10:03:08"
      }
    },
    {
      "id": "89300003",
      "lat": 47.977,
      "lon": 3.411,
      "cp": "89300",
      "ville": "JOIGNY",
      "prix": {
        "Gazole": 0.002057
      },
      "maj_gouv": {
        "Gazole": "2026-06-10 06:14:23"
      }
    },
    {
      "id": "89470005",
      "lat": 47.847,
      "lon": 3.58,
      "cp": "89470",
      "ville": "MONETEAU",
      "prix": {
        "Gazole": 0.00207,
        "E85": 0.0008489999999999999,
        "E10": 0.00199
      },
      "maj_gouv": {
        "Gazole": "2026-06-10 09:17:45",
        "E85": "2026-06-05 08:58:43",
        "E10": "2026-06-02 18:24:46"
      }
    },
    {
      "id": "89440001",
      "lat": 47.591429000000005,
      "lon": 4.002189,
      "cp": "89440",
      "ville": "L'ISLE SUR SEREIN",
      "prix": {
        "Gazole": 0.001999,
        "SP95": 0.002059,
        "SP98": 0.002199
      },
      "maj_gouv": {
        "Gazole": "2026-06-03 09:10:11",
        "SP95": "2026-06-03 09:10:11",
        "SP98": "2026-06-03 09:10:11"
      }
    },
    {
      "id": "89420008",
      "lat": 47.503302875357996,
      "lon": 4.0352394865034,
      "cp": "89420",
      "ville": "guillon en terre plaine",
      "prix": {
        "Gazole": 0.002091,
        "E85": 0.000975,
        "GPLc": 0.001188,
        "E10": 0.002027,
        "SP98": 0.0021219999999999998
      },
      "maj_gouv": {
        "Gazole": "2026-06-10 06:00:00",
        "E85": "2026-06-10 06:00:00",
        "GPLc": "2026-06-10 06:00:00",
        "E10": "2026-06-10 06:00:00",
        "SP98": "2026-06-10 06:00:00"
      }
    },
    {
      "id": "89520002",
      "lat": 47.62,
      "lon": 3.192,
      "cp": "89520",
      "ville": "SAINT-SAUVEUR-EN-PUISAYE",
      "prix": {
        "Gazole": 0.0020870000000000003
      },
      "maj_gouv": {
        "Gazole": "2026-06-10 08:53:49"
      }
    }
  ]
}