{
  "departement": "71",
  "date": "2026-06-11",
  "stations": [
    {
      "id": "71000020",
      "lat": 46.292,
      "lon": 4.811,
      "cp": "71000",
      "ville": "Mâcon",
      "prix": {
        "Gazole": 0.00197,
        "E10": 0.0019199999999999998,
        "SP98": 0.00199
      },
      "maj_gouv": {
        "Gazole": "2026-06-10 09:13:01",
        "E10": "2026-06-08 09:22:52",
        "SP98": "2026-06-09 16:00:00"
      }
    },
    {
      "id": "71600003",
      "lat": 46.467142444554995,
      "lon": 4.1131633933708,
      "cp": "71600",
      "ville": "PARAY-LE-MONIAL",
      "prix": {
        "Gazole": 0.0019790000000000003,
        "SP95": 0.001999,
        "GPLc": 0.0010689999999999999,
        "E10": 0.001939,
        "SP98": 0.002079
      },
      "maj_gouv": {
        "Gazole": "2026-06-10 08:55:00",
        "SP95": "2026-06-10 08:55:00",
        "GPLc": "2026-06-01 11:57:44",
        "E10": "2026-06-10 08:55:00",
        "SP98": "2026-06-10 08:55:00"
      }
    },
    {
      "id": "71170003",
      "lat": 46.207,
      "lon": 4.314,
      "cp": "71170",
      "ville": "Chauffailles",
      "prix": {
        "Gazole": 0.001999,
        "SP95": 0.001999,
        "E10": 0.001929,
        "SP98": 0.002049
      },
      "maj_gouv": {
        "Gazole": "2026-06-10 09:34:12",
        "SP95": "2026-06-08 08:08:56",
        "E10": "2026-06-08 08:08:56",
        "SP98": "2026-06-08 08:08:57"
      }
    },
    {
      "id": "71230002",
      "lat": 46.648,
      "lon": 4.34,
      "cp": "71230",
      "ville": "SAINT-VALLIER",
      "prix": {
        "Gazole": 0.001999,
        "SP95": 0.0019690000000000003,
        "E10": 0.001899,
        "SP98": 0.001999
      },
      "maj_gouv": {
        "Gazole": "2026-06-08 06:30:00",
        "SP95": "2026-06-09 08:57:00",
        "E10": "2026-06-09 08:56:35",
        "SP98": "2026-06-09 08:57:37"
      }
    },
    {
      "id": "71210010",
      "lat": 46.753,
      "lon": 4.468,
      "cp": "71210",
      "ville": "Montchanin",
      "prix": {
        "Gazole": 0.001999,
        "SP95": 0.002149,
        "E85": 0.0008990000000000001
      },
      "maj_gouv": {
        "Gazole": "2026-06-04 15:43:32",
        "SP95": "2026-06-04 15:43:32",
        "E85": "2026-06-04 15:43:32"
      }
    },
    {
      "id": "71400012",
      "lat": 46.956,
      "lon": 4.295,
      "cp": "71400",
      "ville": "AUTUN",
      "prix": {
        "Gazole": 0.001965,
        "E85": 0.0008489999999999999,
        "E10": 0.0019039999999999999,
        "SP98": 0.00199
      },
      "maj_gouv": {
        "Gazole": "2026-06-11 00:01:00",
        "E85": "2026-06-11 00:01:00",
        "E10": "2026-06-11 00:01:00",
        "SP98": "2026-06-11 00:01:00"
      }
    },
    {
      "id": "71700009",
      "lat": 46.573,
      "lon": 4.904,
      "cp": "71700",
      "ville": "TOURNUS",
      "prix": {
        "Gazole": 0.001999,
        "E10": 0.001949,
        "SP98": 0.002049
      },
      "maj_gouv": {
        "Gazole": "2026-06-10 21:00:00",
        "E10": "2026-06-10 21:00:00",
        "SP98": "2026-06-10 21:00:00"
      }
    },
    {
      "id": "71304001",
      "lat": 46.68098,
      "lon": 4.3714,
      "cp": "71300",
      "ville": "Montceau-les-Mines",
      "prix": {
        "Gazole": 0.001999,
        "SP95": 0.0019690000000000003,
        "E85": 0.000798,
        "E10": 0.001899
      },
      "maj_gouv": {
        "Gazole": "2026-06-08 10:24:31",
        "SP95": "2026-06-10 08:56:56",
        "E85": "2026-05-29 09:55:55",
        "E10": "2026-06-10 08:56:57"
      }
    },
    {
      "id": "71270005",
      "lat": 46.883,
      "lon": 5.248,
      "cp": "71270",
      "ville": "PIERRE-DE-BRESSE",
      "prix": {
        "Gazole": 0.001977,
        "E10": 0.001899,
        "SP98": 0.002009
      },
      "maj_gouv": {
        "Gazole": "2026-06-07 11:26:23",
        "E10": "2026-06-07 11:26:23",
        "SP98": "2026-06-07 11:26:23"
      }
    },
    {
      "id": "71300013",
      "lat": 46.691,
      "lon": 4.355,
      "cp": "71300",
      "ville": "Montceau-les-Mines",
      "prix": {
        "Gazole": 0.001999,
        "SP95": 0.0019690000000000003,
        "E85": 0.000798,
        "E10": 0.001899
      },
      "maj_gouv": {
        "Gazole": "2026-06-09 04:48:58",
        "SP95": "2026-06-09 04:48:58",
        "E85": "2026-06-09 04:48:58",
        "E10": "2026-06-09 04:48:58"
      }
    },
    {
      "id": "71360002",
      "lat": 46.989112,
      "lon": 4.523182,
      "cp": "71360",
      "ville": "EPINAC",
      "prix": {
        "Gazole": 0.001967,
        "E10": 0.001889,
        "SP98": 0.002004
      },
      "maj_gouv": {
        "Gazole": "2026-06-09 11:34:27",
        "E10": "2026-06-09 11:34:27",
        "SP98": "2026-06-09 11:34:28"
      }
    },
    {
      "id": "71850001",
      "lat": 46.30944,
      "lon": 4.81183,
      "cp": "71850",
      "ville": "CHARNAY-LèS-MâCON",
      "prix": {
        "Gazole": 0.001999,
        "SP95": 0.0019790000000000003,
        "E10": 0.001929
      },
      "maj_gouv": {
        "Gazole": "2026-06-08 11:21:34",
        "SP95": "2026-06-08 11:21:34",
        "E10": "2026-06-08 11:21:35"
      }
    },
    {
      "id": "71670001",
      "lat": 46.805,
      "lon": 4.474,
      "cp": "71670",
      "ville": "LE BREUIL",
      "prix": {
        "Gazole": 0.001976,
        "SP95": 0.002009,
        "E10": 0.0019450000000000001,
        "SP98": 0.002049
      },
      "maj_gouv": {
        "Gazole": "2026-06-10 10:16:11",
        "SP95": "2026-06-06 19:00:00",
        "E10": "2026-06-06 19:00:00",
        "SP98": "2026-06-06 19:00:00"
      }
    },
    {
      "id": "71350001",
      "lat": 46.892,
      "lon": 5.024,
      "cp": "71350",
      "ville": "Verdun-sur-le-Doubs",
      "prix": {
        "Gazole": 0.001999,
        "SP95": 0.002099,
        "SP98": 0.002149
      },
      "maj_gouv": {
        "Gazole": "2026-06-03 00:00:00",
        "SP95": "2026-06-03 00:00:00",
        "SP98": "2026-06-03 00:00:00"
      }
    },
    {
      "id": "71100030",
      "lat": 46.789762,
      "lon": 4.861161,
      "cp": "71100",
      "ville": "Chalon-sur-Saône",
      "prix": {
        "Gazole": 0.002079,
        "E10": 0.001999,
        "SP98": 0.002099
      },
      "maj_gouv": {
        "Gazole": "2026-06-10 22:00:00",
        "E10": "2026-06-10 22:00:00",
        "SP98": "2026-06-10 22:00:00"
      }
    },
    {
      "id": "71380003",
      "lat": 46.7775404,
      "lon": 4.8966289000000005,
      "cp": "71380",
      "ville": "Saint-Marcel",
      "prix": {
        "SP95": 0.001966,
        "SP98": 0.002039
      },
      "maj_gouv": {
        "SP95": "2026-06-08 18:47:46",
        "SP98": "2026-06-06 12:09:59"
      }
    },
    {
      "id": "71200013",
      "lat": 46.800195,
      "lon": 4.406365,
      "cp": "71200",
      "ville": "LE CREUSOT",
      "prix": {
        "Gazole": 0.002099,
        "GPLc": 0.001099,
        "E10": 0.002029,
        "SP98": 0.002129
      },
      "maj_gouv": {
        "Gazole": "2026-06-10 20:00:00",
        "GPLc": "2026-06-10 20:00:00",
        "E10": "2026-06-10 20:00:00",
        "SP98": "2026-06-10 20:00:00"
      }
    },
    {
      "id": "71400016",
      "lat": 46.956406830948005,
      "lon": 4.3163477589328,
      "cp": "71400",
      "ville": "Autun",
      "prix": {
        "Gazole": 0.001999,
        "SP95": 0.002099,
        "E85": 0.0008990000000000001,
        "SP98": 0.002149
      },
      "maj_gouv": {
        "Gazole": "2026-06-03 00:00:00",
        "SP95": "2026-06-03 00:00:00",
        "E85": "2026-05-22 00:00:00",
        "SP98": "2026-06-03 00:00:00"
      }
    },
    {
      "id": "71100019",
      "lat": 46.748,
      "lon": 4.85,
      "cp": "71100",
      "ville": "LUX",
      "prix": {
        "Gazole": 0.002079,
        "E85": 0.0008990000000000001,
        "E10": 0.002079,
        "SP98": 0.002149
      },
      "maj_gouv": {
        "Gazole": "2026-06-02 20:00:00",
        "E85": "2026-05-21 20:00:00",
        "E10": "2026-06-02 20:00:00",
        "SP98": "2026-06-02 20:00:00"
      }
    },
    {
      "id": "71470004",
      "lat": 46.502338070083994,
      "lon": 5.063633308511,
      "cp": "71470",
      "ville": "ROMENAY",
      "prix": {
        "Gazole": 0.0020710000000000004,
        "SP95": 0.001999,
        "E85": 0.000823,
        "SP98": 0.002089
      },
      "maj_gouv": {
        "Gazole": "2026-06-06 10:17:17",
        "SP95": "2026-06-06 10:17:17",
        "E85": "2026-06-06 10:17:54",
        "SP98": "2026-06-06 10:17:17"
      }
    },
    {
      "id": "71480001",
      "lat": 46.492,
      "lon": 5.386,
      "cp": "71480",
      "ville": "CUISEAUX",
      "prix": {
        "Gazole": 0.002019,
        "E10": 0.001999,
        "SP98": 0.002099
      },
      "maj_gouv": {
        "Gazole": "2026-06-05 16:54:39",
        "E10": "2026-06-05 16:54:39",
        "SP98": "2026-06-05 16:54:39"
      }
    },
    {
      "id": "71410001",
      "lat": 46.665,
      "lon": 4.287,
      "cp": "71410",
      "ville": "SANVIGNES-LES-MINES",
      "prix": {
        "Gazole": 0.002159,
        "E85": 0.000875,
        "E10": 0.002072,
        "SP98": 0.002153
      },
      "maj_gouv": {
        "Gazole": "2026-05-12 10:01:54",
        "E85": "2026-03-12 07:44:04",
        "E10": "2026-05-12 10:01:54",
        "SP98": "2026-05-12 10:01:54"
      }
    },
    {
      "id": "71240008",
      "lat": 46.692,
      "lon": 4.845,
      "cp": "71240",
      "ville": "Saint-Ambreuil",
      "prix": {
        "Gazole": 0.0020870000000000003,
        "E85": 0.001254,
        "E10": 0.0020499999999999997,
        "SP98": 0.002155
      },
      "maj_gouv": {
        "Gazole": "2026-06-09 09:51:34",
        "E85": "2026-06-09 09:51:35",
        "E10": "2026-06-09 09:51:35",
        "SP98": "2026-06-09 09:51:35"
      }
    },
    {
      "id": "71130004",
      "lat": 46.604,
      "lon": 4.071,
      "cp": "71130",
      "ville": "Gueugnon",
      "prix": {
        "Gazole": 0.001964,
        "SP95": 0.0019950000000000002,
        "E85": 0.000798,
        "E10": 0.001965
      },
      "maj_gouv": {
        "Gazole": "2026-06-09 15:46:00",
        "SP95": "2026-06-05 08:55:03",
        "E85": "2026-05-18 10:05:34",
        "E10": "2026-06-05 08:55:03"
      }
    },
    {
      "id": "71390006",
      "lat": 46.714950668035996,
      "lon": 4.6966331021092,
      "cp": "71390",
      "ville": "Buxy",
      "prix": {
        "Gazole": 0.00219,
        "SP95": 0.00199,
        "SP98": 0.00199
      },
      "maj_gouv": {
        "Gazole": "2026-06-04 11:07:19",
        "SP95": "2026-05-19 15:57:22",
        "SP98": "2026-05-27 14:42:23"
      }
    },
    {
      "id": "71330001",
      "lat": 46.755,
      "lon": 5.245,
      "cp": "71330",
      "ville": "SAINT-GERMAIN-DU-BOIS",
      "prix": {
        "Gazole": 0.002019,
        "E85": 0.000789,
        "E10": 0.001949,
        "SP98": 0.002059
      },
      "maj_gouv": {
        "Gazole": "2026-06-09 11:17:16",
        "E85": "2026-05-19 15:08:24",
        "E10": "2026-06-08 09:16:40",
        "SP98": "2026-06-09 11:17:16"
      }
    },
    {
      "id": "71480007",
      "lat": 46.496154992412,
      "lon": 5.3118121885054,
      "cp": "71480",
      "ville": "Dommartin-lès-Cuiseaux",
      "prix": {
        "Gazole": 0.002229,
        "E85": 0.001055,
        "GPLc": 0.00116,
        "E10": 0.002179,
        "SP98": 0.0022789999999999998
      },
      "maj_gouv": {
        "Gazole": "2026-06-03 06:00:00",
        "E85": "2026-04-25 06:00:00",
        "GPLc": "2026-05-12 06:00:00",
        "E10": "2026-06-03 06:00:00",
        "SP98": "2026-06-03 06:00:00"
      }
    },
    {
      "id": "71130002",
      "lat": 46.591,
      "lon": 4.065,
      "cp": "71130",
      "ville": "GUEUGNON",
      "prix": {
        "Gazole": 0.001999,
        "SP95": 0.002099,
        "SP98": 0.002149
      },
      "maj_gouv": {
        "Gazole": "2026-06-03 00:00:00",
        "SP95": "2026-06-03 00:00:00",
        "SP98": "2026-06-03 00:00:00"
      }
    },
    {
      "id": "71580002",
      "lat": 46.69067,
      "lon": 5.3663,
      "cp": "71580",
      "ville": "Saillenard",
      "prix": {
        "Gazole": 0.001999,
        "SP95": 0.00202,
        "SP98": 0.002045
      },
      "maj_gouv": {
        "Gazole": "2026-06-10 06:59:38",
        "SP95": "2026-06-10 06:59:38",
        "SP98": "2026-06-10 06:59:39"
      }
    },
    {
      "id": "71760001",
      "lat": 46.711,
      "lon": 3.972,
      "cp": "71760",
      "ville": "Issy-l'Évêque",
      "prix": {
        "Gazole": 0.0020800000000000003,
        "E85": 0.00091,
        "SP98": 0.0022299999999999998
      },
      "maj_gouv": {
        "Gazole": "2026-06-08 13:30:53",
        "E85": "2026-04-28 08:40:22",
        "SP98": "2026-05-21 17:26:42"
      }
    },
    {
      "id": "71710004",
      "lat": 46.833828252894,
      "lon": 4.3610179067459,
      "cp": "71710",
      "ville": "MARMAGNE",
      "prix": {
        "Gazole": 0.001999,
        "E10": 0.002079,
        "SP98": 0.002149
      },
      "maj_gouv": {
        "Gazole": "2026-06-03 00:00:00",
        "E10": "2026-06-03 00:00:00",
        "SP98": "2026-06-03 00:00:00"
      }
    },
    {
      "id": "71270004",
      "lat": 46.878,
      "lon": 5.271,
      "cp": "71270",
      "ville": "PIERRE-DE-BRESSE",
      "prix": {
        "Gazole": 0.001999,
        "SP95": 0.002099,
        "SP98": 0.002149
      },
      "maj_gouv": {
        "Gazole": "2026-06-03 00:00:00",
        "SP95": "2026-06-03 00:00:00",
        "SP98": "2026-06-03 00:00:00"
      }
    },
    {
      "id": "71500008",
      "lat": 46.626399073692,
      "lon": 5.2341068681992,
      "cp": "71500",
      "ville": "LOUHANS",
      "prix": {
        "Gazole": 0.002019,
        "SP95": 0.002004,
        "SP98": 0.0020859999999999997
      },
      "maj_gouv": {
        "Gazole": "2026-06-10 08:01:59",
        "SP95": "2026-06-10 08:01:59",
        "SP98": "2026-06-10 08:01:59"
      }
    },
    {
      "id": "71570004",
      "lat": 46.185345999999996,
      "lon": 4.7523859999999996,
      "cp": "71570",
      "ville": "Romanèche-Thorins",
      "prix": {
        "Gazole": 0.001952,
        "E85": 0.000798,
        "E10": 0.001914,
        "SP98": 0.0021030000000000003
      },
      "maj_gouv": {
        "Gazole": "2026-06-09 13:49:20",
        "E85": "2026-05-26 15:10:24",
        "E10": "2026-06-05 10:26:35",
        "SP98": "2026-06-09 06:43:52"
      }
    },
    {
      "id": "71500001",
      "lat": 46.639,
      "lon": 5.213,
      "cp": "71500",
      "ville": "Louhans",
      "prix": {
        "Gazole": 0.001999,
        "E10": 0.002099,
        "SP98": 0.002149
      },
      "maj_gouv": {
        "Gazole": "2026-06-03 00:00:00",
        "E10": "2026-06-03 00:00:00",
        "SP98": "2026-06-03 00:00:00"
      }
    },
    {
      "id": "71480006",
      "lat": 46.547,
      "lon": 5.324,
      "cp": "71480",
      "ville": "Le MIROIR",
      "prix": {
        "Gazole": 0.002063,
        "E85": 0.000869,
        "E10": 0.00199,
        "SP98": 0.00199
      },
      "maj_gouv": {
        "Gazole": "2026-06-10 07:46:58",
        "E85": "2026-06-09 09:05:24",
        "E10": "2026-05-26 18:44:59",
        "SP98": "2026-06-02 19:03:27"
      }
    },
    {
      "id": "71510001",
      "lat": 46.849,
      "lon": 4.631,
      "cp": "71510",
      "ville": "SAINT-LéGER-SUR-DHEUNE",
      "prix": {
        "Gazole": 0.001999,
        "SP95": 0.002099,
        "SP98": 0.002149
      },
      "maj_gouv": {
        "Gazole": "2026-06-03 00:00:00",
        "SP95": "2026-06-03 00:00:00",
        "SP98": "2026-06-03 00:00:00"
      }
    },
    {
      "id": "71480005",
      "lat": 46.482,
      "lon": 5.243,
      "cp": "71480",
      "ville": "Varennes-Saint-Sauveur",
      "prix": {
        "Gazole": 0.002049,
        "SP95": 0.002099,
        "SP98": 0.002149
      },
      "maj_gouv": {
        "Gazole": "2026-06-03 08:43:40",
        "SP95": "2026-06-03 08:43:40",
        "SP98": "2026-06-03 08:43:40"
      }
    },
    {
      "id": "71100011",
      "lat": 46.776,
      "lon": 4.837,
      "cp": "71100",
      "ville": "Chalon-sur-Saône",
      "prix": {
        "Gazole": 0.002018,
        "SP95": 0.001994,
        "E10": 0.001923,
        "SP98": 0.0020440000000000002
      },
      "maj_gouv": {
        "Gazole": "2026-06-09 08:07:24",
        "SP95": "2026-06-09 08:07:24",
        "E10": "2026-06-09 08:07:24",
        "SP98": "2026-06-09 08:07:24"
      }
    },
    {
      "id": "71120002",
      "lat": 46.437,
      "lon": 4.268,
      "cp": "71120",
      "ville": "CHAROLLES",
      "prix": {
        "Gazole": 0.0019890000000000003,
        "E85": 0.000809,
        "E10": 0.001949,
        "SP98": 0.002049
      },
      "maj_gouv": {
        "Gazole": "2026-06-09 07:57:19",
        "E85": "2026-06-10 15:22:48",
        "E10": "2026-06-09 07:57:20",
        "SP98": "2026-06-09 07:57:20"
      }
    },
    {
      "id": "71260004",
      "lat": 46.472,
      "lon": 4.816,
      "cp": "71260",
      "ville": "LUGNY",
      "prix": {
        "Gazole": 0.00217,
        "SP98": 0.00198
      },
      "maj_gouv": {
        "Gazole": "2026-06-09 07:35:05",
        "SP98": "2026-06-09 07:35:05"
      }
    },
    {
      "id": "71450002",
      "lat": 46.702,
      "lon": 4.388,
      "cp": "71450",
      "ville": "Blanzy",
      "prix": {
        "Gazole": 0.002049,
        "SP95": 0.002099,
        "SP98": 0.002149
      },
      "maj_gouv": {
        "Gazole": "2026-06-03 08:50:58",
        "SP95": "2026-06-03 08:50:58",
        "SP98": "2026-06-03 08:50:58"
      }
    },
    {
      "id": "71000023",
      "lat": 46.365,
      "lon": 4.843,
      "cp": "71000",
      "ville": "Sennece-les-Macon",
      "prix": {
        "Gazole": 0.002049,
        "E10": 0.001999,
        "SP98": 0.002109
      },
      "maj_gouv": {
        "Gazole": "2026-06-10 22:04:45",
        "E10": "2026-06-10 22:04:45",
        "SP98": "2026-06-10 22:04:45"
      }
    },
    {
      "id": "71380002",
      "lat": 46.792,
      "lon": 4.912,
      "cp": "71380",
      "ville": "CHâTENOY-EN-BRESSE",
      "prix": {
        "Gazole": 0.001952,
        "E85": 0.000798,
        "E10": 0.001961,
        "SP98": 0.0020859999999999997
      },
      "maj_gouv": {
        "Gazole": "2026-06-09 15:06:29",
        "E85": "2026-05-18 14:58:59",
        "E10": "2026-06-02 14:32:38",
        "SP98": "2026-06-02 14:32:39"
      }
    },
    {
      "id": "71250007",
      "lat": 46.386225686799996,
      "lon": 4.61930855867,
      "cp": "71250",
      "ville": "Sainte-Cécile",
      "prix": {
        "Gazole": 0.002095,
        "E10": 0.00199,
        "SP98": 0.00199
      },
      "maj_gouv": {
        "Gazole": "2026-06-11 00:01:00",
        "E10": "2026-06-11 00:01:00",
        "SP98": "2026-06-11 00:01:00"
      }
    },
    {
      "id": "71200004",
      "lat": 46.803,
      "lon": 4.454,
      "cp": "71200",
      "ville": "LE CREUSOT",
      "prix": {
        "Gazole": 0.001976,
        "E10": 0.0019450000000000001,
        "SP98": 0.002065
      },
      "maj_gouv": {
        "Gazole": "2026-06-08 15:40:09",
        "E10": "2026-06-05 07:06:21",
        "SP98": "2026-06-05 07:06:21"
      }
    },
    {
      "id": "71260007",
      "lat": 46.4401808,
      "lon": 4.8107603999999995,
      "cp": "71260",
      "ville": "PERONNE",
      "prix": {
        "Gazole": 0.0019590000000000002,
        "E85": 0.000798,
        "E10": 0.001934,
        "SP98": 0.002054
      },
      "maj_gouv": {
        "Gazole": "2026-06-09 13:41:30",
        "E85": "2026-05-27 13:43:34",
        "E10": "2026-06-09 09:31:26",
        "SP98": "2026-06-09 09:31:26"
      }
    },
    {
      "id": "71710002",
      "lat": 46.863,
      "lon": 4.297,
      "cp": "71710",
      "ville": "Saint-Symphorien-de-Marmagne",
      "prix": {
        "Gazole": 0.00207,
        "SP95": 0.00199
      },
      "maj_gouv": {
        "Gazole": "2026-06-02 09:36:20",
        "SP95": "2026-05-27 09:42:50"
      }
    },
    {
      "id": "71520001",
      "lat": 46.362,
      "lon": 4.484,
      "cp": "71520",
      "ville": "DOMPIERRE LES ORMES",
      "prix": {
        "Gazole": 0.0020350000000000004,
        "SP95": 0.00202
      },
      "maj_gouv": {
        "Gazole": "2026-06-05 08:25:45",
        "SP95": "2026-06-05 08:25:45"
      }
    },
    {
      "id": "71110001",
      "lat": 46.278,
      "lon": 4.031,
      "cp": "71110",
      "ville": "MARCIGNY",
      "prix": {
        "Gazole": 0.002079,
        "SP95": 0.002069,
        "SP98": 0.002099
      },
      "maj_gouv": {
        "Gazole": "2026-06-10 23:54:00",
        "SP95": "2026-06-10 23:54:00",
        "SP98": "2026-06-10 23:54:00"
      }
    },
    {
      "id": "71500003",
      "lat": 46.626,
      "lon": 5.214,
      "cp": "71500",
      "ville": "LOUHANS",
      "prix": {
        "Gazole": 0.002074,
        "E10": 0.00199,
        "SP98": 0.00199
      },
      "maj_gouv": {
        "Gazole": "2026-06-10 09:00:21",
        "E10": "2026-06-10 09:00:22",
        "SP98": "2026-06-10 09:00:22"
      }
    },
    {
      "id": "71370001",
      "lat": 46.705,
      "lon": 4.981,
      "cp": "71370",
      "ville": "Saint-Germain-du-Plain",
      "prix": {
        "Gazole": 0.001999,
        "SP95": 0.002099,
        "SP98": 0.002149
      },
      "maj_gouv": {
        "Gazole": "2026-06-03 00:00:00",
        "SP95": "2026-06-03 00:00:00",
        "SP98": "2026-06-03 00:00:00"
      }
    },
    {
      "id": "71500004",
      "lat": 46.622,
      "lon": 5.227,
      "cp": "71500",
      "ville": "LOUHANS",
      "prix": {
        "Gazole": 0.0019890000000000003,
        "E85": 0.000829,
        "E10": 0.001949,
        "SP98": 0.002059
      },
      "maj_gouv": {
        "Gazole": "2026-06-10 08:30:00",
        "E85": "2026-06-10 08:30:00",
        "E10": "2026-06-10 08:30:00",
        "SP98": "2026-06-09 08:30:00"
      }
    },
    {
      "id": "71600001",
      "lat": 46.446,
      "lon": 4.12,
      "cp": "71600",
      "ville": "PARAY-LE-MONIAL",
      "prix": {
        "Gazole": 0.002065,
        "E10": 0.00199,
        "SP98": 0.00199
      },
      "maj_gouv": {
        "Gazole": "2026-06-10 22:13:00",
        "E10": "2026-06-10 22:13:00",
        "SP98": "2026-06-08 10:57:50"
      }
    },
    {
      "id": "71960001",
      "lat": 46.328,
      "lon": 4.742,
      "cp": "71960",
      "ville": "PRISSé",
      "prix": {
        "Gazole": 0.002009,
        "SP95": 0.002019,
        "E85": 0.000799,
        "E10": 0.0019690000000000003,
        "SP98": 0.002059
      },
      "maj_gouv": {
        "Gazole": "2026-06-09 14:26:50",
        "SP95": "2026-06-09 14:26:51",
        "E85": "2026-04-29 16:16:24",
        "E10": "2026-06-09 14:26:51",
        "SP98": "2026-06-09 14:26:51"
      }
    },
    {
      "id": "71100003",
      "lat": 46.79804,
      "lon": 4.84741,
      "cp": "71100",
      "ville": "CHALON-SUR-SAôNE",
      "prix": {
        "Gazole": 0.002019,
        "E85": 0.000839,
        "E10": 0.001929,
        "SP98": 0.002049
      },
      "maj_gouv": {
        "Gazole": "2026-06-10 10:22:38",
        "E85": "2026-06-10 10:22:38",
        "E10": "2026-06-10 10:22:38",
        "SP98": "2026-06-10 10:22:38"
      }
    },
    {
      "id": "71250008",
      "lat": 46.437,
      "lon": 4.65,
      "cp": "71250",
      "ville": "Cluny",
      "prix": {
        "Gazole": 0.002039,
        "SP95": 0.002059,
        "E10": 0.001999
      },
      "maj_gouv": {
        "Gazole": "2026-06-06 08:02:16",
        "SP95": "2026-06-06 08:02:34",
        "E10": "2026-06-06 08:02:53"
      }
    },
    {
      "id": "71400011",
      "lat": 46.968,
      "lon": 4.304,
      "cp": "71400",
      "ville": "AUTUN",
      "prix": {
        "Gazole": 0.001952,
        "E85": 0.000848,
        "GPLc": 0.00101,
        "E10": 0.0019010000000000001,
        "SP98": 0.00209
      },
      "maj_gouv": {
        "Gazole": "2026-06-10 07:46:02",
        "E85": "2026-05-04 09:04:41",
        "GPLc": "2026-04-02 09:09:38",
        "E10": "2026-06-10 07:46:02",
        "SP98": "2026-06-04 12:28:12"
      }
    },
    {
      "id": "71600008",
      "lat": 46.464,
      "lon": 4.086,
      "cp": "71600",
      "ville": "Vitry-en-Charollais",
      "prix": {
        "Gazole": 0.001999,
        "SP95": 0.001999,
        "E85": 0.000789,
        "GPLc": 0.0010689999999999999,
        "E10": 0.001939,
        "SP98": 0.002079
      },
      "maj_gouv": {
        "Gazole": "2026-06-10 08:27:10",
        "SP95": "2026-06-10 08:27:11",
        "E85": "2026-06-10 08:27:11",
        "GPLc": "2026-06-01 11:58:19",
        "E10": "2026-06-10 08:27:11",
        "SP98": "2026-06-10 08:27:11"
      }
    },
    {
      "id": "71100026",
      "lat": 46.793,
      "lon": 4.854,
      "cp": "71100",
      "ville": "Chalon-sur-Saône",
      "prix": {
        "Gazole": 0.001965,
        "E85": 0.000839,
        "E10": 0.001911,
        "SP98": 0.00199
      },
      "maj_gouv": {
        "Gazole": "2026-06-11 00:01:00",
        "E85": "2026-06-11 00:01:00",
        "E10": "2026-06-11 00:01:00",
        "SP98": "2026-06-11 00:01:00"
      }
    },
    {
      "id": "71000009",
      "lat": 46.331,
      "lon": 4.828,
      "cp": "71000",
      "ville": "Mâcon",
      "prix": {
        "Gazole": 0.001965,
        "SP95": 0.00198,
        "GPLc": 0.00109,
        "E10": 0.0019199999999999998,
        "SP98": 0.00199
      },
      "maj_gouv": {
        "Gazole": "2026-06-10 09:14:39",
        "SP95": "2026-06-08 08:57:17",
        "GPLc": "2026-05-27 09:15:12",
        "E10": "2026-06-08 08:57:18",
        "SP98": "2026-06-08 08:57:18"
      }
    },
    {
      "id": "71000022",
      "lat": 46.3,
      "lon": 4.829,
      "cp": "71000",
      "ville": "MACON",
      "prix": {
        "Gazole": 0.001967,
        "E85": 0.0008489999999999999,
        "E10": 0.001913,
        "SP98": 0.00199
      },
      "maj_gouv": {
        "Gazole": "2026-06-11 00:01:00",
        "E85": "2026-06-11 00:01:00",
        "E10": "2026-06-11 00:01:00",
        "SP98": "2026-06-11 00:01:00"
      }
    },
    {
      "id": "71640002",
      "lat": 46.836,
      "lon": 4.718,
      "cp": "71640",
      "ville": "Mercurey",
      "prix": {
        "Gazole": 0.002049,
        "E10": 0.002079,
        "SP98": 0.002199
      },
      "maj_gouv": {
        "Gazole": "2026-06-02 22:45:00",
        "E10": "2026-06-02 22:45:00",
        "SP98": "2026-06-02 22:45:00"
      }
    },
    {
      "id": "71250001",
      "lat": 46.428,
      "lon": 4.662,
      "cp": "71250",
      "ville": "CLUNY",
      "prix": {
        "Gazole": 0.002059,
        "SP95": 0.002069,
        "E10": 0.002039,
        "SP98": 0.002099
      },
      "maj_gouv": {
        "Gazole": "2026-06-10 23:54:00",
        "SP95": "2026-06-10 23:54:00",
        "E10": "2026-06-10 23:54:00",
        "SP98": "2026-06-10 23:54:00"
      }
    },
    {
      "id": "71570003",
      "lat": 46.21,
      "lon": 4.757,
      "cp": "71570",
      "ville": "LA CHAPELLE-DE-GUINCHAY",
      "prix": {
        "Gazole": 0.002079,
        "SP95": 0.002069,
        "SP98": 0.002099
      },
      "maj_gouv": {
        "Gazole": "2026-06-10 23:54:00",
        "SP95": "2026-06-10 23:54:00",
        "SP98": "2026-06-10 23:54:00"
      }
    },
    {
      "id": "71620002",
      "lat": 46.838,
      "lon": 4.996,
      "cp": "71620",
      "ville": "DAMEREY",
      "prix": {
        "Gazole": 0.002054,
        "SP95": 0.00199
      },
      "maj_gouv": {
        "Gazole": "2026-06-10 08:23:39",
        "SP95": "2026-05-26 13:41:49"
      }
    },
    {
      "id": "71700001",
      "lat": 46.566,
      "lon": 4.902,
      "cp": "71700",
      "ville": "TOURNUS",
      "prix": {
        "Gazole": 0.0020369999999999997,
        "SP95": 0.002004,
        "E10": 0.001958
      },
      "maj_gouv": {
        "Gazole": "2026-06-03 13:50:37",
        "SP95": "2026-06-03 13:50:37",
        "E10": "2026-06-03 13:50:37"
      }
    },
    {
      "id": "71600004",
      "lat": 46.448,
      "lon": 4.116,
      "cp": "71600",
      "ville": "Paray-le-Monial",
      "prix": {
        "Gazole": 0.00212,
        "SP95": 0.0020800000000000003
      },
      "maj_gouv": {
        "Gazole": "2026-06-06 08:37:26",
        "SP95": "2026-06-06 08:37:26"
      }
    },
    {
      "id": "71210009",
      "lat": 46.75547,
      "lon": 4.48622,
      "cp": "71210",
      "ville": "MONTCHANIN",
      "prix": {
        "Gazole": 0.0019690000000000003,
        "E85": 0.000825,
        "E10": 0.001918
      },
      "maj_gouv": {
        "Gazole": "2026-06-11 00:01:00",
        "E85": "2026-06-11 00:01:00",
        "E10": "2026-06-11 00:01:00"
      }
    },
    {
      "id": "71100027",
      "lat": 46.76543,
      "lon": 4.84228,
      "cp": "71100",
      "ville": "Saint-Remy",
      "prix": {
        "Gazole": 0.00206,
        "E10": 0.00199,
        "SP98": 0.00199
      },
      "maj_gouv": {
        "Gazole": "2026-06-11 00:01:00",
        "E10": "2026-06-11 00:01:00",
        "SP98": "2026-06-11 00:01:00"
      }
    },
    {
      "id": "71400013",
      "lat": 46.95595176369999,
      "lon": 4.31256303356,
      "cp": "71400",
      "ville": "AUTUN",
      "prix": {
        "Gazole": 0.001965,
        "E10": 0.0019039999999999999
      },
      "maj_gouv": {
        "Gazole": "2026-06-11 00:01:00",
        "E10": "2026-06-11 00:01:00"
      }
    },
    {
      "id": "71680001",
      "lat": 46.254,
      "lon": 4.789,
      "cp": "71680",
      "ville": "CRêCHES-SUR-SAôNE",
      "prix": {
        "Gazole": 0.002023,
        "E85": 0.000804,
        "E10": 0.001913
      },
      "maj_gouv": {
        "Gazole": "2026-06-09 22:43:00",
        "E85": "2026-06-09 22:43:00",
        "E10": "2026-06-09 22:43:00"
      }
    },
    {
      "id": "71200011",
      "lat": 46.808,
      "lon": 4.429,
      "cp": "71200",
      "ville": "Le Creusot",
      "prix": {
        "Gazole": 0.0020169999999999997,
        "SP95": 0.002009,
        "SP98": 0.00209
      },
      "maj_gouv": {
        "Gazole": "2026-06-09 09:36:21",
        "SP95": "2026-06-09 09:36:21",
        "SP98": "2026-06-09 09:36:21"
      }
    },
    {
      "id": "71250006",
      "lat": 46.3772049457,
      "lon": 4.60698495534,
      "cp": "71250",
      "ville": "MAZILLE",
      "prix": {
        "Gazole": 0.002091,
        "E85": 0.000869,
        "E10": 0.00199,
        "SP98": 0.00199
      },
      "maj_gouv": {
        "Gazole": "2026-06-11 00:01:00",
        "E85": "2026-06-11 00:01:00",
        "E10": "2026-06-11 00:01:00",
        "SP98": "2026-06-11 00:01:00"
      }
    },
    {
      "id": "71100002",
      "lat": 46.772779711953994,
      "lon": 4.859495455433899,
      "cp": "71100",
      "ville": "Chalon-sur-Saône",
      "prix": {
        "Gazole": 0.001939,
        "SP95": 0.001932,
        "E85": 0.0008070000000000001,
        "GPLc": 0.000923,
        "E10": 0.00189,
        "SP98": 0.002012
      },
      "maj_gouv": {
        "Gazole": "2026-06-10 22:54:00",
        "SP95": "2026-06-10 22:54:00",
        "E85": "2026-06-10 22:54:00",
        "GPLc": "2026-06-10 22:54:00",
        "E10": "2026-06-10 22:54:00",
        "SP98": "2026-06-10 22:54:00"
      }
    },
    {
      "id": "71320001",
      "lat": 46.694,
      "lon": 4.138,
      "cp": "71320",
      "ville": "TOULON-SUR-ARROUX",
      "prix": {
        "Gazole": 0.001999,
        "SP95": 0.002099,
        "SP98": 0.002149
      },
      "maj_gouv": {
        "Gazole": "2026-06-03 00:00:00",
        "SP95": "2026-06-03 00:00:00",
        "SP98": "2026-06-03 00:00:00"
      }
    },
    {
      "id": "71240004",
      "lat": 46.632,
      "lon": 4.875,
      "cp": "71240",
      "ville": "SENNECEY-LE-GRAND",
      "prix": {
        "Gazole": 0.001999,
        "SP95": 0.002099,
        "SP98": 0.002149
      },
      "maj_gouv": {
        "Gazole": "2026-06-03 00:00:00",
        "SP95": "2026-06-03 00:00:00",
        "SP98": "2026-06-03 00:00:00"
      }
    },
    {
      "id": "71420002",
      "lat": 46.579,
      "lon": 4.241,
      "cp": "71420",
      "ville": "GENELARD",
      "prix": {
        "Gazole": 0.002069,
        "SP95": 0.002079,
        "SP98": 0.002109
      },
      "maj_gouv": {
        "Gazole": "2026-06-10 23:54:00",
        "SP95": "2026-06-10 23:54:00",
        "SP98": "2026-06-10 23:54:00"
      }
    },
    {
      "id": "71800002",
      "lat": 46.289,
      "lon": 4.32,
      "cp": "71800",
      "ville": "VARENNES-SOUS-DUN",
      "prix": {
        "Gazole": 0.001999,
        "E10": 0.001949,
        "SP98": 0.002069
      },
      "maj_gouv": {
        "Gazole": "2026-06-10 07:33:26",
        "E10": "2026-06-10 07:33:26",
        "SP98": "2026-06-10 07:33:26"
      }
    },
    {
      "id": "71150004",
      "lat": 46.921,
      "lon": 4.748,
      "cp": "71150",
      "ville": "Chagny",
      "prix": {
        "Gazole": 0.002079,
        "GPLc": 0.001049,
        "E10": 0.001999,
        "SP98": 0.002099
      },
      "maj_gouv": {
        "Gazole": "2026-06-11 06:00:00",
        "GPLc": "2026-06-11 06:00:00",
        "E10": "2026-06-11 06:00:00",
        "SP98": "2026-06-11 06:00:00"
      }
    },
    {
      "id": "71350002",
      "lat": 46.948,
      "lon": 4.909,
      "cp": "71350",
      "ville": "Saint-Loup-Géanges",
      "prix": {
        "Gazole": 0.001999,
        "E10": 0.001949,
        "SP98": 0.00206
      },
      "maj_gouv": {
        "Gazole": "2026-06-09 07:43:15",
        "E10": "2026-06-03 15:50:02",
        "SP98": "2026-06-03 15:50:02"
      }
    },
    {
      "id": "71700006",
      "lat": 46.573,
      "lon": 4.904,
      "cp": "71700",
      "ville": "TOURNUS",
      "prix": {
        "Gazole": 0.0019950000000000002,
        "E85": 0.000859,
        "E10": 0.001933,
        "SP98": 0.00199
      },
      "maj_gouv": {
        "Gazole": "2026-06-11 00:01:00",
        "E85": "2026-06-11 00:01:00",
        "E10": "2026-06-11 00:01:00",
        "SP98": "2026-06-11 00:01:00"
      }
    },
    {
      "id": "71000021",
      "lat": 46.285,
      "lon": 4.808,
      "cp": "71000",
      "ville": "MACON",
      "prix": {
        "Gazole": 0.001963,
        "E85": 0.0008489999999999999,
        "GPLc": 0.000999,
        "E10": 0.001913,
        "SP98": 0.00199
      },
      "maj_gouv": {
        "Gazole": "2026-06-11 00:01:00",
        "E85": "2026-06-11 00:01:00",
        "GPLc": "2026-06-11 00:01:00",
        "E10": "2026-06-11 00:01:00",
        "SP98": "2026-06-11 00:01:00"
      }
    },
    {
      "id": "71170001",
      "lat": 46.204,
      "lon": 4.336,
      "cp": "71170",
      "ville": "Chauffailles",
      "prix": {
        "Gazole": 0.0019690000000000003,
        "SP95": 0.001999,
        "SP98": 0.002099
      },
      "maj_gouv": {
        "Gazole": "2026-06-08 13:18:29",
        "SP95": "2026-06-06 11:48:01",
        "SP98": "2026-06-05 08:06:03"
      }
    },
    {
      "id": "71250004",
      "lat": 46.428,
      "lon": 4.664,
      "cp": "71250",
      "ville": "Cluny",
      "prix": {
        "Gazole": 0.0021190000000000002,
        "E85": 0.000949,
        "E10": 0.002079,
        "SP98": 0.0021190000000000002
      },
      "maj_gouv": {
        "Gazole": "2026-06-10 18:19:54",
        "E85": "2026-06-05 19:15:18",
        "E10": "2026-06-10 18:19:54",
        "SP98": "2026-06-10 18:19:54"
      }
    },
    {
      "id": "71220002",
      "lat": 46.479,
      "lon": 4.425,
      "cp": "71220",
      "ville": "SAINT-BONNET-DE-JOUX",
      "prix": {
        "Gazole": 0.001999,
        "SP95": 0.001999,
        "E85": 0.000859,
        "GPLc": 0.0011790000000000001
      },
      "maj_gouv": {
        "Gazole": "2026-06-10 11:05:00",
        "SP95": "2026-06-10 11:05:00",
        "E85": "2026-06-10 11:05:00",
        "GPLc": "2026-04-15 10:42:18"
      }
    },
    {
      "id": "71390005",
      "lat": 46.752,
      "lon": 4.718,
      "cp": "71390",
      "ville": "SAINT DESERT",
      "prix": {
        "Gazole": 0.001999,
        "E85": 0.000809,
        "E10": 0.0019690000000000003,
        "SP98": 0.002059
      },
      "maj_gouv": {
        "Gazole": "2026-06-10 07:41:34",
        "E85": "2026-06-11 01:00:00",
        "E10": "2026-06-10 07:41:34",
        "SP98": "2026-06-10 07:41:35"
      }
    },
    {
      "id": "71400005",
      "lat": 46.968601654160004,
      "lon": 4.2739989901321,
      "cp": "71400",
      "ville": "Autun",
      "prix": {
        "Gazole": 0.001949,
        "E10": 0.001879,
        "SP98": 0.0019890000000000003
      },
      "maj_gouv": {
        "Gazole": "2026-06-10 09:30:11",
        "E10": "2026-06-08 09:31:43",
        "SP98": "2026-06-08 09:31:43"
      }
    },
    {
      "id": "71450001",
      "lat": 46.707,
      "lon": 4.39,
      "cp": "71450",
      "ville": "BLANZY",
      "prix": {
        "Gazole": 0.001999,
        "SP95": 0.002099,
        "SP98": 0.002149
      },
      "maj_gouv": {
        "Gazole": "2026-06-03 00:00:00",
        "SP95": "2026-06-03 00:00:00",
        "SP98": "2026-06-03 00:00:00"
      }
    },
    {
      "id": "71140003",
      "lat": 46.628,
      "lon": 3.736,
      "cp": "71140",
      "ville": "Bourbon-Lancy",
      "prix": {
        "Gazole": 0.002002,
        "E85": 0.000798,
        "E10": 0.001928,
        "SP98": 0.002058
      },
      "maj_gouv": {
        "Gazole": "2026-06-10 00:00:00",
        "E85": "2026-05-15 11:41:25",
        "E10": "2026-06-10 00:00:00",
        "SP98": "2026-06-10 00:00:00"
      }
    },
    {
      "id": "71460001",
      "lat": 46.61,
      "lon": 4.672,
      "cp": "71460",
      "ville": "SAINT-GENGOUX-LE-NATIONAL",
      "prix": {
        "Gazole": 0.002079,
        "SP95": 0.002069,
        "SP98": 0.002099
      },
      "maj_gouv": {
        "Gazole": "2026-06-10 23:54:00",
        "SP95": "2026-06-10 23:54:00",
        "SP98": "2026-06-10 23:54:00"
      }
    },
    {
      "id": "71000024",
      "lat": 46.27,
      "lon": 4.797,
      "cp": "71000",
      "ville": "VARENNES LES MACON",
      "prix": {
        "Gazole": 0.002058,
        "E10": 0.001988,
        "SP98": 0.00199
      },
      "maj_gouv": {
        "Gazole": "2026-06-10 07:32:07",
        "E10": "2026-06-10 07:32:07",
        "SP98": "2026-06-10 08:45:26"
      }
    },
    {
      "id": "71600012",
      "lat": 46.454,
      "lon": 4.103,
      "cp": "71600",
      "ville": "Paray-le-Monial",
      "prix": {
        "Gazole": 0.001999,
        "SP95": 0.001999,
        "E85": 0.000798,
        "E10": 0.001949
      },
      "maj_gouv": {
        "Gazole": "2026-06-08 10:29:20",
        "SP95": "2026-06-08 10:29:20",
        "E85": "2026-05-19 20:00:00",
        "E10": "2026-06-04 06:00:00"
      }
    },
    {
      "id": "71120001",
      "lat": 46.441492261600004,
      "lon": 4.3097058805,
      "cp": "71120",
      "ville": "CHAROLLES",
      "prix": {
        "Gazole": 0.002089,
        "SP95": 0.002079
      },
      "maj_gouv": {
        "Gazole": "2026-06-10 23:59:00",
        "SP95": "2026-06-10 23:59:00"
      }
    },
    {
      "id": "71420003",
      "lat": 46.615,
      "lon": 4.212,
      "cp": "71420",
      "ville": "Perrecy-les-Forges",
      "prix": {
        "Gazole": 0.001999,
        "SP95": 0.002039,
        "E85": 0.000799,
        "E10": 0.001999
      },
      "maj_gouv": {
        "Gazole": "2026-06-09 14:49:56",
        "SP95": "2026-06-10 08:23:02",
        "E85": "2026-05-26 10:59:40",
        "E10": "2026-06-03 10:42:49"
      }
    },
    {
      "id": "71140001",
      "lat": 46.623,
      "lon": 3.761,
      "cp": "71140",
      "ville": "BOURBON-LANCY",
      "prix": {
        "Gazole": 0.001999,
        "SP95": 0.002099,
        "SP98": 0.002149
      },
      "maj_gouv": {
        "Gazole": "2026-06-03 00:00:00",
        "SP95": "2026-06-03 00:00:00",
        "SP98": "2026-06-03 00:00:00"
      }
    },
    {
      "id": "71150002",
      "lat": 46.904,
      "lon": 4.788,
      "cp": "71150",
      "ville": "CHAGNY",
      "prix": {
        "Gazole": 0.0019890000000000003,
        "E85": 0.000798,
        "E10": 0.001899,
        "SP98": 0.002027
      },
      "maj_gouv": {
        "Gazole": "2026-06-10 11:42:07",
        "E85": "2026-05-23 19:05:49",
        "E10": "2026-06-10 11:42:08",
        "SP98": "2026-06-10 11:42:08"
      }
    },
    {
      "id": "71390001",
      "lat": 46.716,
      "lon": 4.704,
      "cp": "71390",
      "ville": "BUXY",
      "prix": {
        "Gazole": 0.001999,
        "SP95": 0.002099,
        "SP98": 0.002149
      },
      "maj_gouv": {
        "Gazole": "2026-06-03 00:00:00",
        "SP95": "2026-06-03 00:00:00",
        "SP98": "2026-06-03 00:00:00"
      }
    },
    {
      "id": "71850004",
      "lat": 46.308,
      "lon": 4.811,
      "cp": "71850",
      "ville": "Charnay-lès-Mâcon",
      "prix": {
        "Gazole": 0.002079,
        "SP95": 0.002069,
        "SP98": 0.002099
      },
      "maj_gouv": {
        "Gazole": "2026-06-10 23:54:00",
        "SP95": "2026-06-10 23:54:00",
        "SP98": "2026-06-10 23:54:00"
      }
    },
    {
      "id": "71300009",
      "lat": 46.665,
      "lon": 4.392,
      "cp": "71300",
      "ville": "GOURDON",
      "prix": {
        "Gazole": 0.001999,
        "SP95": 0.0019690000000000003,
        "E10": 0.001899
      },
      "maj_gouv": {
        "Gazole": "2026-06-08 09:05:17",
        "SP95": "2026-06-09 08:28:34",
        "E10": "2026-06-09 08:28:35"
      }
    },
    {
      "id": "71800001",
      "lat": 46.29,
      "lon": 4.3,
      "cp": "71800",
      "ville": "LA CLAYETTE",
      "prix": {
        "Gazole": 0.002079,
        "SP95": 0.002069,
        "SP98": 0.002099
      },
      "maj_gouv": {
        "Gazole": "2026-06-10 23:54:00",
        "SP95": "2026-06-10 23:54:00",
        "SP98": "2026-06-10 23:54:00"
      }
    },
    {
      "id": "71880002",
      "lat": 46.796460965287,
      "lon": 4.8113369146127996,
      "cp": "71880",
      "ville": "CHATENOY LE ROYAL",
      "prix": {
        "Gazole": 0.002019,
        "SP95": 0.002059,
        "SP98": 0.001999
      },
      "maj_gouv": {
        "Gazole": "2026-06-08 13:40:15",
        "SP95": "2026-06-05 11:59:59",
        "SP98": "2026-06-05 11:59:59"
      }
    },
    {
      "id": "71540001",
      "lat": 47.04522,
      "lon": 4.37921,
      "cp": "71540",
      "ville": "IGORNAY",
      "prix": {
        "Gazole": 0.0020499999999999997,
        "SP95": 0.00212,
        "SP98": 0.00212
      },
      "maj_gouv": {
        "Gazole": "2026-06-03 16:38:56",
        "SP95": "2026-06-03 16:38:56",
        "SP98": "2026-06-03 16:38:56"
      }
    },
    {
      "id": "71700002",
      "lat": 46.55813938321899,
      "lon": 4.9158545135462,
      "cp": "71700",
      "ville": "Tournus",
      "prix": {
        "Gazole": 0.0020369999999999997,
        "E85": 0.000859,
        "E10": 0.001958,
        "SP98": 0.002056
      },
      "maj_gouv": {
        "Gazole": "2026-06-03 16:23:00",
        "E85": "2026-06-01 09:04:24",
        "E10": "2026-06-03 16:23:00",
        "SP98": "2026-06-01 09:04:24"
      }
    },
    {
      "id": "71500002",
      "lat": 46.625,
      "lon": 5.239,
      "cp": "71500",
      "ville": "LOUHANS",
      "prix": {},
      "maj_gouv": {}
    },
    {
      "id": "71100022",
      "lat": 46.752,
      "lon": 4.849,
      "cp": "71100",
      "ville": "LUX",
      "prix": {
        "Gazole": 0.001976,
        "SP95": 0.001966,
        "E10": 0.001918,
        "SP98": 0.002027
      },
      "maj_gouv": {
        "Gazole": "2026-06-10 08:40:26",
        "SP95": "2026-06-08 08:56:02",
        "E10": "2026-06-08 08:56:02",
        "SP98": "2026-06-09 08:28:40"
      }
    },
    {
      "id": "71210006",
      "lat": 46.73871577,
      "lon": 4.474401390000001,
      "cp": "71210",
      "ville": "MONTCHANIN",
      "prix": {
        "Gazole": 0.001999,
        "SP95": 0.002079,
        "E10": 0.002039,
        "SP98": 0.002099
      },
      "maj_gouv": {
        "Gazole": "2026-06-10 17:08:12",
        "SP95": "2026-06-10 17:08:12",
        "E10": "2026-06-10 17:08:12",
        "SP98": "2026-06-10 17:08:12"
      }
    },
    {
      "id": "71600005",
      "lat": 46.411,
      "lon": 4.039,
      "cp": "71600",
      "ville": "Saint-Yan",
      "prix": {
        "Gazole": 0.0020510000000000003,
        "E10": 0.001975,
        "SP98": 0.00199
      },
      "maj_gouv": {
        "Gazole": "2026-06-10 09:03:12",
        "E10": "2026-06-10 09:03:12",
        "SP98": "2026-06-10 09:03:12"
      }
    },
    {
      "id": "71600009",
      "lat": 46.468,
      "lon": 4.12,
      "cp": "71600",
      "ville": "Paray-le-Monial",
      "prix": {
        "Gazole": 0.0019790000000000003,
        "SP95": 0.0019890000000000003,
        "E10": 0.001939,
        "SP98": 0.002069
      },
      "maj_gouv": {
        "Gazole": "2026-06-11 06:07:19",
        "SP95": "2026-06-10 09:00:00",
        "E10": "2026-06-10 09:00:00",
        "SP98": "2026-06-10 09:00:00"
      }
    },
    {
      "id": "71000001",
      "lat": 46.32536,
      "lon": 4.83854,
      "cp": "71000",
      "ville": "MâCON",
      "prix": {
        "Gazole": 0.00197,
        "E85": 0.000809,
        "GPLc": 0.00109,
        "E10": 0.0019199999999999998,
        "SP98": 0.00199
      },
      "maj_gouv": {
        "Gazole": "2026-06-10 11:09:35",
        "E85": "2026-02-03 10:36:59",
        "GPLc": "2026-06-01 07:41:08",
        "E10": "2026-06-10 11:09:35",
        "SP98": "2026-06-10 11:09:35"
      }
    },
    {
      "id": "71160001",
      "lat": 46.483,
      "lon": 3.975,
      "cp": "71160",
      "ville": "DIGOIN",
      "prix": {
        "Gazole": 0.002058,
        "GPLc": 0.001098,
        "E10": 0.00199,
        "SP98": 0.00199
      },
      "maj_gouv": {
        "Gazole": "2026-06-10 22:20:00",
        "GPLc": "2026-05-26 07:06:37",
        "E10": "2026-06-10 22:20:00",
        "SP98": "2026-06-08 22:20:00"
      }
    },
    {
      "id": "71260005",
      "lat": 46.445,
      "lon": 4.885,
      "cp": "71260",
      "ville": "Fleurville",
      "prix": {
        "Gazole": 0.001967,
        "E85": 0.000865,
        "E10": 0.001915,
        "SP98": 0.00199
      },
      "maj_gouv": {
        "Gazole": "2026-06-11 00:01:00",
        "E85": "2026-06-11 00:01:00",
        "E10": "2026-06-11 00:01:00",
        "SP98": "2026-06-11 00:01:00"
      }
    },
    {
      "id": "71270008",
      "lat": 46.963541337289,
      "lon": 5.1742584054015,
      "cp": "71270",
      "ville": "Clux villeneuve",
      "prix": {
        "Gazole": 0.0019890000000000003,
        "E85": 0.000828,
        "E10": 0.0019790000000000003,
        "SP98": 0.002049
      },
      "maj_gouv": {
        "Gazole": "2026-06-06 08:53:03",
        "E85": "2026-05-18 10:34:48",
        "E10": "2026-06-06 08:53:03",
        "SP98": "2026-06-06 08:53:04"
      }
    },
    {
      "id": "71000010",
      "lat": 46.81201,
      "lon": 4.85551,
      "cp": "71100",
      "ville": "Chalon-sur-Saône",
      "prix": {
        "Gazole": 0.0019790000000000003,
        "SP95": 0.001966,
        "GPLc": 0.001039,
        "E10": 0.00191,
        "SP98": 0.0020259999999999996
      },
      "maj_gouv": {
        "Gazole": "2026-06-08 10:31:39",
        "SP95": "2026-06-05 09:31:50",
        "GPLc": "2026-04-23 08:52:19",
        "E10": "2026-06-10 10:01:19",
        "SP98": "2026-06-10 10:01:19"
      }
    },
    {
      "id": "71118001",
      "lat": 46.382,
      "lon": 4.851,
      "cp": "71118",
      "ville": "Saint-Martin-belle-Roche",
      "prix": {
        "Gazole": 0.00197,
        "E10": 0.0019199999999999998,
        "SP98": 0.0019950000000000002
      },
      "maj_gouv": {
        "Gazole": "2026-06-10 10:07:15",
        "E10": "2026-06-10 10:07:15",
        "SP98": "2026-06-10 10:07:15"
      }
    },
    {
      "id": "71370007",
      "lat": 46.752044143998,
      "lon": 5.0066065144523,
      "cp": "71370",
      "ville": "L'Abergement-Sainte-Colombe",
      "prix": {
        "Gazole": 0.002006,
        "E85": 0.000843,
        "E10": 0.001956,
        "SP98": 0.00209
      },
      "maj_gouv": {
        "Gazole": "2026-06-09 08:20:02",
        "E85": "2026-05-16 12:55:00",
        "E10": "2026-06-09 08:20:02",
        "SP98": "2026-06-09 08:20:02"
      }
    },
    {
      "id": "71590001",
      "lat": 46.862,
      "lon": 4.95,
      "cp": "71590",
      "ville": "Gergy",
      "prix": {
        "Gazole": 0.002029,
        "E85": 0.000819,
        "E10": 0.0019790000000000003,
        "SP98": 0.002039
      },
      "maj_gouv": {
        "Gazole": "2026-06-10 08:25:23",
        "E85": "2026-06-08 12:53:30",
        "E10": "2026-06-08 12:53:30",
        "SP98": "2026-06-09 08:16:21"
      }
    },
    {
      "id": "71240009",
      "lat": 46.694821,
      "lon": 4.857844,
      "cp": "71240",
      "ville": "SAINT AMBREUIL",
      "prix": {
        "Gazole": 0.002109,
        "E85": 0.00124,
        "E10": 0.002072,
        "SP98": 0.002285
      },
      "maj_gouv": {
        "Gazole": "2026-06-09 10:24:56",
        "E85": "2026-06-09 10:24:56",
        "E10": "2026-06-09 10:24:56",
        "SP98": "2026-06-09 10:24:56"
      }
    },
    {
      "id": "71160002",
      "lat": 46.488,
      "lon": 3.993,
      "cp": "71160",
      "ville": "DIGOIN",
      "prix": {
        "Gazole": 0.001999,
        "SP95": 0.001999,
        "E10": 0.0019790000000000003,
        "SP98": 0.002079
      },
      "maj_gouv": {
        "Gazole": "2026-06-08 11:41:44",
        "SP95": "2026-06-08 11:41:44",
        "E10": "2026-06-08 11:41:44",
        "SP98": "2026-06-08 11:41:44"
      }
    },
    {
      "id": "71290003",
      "lat": 46.559,
      "lon": 4.996,
      "cp": "71290",
      "ville": "CUISERY",
      "prix": {
        "Gazole": 0.001964,
        "E10": 0.00196,
        "SP98": 0.002049
      },
      "maj_gouv": {
        "Gazole": "2026-06-04 09:49:42",
        "E10": "2026-06-04 09:49:42",
        "SP98": "2026-06-04 09:49:42"
      }
    },
    {
      "id": "71100008",
      "lat": 46.782,
      "lon": 4.847,
      "cp": "71100",
      "ville": "Chalon-sur-Saône",
      "prix": {
        "Gazole": 0.0020659999999999997,
        "E10": 0.001931,
        "SP98": 0.002011
      },
      "maj_gouv": {
        "Gazole": "2026-06-08 10:40:00",
        "E10": "2026-06-08 10:40:00",
        "SP98": "2026-06-08 10:40:00"
      }
    },
    {
      "id": "71130005",
      "lat": 46.597,
      "lon": 4.052,
      "cp": "71130",
      "ville": "Gueugnon",
      "prix": {
        "Gazole": 0.002104,
        "SP95": 0.00199
      },
      "maj_gouv": {
        "Gazole": "2026-06-09 08:06:44",
        "SP95": "2026-06-10 07:57:40"
      }
    },
    {
      "id": "71140002",
      "lat": 46.624,
      "lon": 3.757,
      "cp": "71140",
      "ville": "Bourbon-Lancy",
      "prix": {
        "Gazole": 0.0020499999999999997,
        "SP95": 0.002029,
        "E10": 0.0019890000000000003
      },
      "maj_gouv": {
        "Gazole": "2026-06-06 07:55:44",
        "SP95": "2026-06-06 07:55:44",
        "E10": "2026-06-06 07:55:45"
      }
    },
    {
      "id": "71700010",
      "lat": 46.598227248847,
      "lon": 4.9038672210453,
      "cp": "71700",
      "ville": "Boyer",
      "prix": {
        "Gazole": 0.002079,
        "E10": 0.00199,
        "SP98": 0.00199
      },
      "maj_gouv": {
        "Gazole": "2026-06-10 08:31:46",
        "E10": "2026-06-10 08:31:46",
        "SP98": "2026-06-10 08:31:46"
      }
    },
    {
      "id": "71000026",
      "lat": 46.330476,
      "lon": 4.843025,
      "cp": "71000",
      "ville": "SANCE",
      "prix": {
        "Gazole": 0.002063,
        "E10": 0.00199,
        "SP98": 0.00199
      },
      "maj_gouv": {
        "Gazole": "2026-06-10 19:09:39",
        "E10": "2026-06-10 19:09:39",
        "SP98": "2026-06-10 19:09:39"
      }
    },
    {
      "id": "71600013",
      "lat": 46.465,
      "lon": 4.079,
      "cp": "71600",
      "ville": "Vitry-en-Charollais",
      "prix": {
        "Gazole": 0.0019790000000000003
      },
      "maj_gouv": {
        "Gazole": "2026-06-10 13:13:38"
      }
    },
    {
      "id": "71490007",
      "lat": 46.866417999999996,
      "lon": 4.580069,
      "cp": "71490",
      "ville": "COUCHES",
      "prix": {
        "Gazole": 0.002039,
        "SP95": 0.001999,
        "SP98": 0.002069
      },
      "maj_gouv": {
        "Gazole": "2026-06-08 09:36:31",
        "SP95": "2026-06-08 09:36:32",
        "SP98": "2026-06-08 09:36:32"
      }
    },
    {
      "id": "71100031",
      "lat": 46.797346445445996,
      "lon": 4.8356486413059,
      "cp": "71100",
      "ville": "CHALON-SUR-SAÔNE",
      "prix": {
        "Gazole": 0.001967,
        "E85": 0.000798,
        "GPLc": 0.001099,
        "E10": 0.0019190000000000001,
        "SP98": 0.002039
      },
      "maj_gouv": {
        "Gazole": "2026-06-08 10:36:42",
        "E85": "2026-05-18 08:53:55",
        "GPLc": "2026-04-13 13:28:03",
        "E10": "2026-06-02 09:32:57",
        "SP98": "2026-06-02 08:19:01"
      }
    },
    {
      "id": "71190003",
      "lat": 46.866,
      "lon": 4.19,
      "cp": "71190",
      "ville": "Étang-sur-Arroux",
      "prix": {
        "Gazole": 0.0019890000000000003,
        "SP95": 0.001999,
        "SP98": 0.002079
      },
      "maj_gouv": {
        "Gazole": "2026-06-04 08:05:48",
        "SP95": "2026-06-04 08:05:48",
        "SP98": "2026-06-04 08:05:48"
      }
    },
    {
      "id": "71680002",
      "lat": 46.25,
      "lon": 4.788,
      "cp": "71680",
      "ville": "Crêches-sur-Saône",
      "prix": {
        "Gazole": 0.002059,
        "E85": 0.0010960000000000002,
        "E10": 0.001966,
        "SP98": 0.002101
      },
      "maj_gouv": {
        "Gazole": "2026-06-10 19:00:00",
        "E85": "2026-06-02 19:00:00",
        "E10": "2026-06-09 19:00:00",
        "SP98": "2026-06-09 19:00:00"
      }
    },
    {
      "id": "71800003",
      "lat": 46.289,
      "lon": 4.299,
      "cp": "71800",
      "ville": "LA CLAYETTE",
      "prix": {
        "Gazole": 0.0020350000000000004,
        "SP95": 0.00202
      },
      "maj_gouv": {
        "Gazole": "2026-06-05 08:25:08",
        "SP95": "2026-06-05 08:25:08"
      }
    },
    {
      "id": "71110003",
      "lat": 46.289,
      "lon": 4.041,
      "cp": "71110",
      "ville": "BAUGY",
      "prix": {
        "Gazole": 0.002132,
        "SP95": 0.002179,
        "SP98": 0.002219
      },
      "maj_gouv": {
        "Gazole": "2026-05-28 07:38:54",
        "SP95": "2026-05-28 07:38:54",
        "SP98": "2026-05-28 07:38:54"
      }
    },
    {
      "id": "71370003",
      "lat": 46.70461,
      "lon": 4.96891,
      "cp": "71370",
      "ville": "Ouroux-sur-Saône",
      "prix": {
        "Gazole": 0.001967,
        "SP95": 0.002019,
        "SP98": 0.002089
      },
      "maj_gouv": {
        "Gazole": "2026-06-08 15:38:42",
        "SP95": "2026-06-08 15:38:42",
        "SP98": "2026-06-08 15:38:42"
      }
    },
    {
      "id": "71260009",
      "lat": 46.42,
      "lon": 4.863,
      "cp": "71260",
      "ville": "SAINT ALBAIN",
      "prix": {
        "Gazole": 0.002245,
        "E10": 0.002179,
        "SP98": 0.0023290000000000003
      },
      "maj_gouv": {
        "Gazole": "2026-06-10 09:30:00",
        "E10": "2026-06-10 09:30:00",
        "SP98": "2026-06-10 09:30:00"
      }
    },
    {
      "id": "71850002",
      "lat": 46.311,
      "lon": 4.791,
      "cp": "71850",
      "ville": "CHARNAY-LèS-MâCON",
      "prix": {
        "Gazole": 0.00206,
        "E10": 0.00196,
        "SP98": 0.00199
      },
      "maj_gouv": {
        "Gazole": "2026-06-09 09:39:04",
        "E10": "2026-06-09 09:39:04",
        "SP98": "2026-06-09 09:39:05"
      }
    },
    {
      "id": "71460004",
      "lat": 46.670552,
      "lon": 4.6022479999999995,
      "cp": "71460",
      "ville": "Germagny",
      "prix": {
        "Gazole": 0.00225,
        "SP95": 0.00199
      },
      "maj_gouv": {
        "Gazole": "2026-06-09 14:54:16",
        "SP95": "2026-06-09 14:54:16"
      }
    },
    {
      "id": "71290002",
      "lat": 46.557889200483004,
      "lon": 4.9834025489039995,
      "cp": "71290",
      "ville": "Cuisery",
      "prix": {
        "Gazole": 0.0019950000000000002,
        "E85": 0.000798,
        "E10": 0.0019399999999999999,
        "SP98": 0.002049
      },
      "maj_gouv": {
        "Gazole": "2026-06-10 10:03:11",
        "E85": "2026-06-10 10:03:12",
        "E10": "2026-06-10 10:03:12",
        "SP98": "2026-06-10 10:03:12"
      }
    },
    {
      "id": "71160003",
      "lat": 46.474,
      "lon": 4.004,
      "cp": "71160",
      "ville": "DIGOIN",
      "prix": {
        "Gazole": 0.001999,
        "SP95": 0.0019790000000000003,
        "E85": 0.000809,
        "E10": 0.001899,
        "SP98": 0.002039
      },
      "maj_gouv": {
        "Gazole": "2026-06-10 08:23:27",
        "SP95": "2026-06-10 08:23:27",
        "E85": "2026-06-10 08:23:27",
        "E10": "2026-06-10 08:23:27",
        "SP98": "2026-06-10 08:23:27"
      }
    },
    {
      "id": "71230003",
      "lat": 46.643530483578,
      "lon": 4.3708068260129,
      "cp": "71230",
      "ville": "SAINT VALLIER",
      "prix": {
        "Gazole": 0.00209,
        "SP95": 0.00199,
        "SP98": 0.00199
      },
      "maj_gouv": {
        "Gazole": "2026-06-05 14:05:17",
        "SP95": "2026-06-05 14:05:17",
        "SP98": "2026-06-05 14:05:17"
      }
    },
    {
      "id": "71500007",
      "lat": 46.632006,
      "lon": 5.240151,
      "cp": "71500",
      "ville": "LOUHANS",
      "prix": {
        "Gazole": 0.001999,
        "E85": 0.0008990000000000001,
        "E10": 0.002099,
        "SP98": 0.002149
      },
      "maj_gouv": {
        "Gazole": "2026-06-02 18:05:01",
        "E85": "2026-04-14 18:02:50",
        "E10": "2026-06-02 18:05:01",
        "SP98": "2026-06-02 18:05:02"
      }
    },
    {
      "id": "71300015",
      "lat": 46.683649238314004,
      "lon": 4.349304666397701,
      "cp": "71300",
      "ville": "MONTCEAU LES MINES",
      "prix": {
        "Gazole": 0.002199,
        "E10": 0.002149,
        "SP98": 0.002199
      },
      "maj_gouv": {
        "Gazole": "2026-06-03 15:21:28",
        "E10": "2026-06-03 15:21:28",
        "SP98": "2026-06-03 15:21:28"
      }
    },
    {
      "id": "71210011",
      "lat": 46.787307404627,
      "lon": 4.4404684847946,
      "cp": "71200",
      "ville": "LE CREUSOT",
      "prix": {
        "Gazole": 0.001999,
        "E85": 0.0008990000000000001,
        "E10": 0.002079,
        "SP98": 0.002149
      },
      "maj_gouv": {
        "Gazole": "2026-06-02 23:59:00",
        "E85": "2026-05-14 00:36:00",
        "E10": "2026-06-02 23:59:00",
        "SP98": "2026-06-02 23:59:00"
      }
    },
    {
      "id": "71640004",
      "lat": 46.781814000000004,
      "lon": 4.751934,
      "cp": "71640",
      "ville": "GIVRY",
      "prix": {
        "Gazole": 0.001999,
        "E10": 0.001987,
        "SP98": 0.002058
      },
      "maj_gouv": {
        "Gazole": "2026-06-10 09:57:53",
        "E10": "2026-06-10 09:59:41",
        "SP98": "2026-06-03 10:43:35"
      }
    },
    {
      "id": "71260006",
      "lat": 46.41766,
      "lon": 4.86506,
      "cp": "71260",
      "ville": "Saint-Albain",
      "prix": {
        "Gazole": 0.002121,
        "E85": 0.000939,
        "GPLc": 0.0010789999999999999,
        "E10": 0.00199,
        "SP98": 0.00199
      },
      "maj_gouv": {
        "Gazole": "2026-06-11 00:01:00",
        "E85": "2026-06-11 00:01:00",
        "GPLc": "2026-06-11 00:01:00",
        "E10": "2026-06-11 00:01:00",
        "SP98": "2026-06-11 00:01:00"
      }
    }
  ]
}