{
  "departement": "22",
  "date": "2026-05-21",
  "stations": [
    {
      "id": "22250001",
      "lat": 48.315,
      "lon": -2.25,
      "cp": "22250",
      "ville": "BROONS",
      "prix": {
        "Gazole": 0.002079,
        "SP95": 0.002069,
        "SP98": 0.002129
      },
      "maj_gouv": {
        "Gazole": "2026-05-16 09:57:05",
        "SP95": "2026-05-16 09:57:05",
        "SP98": "2026-05-16 09:57:05"
      }
    },
    {
      "id": "22120005",
      "lat": 48.422,
      "lon": -2.656,
      "cp": "22120",
      "ville": "Quessoy",
      "prix": {
        "Gazole": 0.002096,
        "E10": 0.002048,
        "SP98": 0.0021469999999999996
      },
      "maj_gouv": {
        "Gazole": "2026-05-19 06:53:48",
        "E10": "2026-05-20 13:26:02",
        "SP98": "2026-05-20 13:26:02"
      }
    },
    {
      "id": "22500003",
      "lat": 48.771071642219,
      "lon": -3.0400148040401,
      "cp": "22500",
      "ville": "Paimpol",
      "prix": {
        "Gazole": 0.002113,
        "E10": 0.00199
      },
      "maj_gouv": {
        "Gazole": "2026-05-20 07:59:25",
        "E10": "2026-05-20 07:59:25"
      }
    },
    {
      "id": "22130001",
      "lat": 48.525,
      "lon": -2.241,
      "cp": "22130",
      "ville": "PLANCOET",
      "prix": {
        "Gazole": 0.002076,
        "E85": 0.000828,
        "E10": 0.002007,
        "SP98": 0.002097
      },
      "maj_gouv": {
        "Gazole": "2026-05-15 09:53:17",
        "E85": "2026-05-05 10:59:17",
        "E10": "2026-05-13 12:43:10",
        "SP98": "2026-05-15 09:57:55"
      }
    },
    {
      "id": "22500001",
      "lat": 48.773,
      "lon": -3.039,
      "cp": "22500",
      "ville": "PAIMPOL",
      "prix": {
        "Gazole": 0.002112,
        "E10": 0.002068,
        "SP98": 0.0021680000000000002
      },
      "maj_gouv": {
        "Gazole": "2026-05-20 09:12:06",
        "E10": "2026-05-19 08:51:09",
        "SP98": "2026-05-19 08:51:09"
      }
    },
    {
      "id": "22440002",
      "lat": 48.52276,
      "lon": -2.85671,
      "cp": "22440",
      "ville": "TRéMUSON",
      "prix": {
        "Gazole": 0.002089,
        "E10": 0.002009
      },
      "maj_gouv": {
        "Gazole": "2026-05-19 11:42:50",
        "E10": "2026-05-19 11:42:50"
      }
    },
    {
      "id": "22600004",
      "lat": 48.191,
      "lon": -2.756,
      "cp": "22600",
      "ville": "LOUDEAC",
      "prix": {
        "Gazole": 0.0020800000000000003,
        "SP95": 0.00207,
        "E10": 0.0020299999999999997
      },
      "maj_gouv": {
        "Gazole": "2026-05-20 09:23:54",
        "SP95": "2026-05-20 09:23:54",
        "E10": "2026-05-20 09:23:54"
      }
    },
    {
      "id": "22260001",
      "lat": 48.69621,
      "lon": -3.16593,
      "cp": "22260",
      "ville": "Pontrieux",
      "prix": {
        "Gazole": 0.0020870000000000003,
        "E85": 0.0008179999999999999,
        "E10": 0.002058,
        "SP98": 0.002098
      },
      "maj_gouv": {
        "Gazole": "2026-05-19 18:48:11",
        "E85": "2026-05-19 18:48:11",
        "E10": "2026-05-19 18:48:11",
        "SP98": "2026-05-19 18:48:11"
      }
    },
    {
      "id": "22210001",
      "lat": 48.17281,
      "lon": -2.5987,
      "cp": "22210",
      "ville": "Plémet",
      "prix": {
        "Gazole": 0.0020800000000000003,
        "E10": 0.0020299999999999997,
        "SP98": 0.00211
      },
      "maj_gouv": {
        "Gazole": "2026-05-20 10:41:18",
        "E10": "2026-05-20 10:41:18",
        "SP98": "2026-05-12 18:41:10"
      }
    },
    {
      "id": "22960001",
      "lat": 48.445538320000004,
      "lon": -2.7512954499999998,
      "cp": "22960",
      "ville": "PLEDRAN",
      "prix": {
        "Gazole": 0.002149,
        "E10": 0.002069,
        "SP98": 0.002149
      },
      "maj_gouv": {
        "Gazole": "2026-05-20 15:17:31",
        "E10": "2026-05-20 15:17:31",
        "SP98": "2026-05-20 15:17:31"
      }
    },
    {
      "id": "22240001",
      "lat": 48.627,
      "lon": -2.405,
      "cp": "22240",
      "ville": "Plurien",
      "prix": {},
      "maj_gouv": {}
    },
    {
      "id": "22400005",
      "lat": 48.462,
      "lon": -2.504,
      "cp": "22400",
      "ville": "LAMBALLE",
      "prix": {
        "Gazole": 0.002059,
        "E85": 0.000819,
        "E10": 0.002009,
        "SP98": 0.002099
      },
      "maj_gouv": {
        "Gazole": "2026-05-19 09:31:25",
        "E85": "2026-04-16 13:02:34",
        "E10": "2026-05-19 09:31:26",
        "SP98": "2026-05-19 09:31:26"
      }
    },
    {
      "id": "22300003",
      "lat": 48.75,
      "lon": -3.458,
      "cp": "22300",
      "ville": "Lannion",
      "prix": {
        "Gazole": 0.0021190000000000002,
        "SP95": 0.002109,
        "E85": 0.000815,
        "GPLc": 0.0011790000000000001,
        "E10": 0.002079,
        "SP98": 0.002149
      },
      "maj_gouv": {
        "Gazole": "2026-05-20 08:52:47",
        "SP95": "2026-05-19 08:55:40",
        "E85": "2026-05-12 08:57:27",
        "GPLc": "2026-04-30 09:19:48",
        "E10": "2026-05-19 08:55:40",
        "SP98": "2026-05-19 08:55:40"
      }
    },
    {
      "id": "22500004",
      "lat": 48.778,
      "lon": -3.057,
      "cp": "22500",
      "ville": "Paimpol",
      "prix": {
        "Gazole": 0.002108,
        "SP95": 0.002128,
        "E10": 0.002068,
        "SP98": 0.0021579999999999998
      },
      "maj_gouv": {
        "Gazole": "2026-05-21 02:00:00",
        "SP95": "2026-05-21 02:00:00",
        "E10": "2026-05-21 02:00:00",
        "SP98": "2026-05-21 02:00:00"
      }
    },
    {
      "id": "22140002",
      "lat": 48.623,
      "lon": -3.296,
      "cp": "22140",
      "ville": "Bégard",
      "prix": {
        "Gazole": 0.002079,
        "E10": 0.002019,
        "SP98": 0.002129
      },
      "maj_gouv": {
        "Gazole": "2026-05-20 09:09:34",
        "E10": "2026-05-19 10:00:09",
        "SP98": "2026-05-19 10:00:09"
      }
    },
    {
      "id": "22200006",
      "lat": 48.557,
      "lon": -3.129,
      "cp": "22970",
      "ville": "PLOUMAGOAR",
      "prix": {
        "Gazole": 0.002093,
        "E85": 0.000847,
        "E10": 0.00199,
        "SP98": 0.00199
      },
      "maj_gouv": {
        "Gazole": "2026-05-21 00:01:00",
        "E85": "2026-05-21 00:01:00",
        "E10": "2026-05-21 00:01:00",
        "SP98": "2026-05-21 00:01:00"
      }
    },
    {
      "id": "22650001",
      "lat": 48.577,
      "lon": -2.152,
      "cp": "22650",
      "ville": "PLOUBALAY",
      "prix": {
        "Gazole": 0.002216,
        "E10": 0.00199,
        "SP98": 0.00199
      },
      "maj_gouv": {
        "Gazole": "2026-05-19 08:56:28",
        "E10": "2026-05-19 08:56:28",
        "SP98": "2026-05-19 08:56:28"
      }
    },
    {
      "id": "22240003",
      "lat": 48.628,
      "lon": -2.362,
      "cp": "22240",
      "ville": "FREHEL",
      "prix": {
        "Gazole": 0.002155,
        "SP95": 0.0020350000000000004
      },
      "maj_gouv": {
        "Gazole": "2026-05-18 12:41:04",
        "SP95": "2026-05-18 12:41:04"
      }
    },
    {
      "id": "22350006",
      "lat": 48.27402585,
      "lon": -2.1864875602089,
      "cp": "22350",
      "ville": "SAINT JOUAN DE L'ISLE",
      "prix": {
        "Gazole": 0.002129,
        "E10": 0.002059,
        "SP98": 0.002189
      },
      "maj_gouv": {
        "Gazole": "2026-05-14 12:00:00",
        "E10": "2026-05-14 12:00:00",
        "SP98": "2026-05-14 12:00:00"
      }
    },
    {
      "id": "22390001",
      "lat": 48.478,
      "lon": -3.186,
      "cp": "22390",
      "ville": "Bourbriac",
      "prix": {
        "Gazole": 0.002199,
        "SP95": 0.002109,
        "SP98": 0.002199
      },
      "maj_gouv": {
        "Gazole": "2026-05-15 10:31:45",
        "SP95": "2026-05-05 12:50:39",
        "SP98": "2026-05-05 12:50:39"
      }
    },
    {
      "id": "22810002",
      "lat": 48.54944,
      "lon": -3.45286,
      "cp": "22810",
      "ville": "PLOUNEVEZ MOEDEC",
      "prix": {
        "Gazole": 0.002149,
        "E85": 0.000856,
        "E10": 0.00199,
        "SP98": 0.00199
      },
      "maj_gouv": {
        "Gazole": "2026-05-21 00:01:00",
        "E85": "2026-05-21 00:01:00",
        "E10": "2026-05-21 00:01:00",
        "SP98": "2026-05-21 00:01:00"
      }
    },
    {
      "id": "22230003",
      "lat": 48.19538,
      "lon": -2.41743,
      "cp": "22230",
      "ville": "MERDRIGNAC",
      "prix": {
        "Gazole": 0.00214,
        "SP95": 0.002063,
        "E10": 0.002045,
        "SP98": 0.002099
      },
      "maj_gouv": {
        "Gazole": "2026-05-20 10:48:19",
        "SP95": "2026-05-05 13:01:18",
        "E10": "2026-05-20 10:48:19",
        "SP98": "2026-05-05 13:01:19"
      }
    },
    {
      "id": "22270001",
      "lat": 48.409,
      "lon": -2.324,
      "cp": "22270",
      "ville": "Jugon-les-Lacs",
      "prix": {
        "Gazole": 0.0022240000000000003,
        "SP95": 0.002137,
        "SP98": 0.002199
      },
      "maj_gouv": {
        "Gazole": "2026-05-15 07:12:47",
        "SP95": "2026-05-15 07:12:48",
        "SP98": "2026-05-15 07:12:48"
      }
    },
    {
      "id": "22300002",
      "lat": 48.72639682,
      "lon": -3.4460882,
      "cp": "22300",
      "ville": "LANNION",
      "prix": {
        "Gazole": 0.0021190000000000002,
        "E10": 0.002079,
        "SP98": 0.002149
      },
      "maj_gouv": {
        "Gazole": "2026-05-20 08:54:46",
        "E10": "2026-05-19 09:02:18",
        "SP98": "2026-05-19 09:02:18"
      }
    },
    {
      "id": "22200005",
      "lat": 48.558,
      "lon": -3.141,
      "cp": "22200",
      "ville": "GUINGAMP",
      "prix": {
        "E10": 0.00199,
        "SP98": 0.00199
      },
      "maj_gouv": {
        "E10": "2026-04-23 12:53:17",
        "SP98": "2026-04-23 12:53:17"
      }
    },
    {
      "id": "22580001",
      "lat": 48.691,
      "lon": -2.933,
      "cp": "22580",
      "ville": "PLOUHA",
      "prix": {
        "Gazole": 0.002199,
        "SP95": 0.002095,
        "SP98": 0.002179
      },
      "maj_gouv": {
        "Gazole": "2026-04-18 09:44:03",
        "SP95": "2026-05-02 11:49:13",
        "SP98": "2026-05-02 11:49:13"
      }
    },
    {
      "id": "22560001",
      "lat": 48.77,
      "lon": -3.571,
      "cp": "22560",
      "ville": "TRéBEURDEN",
      "prix": {
        "Gazole": 0.002085,
        "E85": 0.000798,
        "E10": 0.002034,
        "SP98": 0.002141
      },
      "maj_gouv": {
        "Gazole": "2026-05-19 09:08:05",
        "E85": "2026-05-15 09:35:37",
        "E10": "2026-05-19 09:08:05",
        "SP98": "2026-05-19 09:08:06"
      }
    },
    {
      "id": "22190001",
      "lat": 48.534,
      "lon": -2.76,
      "cp": "22190",
      "ville": "PLERIN",
      "prix": {
        "Gazole": 0.002099,
        "E85": 0.0008139999999999999,
        "E10": 0.002045,
        "SP98": 0.002109
      },
      "maj_gouv": {
        "Gazole": "2026-05-21 01:16:00",
        "E85": "2026-05-21 01:16:00",
        "E10": "2026-05-21 01:16:00",
        "SP98": "2026-05-21 01:16:00"
      }
    },
    {
      "id": "22220001",
      "lat": 48.778,
      "lon": -3.232,
      "cp": "22220",
      "ville": "TREGUIER",
      "prix": {
        "Gazole": 0.0020870000000000003,
        "SP95": 0.002078,
        "E85": 0.0007379999999999999,
        "SP98": 0.002098
      },
      "maj_gouv": {
        "Gazole": "2026-05-16 09:32:12",
        "SP95": "2026-05-15 10:34:28",
        "E85": "2026-04-17 18:32:48",
        "SP98": "2026-05-15 10:34:28"
      }
    },
    {
      "id": "22610001",
      "lat": 48.844,
      "lon": -3.137,
      "cp": "22610",
      "ville": "PLEUBIAN",
      "prix": {
        "Gazole": 0.0021869999999999997,
        "SP95": 0.002068,
        "SP98": 0.002098
      },
      "maj_gouv": {
        "Gazole": "2026-05-06 11:36:42",
        "SP95": "2026-05-06 11:36:42",
        "SP98": "2026-05-15 10:40:41"
      }
    },
    {
      "id": "22120001",
      "lat": 48.481,
      "lon": -2.67378,
      "cp": "22120",
      "ville": "Yffiniac",
      "prix": {
        "Gazole": 0.002096,
        "E85": 0.000828,
        "GPLc": 0.001119,
        "E10": 0.002048,
        "SP98": 0.0021469999999999996
      },
      "maj_gouv": {
        "Gazole": "2026-05-18 08:30:00",
        "E85": "2026-05-04 08:30:00",
        "GPLc": "2026-05-04 08:30:00",
        "E10": "2026-05-19 08:30:00",
        "SP98": "2026-05-19 08:30:00"
      }
    },
    {
      "id": "22530001",
      "lat": 48.198,
      "lon": -2.987,
      "cp": "22530",
      "ville": "Mûr-de-Bretagne",
      "prix": {
        "Gazole": 0.002113,
        "E10": 0.002061,
        "SP98": 0.002189
      },
      "maj_gouv": {
        "Gazole": "2026-05-19 09:20:59",
        "E10": "2026-05-19 09:20:59",
        "SP98": "2026-05-19 09:20:59"
      }
    },
    {
      "id": "22800003",
      "lat": 48.40807360198001,
      "lon": -2.9186782083897,
      "cp": "22800",
      "ville": "Quintin",
      "prix": {
        "Gazole": 0.002189,
        "E10": 0.002052,
        "SP98": 0.002124
      },
      "maj_gouv": {
        "Gazole": "2026-05-13 10:51:50",
        "E10": "2026-05-13 10:51:50",
        "SP98": "2026-05-13 10:51:50"
      }
    },
    {
      "id": "22200004",
      "lat": 48.562,
      "lon": -3.153,
      "cp": "22200",
      "ville": "SAINT-AGATHON",
      "prix": {
        "Gazole": 0.002079,
        "E10": 0.002028,
        "SP98": 0.0021349999999999997
      },
      "maj_gouv": {
        "Gazole": "2026-05-19 07:57:59",
        "E10": "2026-05-19 07:57:59",
        "SP98": "2026-05-19 07:57:59"
      }
    },
    {
      "id": "22120003",
      "lat": 48.482,
      "lon": -2.646,
      "cp": "22120",
      "ville": "YFFINIAC",
      "prix": {
        "Gazole": 0.002159,
        "SP95": 0.00209,
        "SP98": 0.00216
      },
      "maj_gouv": {
        "Gazole": "2026-05-18 17:30:00",
        "SP95": "2026-03-03 17:28:55",
        "SP98": "2026-03-03 17:28:55"
      }
    },
    {
      "id": "22203001",
      "lat": 48.553,
      "lon": -3.149,
      "cp": "22200",
      "ville": "GUINGAMP",
      "prix": {
        "Gazole": 0.0021000000000000003,
        "SP95": 0.002099,
        "E10": 0.002055,
        "SP98": 0.0021349999999999997
      },
      "maj_gouv": {
        "Gazole": "2026-05-20 08:58:27",
        "SP95": "2026-05-19 09:11:32",
        "E10": "2026-05-19 09:11:32",
        "SP98": "2026-05-19 09:11:32"
      }
    },
    {
      "id": "22104001",
      "lat": 48.445,
      "lon": -2.069,
      "cp": "22100",
      "ville": "DINAN",
      "prix": {
        "Gazole": 0.0020870000000000003,
        "SP95": 0.002101,
        "SP98": 0.002121
      },
      "maj_gouv": {
        "Gazole": "2026-05-21 01:17:00",
        "SP95": "2026-05-21 01:17:00",
        "SP98": "2026-05-21 01:17:00"
      }
    },
    {
      "id": "22600008",
      "lat": 48.178,
      "lon": -2.76,
      "cp": "22600",
      "ville": "LOUDEAC",
      "prix": {
        "Gazole": 0.002199,
        "E10": 0.002009,
        "SP98": 0.002139
      },
      "maj_gouv": {
        "Gazole": "2026-05-04 15:10:51",
        "E10": "2026-05-07 07:26:00",
        "SP98": "2026-05-07 07:26:01"
      }
    },
    {
      "id": "22640003",
      "lat": 48.367861879108,
      "lon": -2.3949106208503,
      "cp": "22640",
      "ville": "Plénée-Jugon",
      "prix": {
        "Gazole": 0.0021190000000000002,
        "E10": 0.002049,
        "SP98": 0.002169
      },
      "maj_gouv": {
        "Gazole": "2026-05-20 02:54:51",
        "E10": "2026-05-20 02:54:52",
        "SP98": "2026-05-20 02:54:52"
      }
    },
    {
      "id": "22100010",
      "lat": 48.454,
      "lon": -2.026,
      "cp": "22100",
      "ville": "Lanvallay",
      "prix": {
        "Gazole": 0.0020800000000000003,
        "SP95": 0.002099,
        "SP98": 0.002125
      },
      "maj_gouv": {
        "Gazole": "2026-05-18 08:44:37",
        "SP95": "2026-05-11 14:09:13",
        "SP98": "2026-05-11 14:09:13"
      }
    },
    {
      "id": "22400011",
      "lat": 48.559,
      "lon": -2.544,
      "cp": "22400",
      "ville": "St Alban",
      "prix": {
        "Gazole": 0.0021939999999999998,
        "E10": 0.00199
      },
      "maj_gouv": {
        "Gazole": "2026-05-20 09:49:09",
        "E10": "2026-05-20 09:49:10"
      }
    },
    {
      "id": "22100001",
      "lat": 48.464,
      "lon": -2.087,
      "cp": "22100",
      "ville": "QUEVERT",
      "prix": {
        "Gazole": 0.0020870000000000003,
        "SP95": 0.002101,
        "E10": 0.002081,
        "SP98": 0.002121
      },
      "maj_gouv": {
        "Gazole": "2026-05-20 10:17:00",
        "SP95": "2026-05-20 10:17:00",
        "E10": "2026-05-20 10:17:00",
        "SP98": "2026-05-20 10:17:00"
      }
    },
    {
      "id": "22170005",
      "lat": 48.537405899999996,
      "lon": -2.9949214,
      "cp": "22170",
      "ville": "Plouagat",
      "prix": {
        "Gazole": 0.002099,
        "SP95": 0.002039,
        "SP98": 0.002099
      },
      "maj_gouv": {
        "Gazole": "2026-05-19 10:44:22",
        "SP95": "2026-04-29 11:18:31",
        "SP98": "2026-04-02 10:37:38"
      }
    },
    {
      "id": "22100009",
      "lat": 48.453,
      "lon": -2.057,
      "cp": "22100",
      "ville": "DINAN",
      "prix": {
        "Gazole": 0.002142,
        "E85": 0.0008179999999999999,
        "E10": 0.00199
      },
      "maj_gouv": {
        "Gazole": "2026-05-21 00:01:00",
        "E85": "2026-05-21 00:01:00",
        "E10": "2026-05-21 00:01:00"
      }
    },
    {
      "id": "22440001",
      "lat": 48.5,
      "lon": -2.777,
      "cp": "22440",
      "ville": "Ploufragan",
      "prix": {
        "Gazole": 0.002092,
        "E85": 0.000799,
        "E10": 0.002059,
        "SP98": 0.002137
      },
      "maj_gouv": {
        "Gazole": "2026-05-21 00:01:00",
        "E85": "2026-05-07 00:01:00",
        "E10": "2026-05-19 00:01:00",
        "SP98": "2026-05-21 00:01:00"
      }
    },
    {
      "id": "22290001",
      "lat": 48.633,
      "lon": -2.979,
      "cp": "22290",
      "ville": "LANVOLLON",
      "prix": {
        "Gazole": 0.002069,
        "SP95": 0.002088,
        "E10": 0.002052,
        "SP98": 0.002124
      },
      "maj_gouv": {
        "Gazole": "2026-05-19 12:09:46",
        "SP95": "2026-05-13 18:33:17",
        "E10": "2026-05-13 18:33:18",
        "SP98": "2026-05-13 18:33:18"
      }
    },
    {
      "id": "22170004",
      "lat": 48.525,
      "lon": -2.889,
      "cp": "22170",
      "ville": "PLERNEUF",
      "prix": {
        "Gazole": 0.002093,
        "GPLc": 0.001029,
        "E10": 0.00199,
        "SP98": 0.00199
      },
      "maj_gouv": {
        "Gazole": "2026-05-21 00:01:00",
        "GPLc": "2026-05-21 00:01:00",
        "E10": "2026-05-21 00:01:00",
        "SP98": "2026-05-21 00:01:00"
      }
    },
    {
      "id": "22220003",
      "lat": 48.7793,
      "lon": -3.24469,
      "cp": "22220",
      "ville": "Minihy-Tréguier",
      "prix": {
        "Gazole": 0.0020870000000000003,
        "E10": 0.002058,
        "SP98": 0.002098
      },
      "maj_gouv": {
        "Gazole": "2026-05-16 10:14:25",
        "E10": "2026-05-16 07:34:16",
        "SP98": "2026-05-16 07:34:16"
      }
    },
    {
      "id": "22520001",
      "lat": 48.61177,
      "lon": -2.83098,
      "cp": "22520",
      "ville": "BINIC",
      "prix": {
        "Gazole": 0.002098,
        "E85": 0.000809,
        "GPLc": 0.001049,
        "E10": 0.002055,
        "SP98": 0.002129
      },
      "maj_gouv": {
        "Gazole": "2026-05-20 12:24:23",
        "E85": "2026-05-18 11:23:35",
        "GPLc": "2026-04-13 17:48:00",
        "E10": "2026-05-20 12:24:23",
        "SP98": "2026-05-20 12:24:23"
      }
    },
    {
      "id": "22430001",
      "lat": 48.622,
      "lon": -2.439,
      "cp": "22430",
      "ville": "ERQUY",
      "prix": {
        "Gazole": 0.002089,
        "E85": 0.000769,
        "E10": 0.002069
      },
      "maj_gouv": {
        "Gazole": "2026-05-16 12:50:25",
        "E85": "2026-05-14 08:12:22",
        "E10": "2026-05-18 14:06:02"
      }
    },
    {
      "id": "22540002",
      "lat": 48.57,
      "lon": -3.339,
      "cp": "22540",
      "ville": "LOUARGAT",
      "prix": {
        "Gazole": 0.002169,
        "E10": 0.002089,
        "SP98": 0.002199
      },
      "maj_gouv": {
        "Gazole": "2026-05-18 10:33:53",
        "E10": "2026-05-18 10:34:28",
        "SP98": "2026-05-18 10:34:29"
      }
    },
    {
      "id": "22000010",
      "lat": 48.50836,
      "lon": -2.76785,
      "cp": "22000",
      "ville": "Saint-Brieuc",
      "prix": {
        "Gazole": 0.0021520000000000003,
        "E85": 0.0008169999999999999,
        "E10": 0.00199
      },
      "maj_gouv": {
        "Gazole": "2026-05-21 00:01:00",
        "E85": "2026-05-21 00:01:00",
        "E10": "2026-05-21 00:01:00"
      }
    },
    {
      "id": "22000011",
      "lat": 48.49806,
      "lon": -2.74533,
      "cp": "22000",
      "ville": "Saint-Brieuc",
      "prix": {
        "Gazole": 0.002093,
        "E85": 0.0008139999999999999,
        "GPLc": 0.001029,
        "E10": 0.00199
      },
      "maj_gouv": {
        "Gazole": "2026-05-21 00:01:00",
        "E85": "2026-05-21 00:01:00",
        "GPLc": "2026-05-21 00:01:00",
        "E10": "2026-05-21 00:01:00"
      }
    },
    {
      "id": "22480001",
      "lat": 48.3066976252,
      "lon": -3.16397737542,
      "cp": "22480",
      "ville": "SAINT-NICOLAS-DU-PéLEM",
      "prix": {
        "Gazole": 0.002089,
        "SP95": 0.002089,
        "SP98": 0.0021190000000000002
      },
      "maj_gouv": {
        "Gazole": "2026-05-15 15:01:30",
        "SP95": "2026-05-15 15:01:30",
        "SP98": "2026-05-20 08:15:43"
      }
    },
    {
      "id": "22300007",
      "lat": 48.745,
      "lon": -3.477,
      "cp": "22300",
      "ville": "LANNION",
      "prix": {
        "Gazole": 0.002085,
        "E10": 0.0020350000000000004,
        "SP98": 0.002149
      },
      "maj_gouv": {
        "Gazole": "2026-05-19 07:36:05",
        "E10": "2026-05-19 07:36:05",
        "SP98": "2026-05-19 07:36:05"
      }
    },
    {
      "id": "22300006",
      "lat": 48.714,
      "lon": -3.454,
      "cp": "22300",
      "ville": "PLOUBEZRE",
      "prix": {
        "Gazole": 0.0021230000000000003,
        "E85": 0.000798,
        "E10": 0.002021,
        "SP98": 0.002129
      },
      "maj_gouv": {
        "Gazole": "2026-05-18 12:31:51",
        "E85": "2026-05-18 12:31:52",
        "E10": "2026-05-18 12:31:52",
        "SP98": "2026-05-18 12:31:52"
      }
    },
    {
      "id": "22110003",
      "lat": 48.23682,
      "lon": -3.31209,
      "cp": "22110",
      "ville": "Rostrenen",
      "prix": {
        "Gazole": 0.002079,
        "GPLc": 0.0010149999999999998,
        "E10": 0.002025,
        "SP98": 0.0021349999999999997
      },
      "maj_gouv": {
        "Gazole": "2026-05-19 08:33:58",
        "GPLc": "2026-05-12 08:25:36",
        "E10": "2026-05-19 08:33:58",
        "SP98": "2026-05-19 08:33:58"
      }
    },
    {
      "id": "22000002",
      "lat": 48.522,
      "lon": -2.732,
      "cp": "22000",
      "ville": "SAINT-BRIEUC",
      "prix": {
        "Gazole": 0.002099,
        "SP95": 0.0020800000000000003,
        "E10": 0.0020299999999999997,
        "SP98": 0.00211
      },
      "maj_gouv": {
        "Gazole": "2026-05-13 08:30:00",
        "SP95": "2026-05-13 08:30:00",
        "E10": "2026-05-13 08:30:00",
        "SP98": "2026-05-13 08:30:00"
      }
    },
    {
      "id": "22150005",
      "lat": 48.35079047,
      "lon": -2.76064927,
      "cp": "22150",
      "ville": "Plœuc-L'Hermitage",
      "prix": {
        "Gazole": 0.002141,
        "E10": 0.00202,
        "SP98": 0.002149
      },
      "maj_gouv": {
        "Gazole": "2026-05-15 16:16:23",
        "E10": "2026-05-15 16:16:23",
        "SP98": "2026-05-15 16:16:23"
      }
    },
    {
      "id": "22650002",
      "lat": 48.575846568782005,
      "lon": -2.1495428180546,
      "cp": "22650",
      "ville": "Ploubalay",
      "prix": {
        "Gazole": 0.002199,
        "SP95": 0.002079,
        "SP98": 0.0021190000000000002
      },
      "maj_gouv": {
        "Gazole": "2026-05-06 10:33:52",
        "SP95": "2026-05-06 10:33:52",
        "SP98": "2026-05-06 10:33:53"
      }
    },
    {
      "id": "22950003",
      "lat": 48.49104,
      "lon": -2.76346,
      "cp": "22950",
      "ville": "TRéGUEUX",
      "prix": {
        "Gazole": 0.0022,
        "SP95": 0.002095,
        "E10": 0.00204
      },
      "maj_gouv": {
        "Gazole": "2026-05-09 07:52:40",
        "SP95": "2026-05-09 07:52:41",
        "E10": "2026-05-09 07:52:41"
      }
    },
    {
      "id": "22830001",
      "lat": 48.299,
      "lon": -2.003,
      "cp": "22830",
      "ville": "Plouasne",
      "prix": {
        "Gazole": 0.002238,
        "SP95": 0.002097
      },
      "maj_gouv": {
        "Gazole": "2026-05-19 09:33:55",
        "SP95": "2026-05-19 09:33:55"
      }
    },
    {
      "id": "22490001",
      "lat": 48.5322674691,
      "lon": -2.00716761564,
      "cp": "22490",
      "ville": "PLOUëR-SUR-RANCE",
      "prix": {
        "Gazole": 0.002089,
        "SP95": 0.002099,
        "E85": 0.000809,
        "SP98": 0.0021190000000000002
      },
      "maj_gouv": {
        "Gazole": "2026-05-16 10:21:01",
        "SP95": "2026-05-18 14:18:43",
        "E85": "2026-05-13 09:13:25",
        "SP98": "2026-05-20 12:10:49"
      }
    },
    {
      "id": "22350004",
      "lat": 48.291,
      "lon": -2.152,
      "cp": "22350",
      "ville": "CAULNES",
      "prix": {
        "Gazole": 0.002115,
        "E10": 0.002049,
        "SP98": 0.002159
      },
      "maj_gouv": {
        "Gazole": "2026-05-21 06:05:38",
        "E10": "2026-05-21 06:05:38",
        "SP98": "2026-05-21 06:05:38"
      }
    },
    {
      "id": "22570001",
      "lat": 48.227,
      "lon": -3.176,
      "cp": "22570",
      "ville": "Laniscat",
      "prix": {
        "Gazole": 0.00219,
        "E10": 0.00199,
        "SP98": 0.00199
      },
      "maj_gouv": {
        "Gazole": "2026-05-18 09:29:54",
        "E10": "2026-05-07 16:45:09",
        "SP98": "2026-05-07 16:45:09"
      }
    },
    {
      "id": "22980002",
      "lat": 48.432,
      "lon": -2.217,
      "cp": "22980",
      "ville": "Plélan-le-Petit",
      "prix": {
        "Gazole": 0.002099,
        "E85": 0.000798,
        "E10": 0.002069,
        "SP98": 0.002179
      },
      "maj_gouv": {
        "Gazole": "2026-05-16 08:21:26",
        "E85": "2026-05-19 14:49:36",
        "E10": "2026-05-18 16:30:54",
        "SP98": "2026-05-18 16:30:54"
      }
    },
    {
      "id": "22940002",
      "lat": 48.415,
      "lon": -2.822,
      "cp": "22940",
      "ville": "Plaintel",
      "prix": {
        "Gazole": 0.00213,
        "E85": 0.000798,
        "E10": 0.002049,
        "SP98": 0.00217
      },
      "maj_gouv": {
        "Gazole": "2026-05-19 12:52:35",
        "E85": "2026-05-19 12:52:35",
        "E10": "2026-05-19 12:52:35",
        "SP98": "2026-05-19 12:52:35"
      }
    },
    {
      "id": "22400010",
      "lat": 48.53188139814301,
      "lon": -2.5777083107307996,
      "cp": "22400",
      "ville": "Lamballe Amor Planguenoual",
      "prix": {
        "Gazole": 0.0021680000000000002,
        "E10": 0.0020659999999999997,
        "SP98": 0.002132
      },
      "maj_gouv": {
        "Gazole": "2026-05-20 15:04:29",
        "E10": "2026-05-20 15:04:30",
        "SP98": "2026-05-20 15:04:30"
      }
    },
    {
      "id": "22400007",
      "lat": 48.477,
      "lon": -2.586,
      "cp": "22400",
      "ville": "COETMIEUX",
      "prix": {},
      "maj_gouv": {}
    },
    {
      "id": "22710001",
      "lat": 48.80248,
      "lon": -3.30911,
      "cp": "22710",
      "ville": "Penvénan",
      "prix": {
        "Gazole": 0.002099,
        "SP95": 0.002079,
        "SP98": 0.002139
      },
      "maj_gouv": {
        "Gazole": "2026-05-18 12:00:00",
        "SP95": "2026-05-07 12:00:00",
        "SP98": "2026-05-07 12:00:00"
      }
    },
    {
      "id": "22630002",
      "lat": 48.376,
      "lon": -1.975,
      "cp": "22630",
      "ville": "Évran",
      "prix": {
        "Gazole": 0.002199,
        "SP95": 0.002099
      },
      "maj_gouv": {
        "Gazole": "2026-05-18 11:41:12",
        "SP95": "2026-05-18 11:41:12"
      }
    },
    {
      "id": "22200007",
      "lat": 48.551,
      "lon": -3.158,
      "cp": "22200",
      "ville": "Guingamp-GRACES",
      "prix": {
        "Gazole": 0.00227,
        "E85": 0.0009699999999999999,
        "E10": 0.00211
      },
      "maj_gouv": {
        "Gazole": "2026-05-06 12:37:44",
        "E85": "2026-03-02 19:31:41",
        "E10": "2026-04-28 19:23:54"
      }
    },
    {
      "id": "22700002",
      "lat": 48.787,
      "lon": -3.448,
      "cp": "22700",
      "ville": "SAINT-QUAY-PERROS",
      "prix": {
        "Gazole": 0.0021190000000000002,
        "E10": 0.002079,
        "SP98": 0.002149
      },
      "maj_gouv": {
        "Gazole": "2026-05-21 06:48:14",
        "E10": "2026-05-19 17:46:22",
        "SP98": "2026-05-19 17:46:23"
      }
    },
    {
      "id": "22300005",
      "lat": 48.721,
      "lon": -3.482,
      "cp": "22300",
      "ville": "PLOULEC'H-LANNION",
      "prix": {
        "Gazole": 0.0021190000000000002,
        "E85": 0.0008179999999999999,
        "E10": 0.002079,
        "SP98": 0.002149
      },
      "maj_gouv": {
        "Gazole": "2026-05-20 09:46:45",
        "E85": "2026-04-22 09:04:52",
        "E10": "2026-05-19 09:44:08",
        "SP98": "2026-05-19 09:44:08"
      }
    },
    {
      "id": "22460005",
      "lat": 48.287,
      "lon": -2.827,
      "cp": "22460",
      "ville": "UZEL",
      "prix": {
        "Gazole": 0.0022280000000000004,
        "E10": 0.00199,
        "SP98": 0.00199
      },
      "maj_gouv": {
        "Gazole": "2026-05-18 08:10:36",
        "E10": "2026-05-18 08:10:37",
        "SP98": "2026-05-18 12:29:30"
      }
    },
    {
      "id": "22600006",
      "lat": 48.19337648347,
      "lon": -2.7574038780979997,
      "cp": "22600",
      "ville": "Loudéac",
      "prix": {
        "Gazole": 0.0020800000000000003,
        "SP95": 0.00207,
        "E85": 0.0008179999999999999,
        "GPLc": 0.00111,
        "E10": 0.0020299999999999997
      },
      "maj_gouv": {
        "Gazole": "2026-05-20 10:00:13",
        "SP95": "2026-05-20 10:01:05",
        "E85": "2026-05-07 09:47:38",
        "GPLc": "2026-05-11 15:42:18",
        "E10": "2026-05-20 10:01:05"
      }
    },
    {
      "id": "56270001",
      "lat": 48.644,
      "lon": -2.837,
      "cp": "22680",
      "ville": "ÉTABLES-SUR-MER",
      "prix": {
        "Gazole": 0.002109,
        "E85": 0.000869,
        "E10": 0.002039,
        "SP98": 0.002189
      },
      "maj_gouv": {
        "Gazole": "2026-05-13 10:36:47",
        "E85": "2026-03-04 14:52:36",
        "E10": "2026-05-04 12:12:51",
        "SP98": "2026-05-07 10:06:41"
      }
    },
    {
      "id": "22600002",
      "lat": 48.166,
      "lon": -2.751,
      "cp": "22600",
      "ville": "LOUDéAC",
      "prix": {
        "Gazole": 0.0022010000000000003,
        "SP95": 0.00199
      },
      "maj_gouv": {
        "Gazole": "2026-05-18 09:05:33",
        "SP95": "2026-05-20 16:13:36"
      }
    },
    {
      "id": "22310001",
      "lat": 48.657,
      "lon": -3.633,
      "cp": "22310",
      "ville": "PLESTIN-LES-GRèVES",
      "prix": {
        "Gazole": 0.002115,
        "E85": 0.000799,
        "E10": 0.002069,
        "SP98": 0.002149
      },
      "maj_gouv": {
        "Gazole": "2026-05-20 09:41:30",
        "E85": "2026-04-24 09:06:03",
        "E10": "2026-05-20 09:41:30",
        "SP98": "2026-05-20 09:41:30"
      }
    },
    {
      "id": "22230004",
      "lat": 48.191,
      "lon": -2.404,
      "cp": "22230",
      "ville": "Merdrignac",
      "prix": {
        "Gazole": 0.0022080000000000003,
        "E10": 0.00199,
        "SP98": 0.00199
      },
      "maj_gouv": {
        "Gazole": "2026-05-19 07:32:02",
        "E10": "2026-05-19 07:32:02",
        "SP98": "2026-05-19 07:32:02"
      }
    },
    {
      "id": "22370001",
      "lat": 48.58111,
      "lon": -2.53447,
      "cp": "22370",
      "ville": "PLéNEUF-VAL-ANDRé",
      "prix": {
        "Gazole": 0.0021030000000000003,
        "SP95": 0.002117,
        "E85": 0.000742,
        "E10": 0.002075
      },
      "maj_gouv": {
        "Gazole": "2026-05-20 09:11:08",
        "SP95": "2026-05-20 09:11:08",
        "E85": "2026-05-20 09:11:08",
        "E10": "2026-05-20 09:11:08"
      }
    },
    {
      "id": "22590001",
      "lat": 48.562087334912995,
      "lon": -2.8117884064777,
      "cp": "22590",
      "ville": "Pordic",
      "prix": {
        "Gazole": 0.002059,
        "E85": 0.0008179999999999999,
        "E10": 0.002039,
        "SP98": 0.0021190000000000002
      },
      "maj_gouv": {
        "Gazole": "2026-05-19 18:01:06",
        "E85": "2026-05-18 09:35:46",
        "E10": "2026-05-19 18:01:06",
        "SP98": "2026-05-19 18:01:06"
      }
    },
    {
      "id": "22640001",
      "lat": 48.423,
      "lon": -2.445,
      "cp": "22640",
      "ville": "Plestan",
      "prix": {},
      "maj_gouv": {}
    },
    {
      "id": "22300004",
      "lat": 48.73431822,
      "lon": -3.43779114,
      "cp": "22300",
      "ville": "LANNION",
      "prix": {
        "Gazole": 0.0021190000000000002,
        "E85": 0.000819,
        "E10": 0.002079,
        "SP98": 0.002149
      },
      "maj_gouv": {
        "Gazole": "2026-05-20 12:12:48",
        "E85": "2026-04-17 09:07:20",
        "E10": "2026-05-19 09:10:58",
        "SP98": "2026-05-19 09:10:59"
      }
    },
    {
      "id": "22550001",
      "lat": 48.6,
      "lon": -2.287,
      "cp": "22550",
      "ville": "MATIGNON",
      "prix": {
        "Gazole": 0.002069,
        "E85": 0.0007149999999999999,
        "E10": 0.002059,
        "SP98": 0.002129
      },
      "maj_gouv": {
        "Gazole": "2026-05-19 08:32:33",
        "E85": "2026-05-08 08:56:36",
        "E10": "2026-05-18 08:40:19",
        "SP98": "2026-05-18 08:40:19"
      }
    },
    {
      "id": "22470001",
      "lat": 48.746461270705,
      "lon": -2.9823067889024997,
      "cp": "22470",
      "ville": "Plouézec",
      "prix": {
        "Gazole": 0.0021190000000000002,
        "E10": 0.002049,
        "SP98": 0.002139
      },
      "maj_gouv": {
        "Gazole": "2026-05-15 11:09:21",
        "E10": "2026-05-20 11:47:04",
        "SP98": "2026-05-15 11:09:22"
      }
    },
    {
      "id": "22130002",
      "lat": 48.525,
      "lon": -2.252,
      "cp": "22130",
      "ville": "PLUDUNO",
      "prix": {
        "Gazole": 0.002076,
        "GPLc": 0.001081,
        "E10": 0.002007,
        "SP98": 0.002097
      },
      "maj_gouv": {
        "Gazole": "2026-05-15 09:24:09",
        "GPLc": "2026-05-18 10:36:58",
        "E10": "2026-05-15 12:59:14",
        "SP98": "2026-05-15 09:24:09"
      }
    },
    {
      "id": "22800002",
      "lat": 48.4,
      "lon": -2.9,
      "cp": "22800",
      "ville": "Saint-Brandan",
      "prix": {
        "Gazole": 0.0020859999999999997,
        "E10": 0.0020459999999999996,
        "SP98": 0.002117
      },
      "maj_gouv": {
        "Gazole": "2026-05-21 01:17:00",
        "E10": "2026-05-21 01:17:00",
        "SP98": "2026-05-21 01:17:00"
      }
    },
    {
      "id": "22250002",
      "lat": 48.324,
      "lon": -2.251,
      "cp": "22250",
      "ville": "BROONS",
      "prix": {
        "Gazole": 0.002115,
        "SP95": 0.002115,
        "E85": 0.0008179999999999999,
        "SP98": 0.002159
      },
      "maj_gouv": {
        "Gazole": "2026-05-21 06:32:17",
        "SP95": "2026-05-21 06:32:18",
        "E85": "2026-04-23 08:41:58",
        "SP98": "2026-05-21 06:32:18"
      }
    },
    {
      "id": "22160003",
      "lat": 48.407,
      "lon": -3.434,
      "cp": "22160",
      "ville": "Callac",
      "prix": {
        "Gazole": 0.002079,
        "E85": 0.0008179999999999999,
        "GPLc": 0.0010689999999999999,
        "E10": 0.001999,
        "SP98": 0.002099
      },
      "maj_gouv": {
        "Gazole": "2026-05-15 07:41:30",
        "E85": "2026-05-06 07:12:44",
        "GPLc": "2026-05-06 07:12:44",
        "E10": "2026-05-19 11:27:09",
        "SP98": "2026-05-19 11:30:21"
      }
    },
    {
      "id": "22440004",
      "lat": 48.468005,
      "lon": -2.794054,
      "cp": "22440",
      "ville": "PLOUFRAGAN",
      "prix": {
        "Gazole": 0.002139,
        "SP98": 0.002269
      },
      "maj_gouv": {
        "Gazole": "2026-05-20 15:21:52",
        "SP98": "2026-04-30 14:20:43"
      }
    },
    {
      "id": "22100004",
      "lat": 48.47751486296401,
      "lon": -2.0429339388881997,
      "cp": "22100",
      "ville": "Taden",
      "prix": {
        "Gazole": 0.002089,
        "E85": 0.000798,
        "E10": 0.002049,
        "SP98": 0.0021230000000000003
      },
      "maj_gouv": {
        "Gazole": "2026-05-20 14:47:43",
        "E85": "2026-05-20 14:47:43",
        "E10": "2026-05-20 14:47:43",
        "SP98": "2026-05-20 14:47:43"
      }
    },
    {
      "id": "22400009",
      "lat": 48.481751064981,
      "lon": -2.4981010304171,
      "cp": "22400",
      "ville": "LAMBALLE ARMOR",
      "prix": {
        "Gazole": 0.002111,
        "E85": 0.000839,
        "E10": 0.00199,
        "SP98": 0.00199
      },
      "maj_gouv": {
        "Gazole": "2026-05-20 08:21:12",
        "E85": "2026-05-19 19:15:19",
        "E10": "2026-05-19 19:15:19",
        "SP98": "2026-05-19 19:15:20"
      }
    },
    {
      "id": "22420003",
      "lat": 48.609110234686,
      "lon": -3.4783272057,
      "cp": "22420",
      "ville": "PLOUARET",
      "prix": {
        "Gazole": 0.0021349999999999997,
        "E85": 0.00085,
        "E10": 0.002069
      },
      "maj_gouv": {
        "Gazole": "2026-05-19 07:27:16",
        "E85": "2026-05-19 07:27:16",
        "E10": "2026-05-19 07:27:16"
      }
    },
    {
      "id": "22500006",
      "lat": 48.769,
      "lon": -3.04,
      "cp": "22500",
      "ville": "Paimpol",
      "prix": {
        "Gazole": 0.002128,
        "E85": 0.0008990000000000001,
        "E10": 0.002069,
        "SP98": 0.002197
      },
      "maj_gouv": {
        "Gazole": "2026-05-18 14:26:52",
        "E85": "2026-05-18 14:26:52",
        "E10": "2026-05-18 14:26:52",
        "SP98": "2026-05-18 14:26:52"
      }
    },
    {
      "id": "22740001",
      "lat": 48.782765999999995,
      "lon": -3.1231790000000004,
      "cp": "22740",
      "ville": "Lezardrieux",
      "prix": {
        "Gazole": 0.002128
      },
      "maj_gouv": {
        "Gazole": "2026-05-18 14:26:12"
      }
    },
    {
      "id": "22302001",
      "lat": 48.719,
      "lon": -3.416,
      "cp": "22300",
      "ville": "LANNION",
      "prix": {
        "Gazole": 0.002129
      },
      "maj_gouv": {
        "Gazole": "2026-05-19 07:14:33"
      }
    },
    {
      "id": "22400001",
      "lat": 48.4672198707,
      "lon": -2.5215226986999997,
      "cp": "22400",
      "ville": "LAMBALLE",
      "prix": {
        "Gazole": 0.002069,
        "SP95": 0.002059,
        "E10": 0.001999,
        "SP98": 0.0021190000000000002
      },
      "maj_gouv": {
        "Gazole": "2026-05-20 11:56:01",
        "SP95": "2026-05-15 16:41:56",
        "E10": "2026-05-19 10:45:04",
        "SP98": "2026-05-15 16:41:56"
      }
    },
    {
      "id": "22100011",
      "lat": 48.460706633427,
      "lon": -2.0151670080546,
      "cp": "22100",
      "ville": "LANVALLAY",
      "prix": {
        "Gazole": 0.0022589999999999997,
        "E85": 0.000989,
        "GPLc": 0.001059,
        "E10": 0.002059,
        "SP98": 0.002129
      },
      "maj_gouv": {
        "Gazole": "2026-05-05 18:19:31",
        "E85": "2026-05-05 18:19:31",
        "GPLc": "2026-05-05 18:19:31",
        "E10": "2026-05-05 18:19:32",
        "SP98": "2026-05-05 18:19:32"
      }
    },
    {
      "id": "22290003",
      "lat": 48.61370743769999,
      "lon": -2.9640298312400004,
      "cp": "22290",
      "ville": "TRESSIGNAUX",
      "prix": {
        "Gazole": 0.00228,
        "SP95": 0.00214,
        "SP98": 0.0022
      },
      "maj_gouv": {
        "Gazole": "2026-05-06 19:00:00",
        "SP95": "2026-05-06 19:00:00",
        "SP98": "2026-05-06 19:00:00"
      }
    },
    {
      "id": "22150004",
      "lat": 48.281,
      "lon": -2.702,
      "cp": "22150",
      "ville": "Plouguenast",
      "prix": {
        "Gazole": 0.002209,
        "SP95": 0.002079,
        "SP98": 0.002099
      },
      "maj_gouv": {
        "Gazole": "2026-05-04 11:43:57",
        "SP95": "2026-05-12 08:51:18",
        "SP98": "2026-04-01 10:08:51"
      }
    },
    {
      "id": "22140003",
      "lat": 48.641428602430004,
      "lon": -3.1893220909409,
      "cp": "22140",
      "ville": "Landebaëron",
      "prix": {
        "Gazole": 0.002191,
        "SP95": 0.00199
      },
      "maj_gouv": {
        "Gazole": "2026-05-20 07:05:49",
        "SP95": "2026-05-20 07:05:49"
      }
    },
    {
      "id": "22100007",
      "lat": 48.453,
      "lon": -2.02,
      "cp": "22100",
      "ville": "LANVALLAY",
      "prix": {
        "Gazole": 0.0020800000000000003,
        "SP95": 0.002099,
        "SP98": 0.002139
      },
      "maj_gouv": {
        "Gazole": "2026-05-16 09:35:03",
        "SP95": "2026-05-06 08:43:29",
        "SP98": "2026-05-18 09:02:17"
      }
    },
    {
      "id": "22410001",
      "lat": 48.65863007208,
      "lon": -2.8583947609237,
      "cp": "22410",
      "ville": "SAINT-QUAY-PORTRIEUX",
      "prix": {
        "Gazole": 0.0021219999999999998,
        "E10": 0.002055,
        "SP98": 0.002169
      },
      "maj_gouv": {
        "Gazole": "2026-05-20 10:24:19",
        "E10": "2026-05-20 10:24:19",
        "SP98": "2026-05-20 10:24:19"
      }
    },
    {
      "id": "22730001",
      "lat": 48.824,
      "lon": -3.498,
      "cp": "22730",
      "ville": "TRéGASTEL",
      "prix": {
        "Gazole": 0.0021190000000000002,
        "SP95": 0.002109,
        "E85": 0.00091,
        "SP98": 0.002149
      },
      "maj_gouv": {
        "Gazole": "2026-05-20 09:57:54",
        "SP95": "2026-05-19 09:47:43",
        "E85": "2026-04-10 08:56:48",
        "SP98": "2026-05-19 09:47:43"
      }
    },
    {
      "id": "22360001",
      "lat": 48.496,
      "lon": -2.728,
      "cp": "22360",
      "ville": "LANGUEUX",
      "prix": {
        "Gazole": 0.0021219999999999998,
        "SP95": 0.0020800000000000003,
        "E85": 0.00085,
        "E10": 0.002059,
        "SP98": 0.00219
      },
      "maj_gouv": {
        "Gazole": "2026-05-19 17:08:19",
        "SP95": "2026-05-18 17:27:31",
        "E85": "2026-05-18 17:27:31",
        "E10": "2026-05-19 17:08:19",
        "SP98": "2026-05-19 17:08:20"
      }
    },
    {
      "id": "22000013",
      "lat": 48.497799787809996,
      "lon": -2.7453052884397997,
      "cp": "22000",
      "ville": "Saint-Brieuc",
      "prix": {
        "Gazole": 0.002159,
        "E10": 0.00199
      },
      "maj_gouv": {
        "Gazole": "2026-05-20 18:59:35",
        "E10": "2026-05-20 18:59:35"
      }
    },
    {
      "id": "22120007",
      "lat": 48.5145374,
      "lon": -2.6666760186126,
      "cp": "22120",
      "ville": "HILLION",
      "prix": {
        "Gazole": 0.0023090000000000003,
        "E85": 0.000975,
        "GPLc": 0.001089,
        "E10": 0.002169,
        "SP98": 0.002299
      },
      "maj_gouv": {
        "Gazole": "2026-05-15 07:00:00",
        "E85": "2026-05-15 07:00:00",
        "GPLc": "2026-05-15 07:00:00",
        "E10": "2026-05-15 07:00:00",
        "SP98": "2026-05-15 07:00:00"
      }
    },
    {
      "id": "22700004",
      "lat": 48.805195322655,
      "lon": -3.4597700543750003,
      "cp": "22700",
      "ville": "Perros-Guirec",
      "prix": {
        "Gazole": 0.002099,
        "E85": 0.000819,
        "E10": 0.002079,
        "SP98": 0.002129
      },
      "maj_gouv": {
        "Gazole": "2026-05-18 08:32:53",
        "E85": "2026-04-15 09:49:03",
        "E10": "2026-05-19 16:16:52",
        "SP98": "2026-05-19 16:16:53"
      }
    },
    {
      "id": "22400004",
      "lat": 48.462,
      "lon": -2.515,
      "cp": "22400",
      "ville": "LAMBALLE ARMOR",
      "prix": {
        "Gazole": 0.002081,
        "GPLc": 0.001109,
        "E10": 0.0020299999999999997,
        "SP98": 0.0021019999999999997
      },
      "maj_gouv": {
        "Gazole": "2026-05-20 08:54:25",
        "GPLc": "2026-04-28 10:37:59",
        "E10": "2026-05-20 08:54:25",
        "SP98": "2026-05-20 08:54:25"
      }
    },
    {
      "id": "22290002",
      "lat": 48.705,
      "lon": -3.022,
      "cp": "22290",
      "ville": "PLéHéDEL",
      "prix": {
        "Gazole": 0.00209,
        "GPLc": 0.00107,
        "E10": 0.00199,
        "SP98": 0.00199
      },
      "maj_gouv": {
        "Gazole": "2026-05-15 09:06:31",
        "GPLc": "2026-05-15 09:06:32",
        "E10": "2026-05-15 09:06:32",
        "SP98": "2026-05-15 09:06:32"
      }
    },
    {
      "id": "22110002",
      "lat": 48.242216194891,
      "lon": -3.296166474018,
      "cp": "22110",
      "ville": "Plouguernevel",
      "prix": {
        "Gazole": 0.002089,
        "E10": 0.002055,
        "SP98": 0.0021349999999999997
      },
      "maj_gouv": {
        "Gazole": "2026-05-20 10:09:55",
        "E10": "2026-05-20 10:09:55",
        "SP98": "2026-05-20 10:09:56"
      }
    },
    {
      "id": "22200003",
      "lat": 48.5625605107,
      "lon": -3.16559732183,
      "cp": "22200",
      "ville": "Guingamp",
      "prix": {
        "Gazole": 0.002084,
        "SP95": 0.002059,
        "GPLc": 0.001019,
        "E10": 0.002028,
        "SP98": 0.0021349999999999997
      },
      "maj_gouv": {
        "Gazole": "2026-05-20 11:13:23",
        "SP95": "2026-05-20 11:13:23",
        "GPLc": "2026-05-20 11:13:23",
        "E10": "2026-05-20 11:13:23",
        "SP98": "2026-05-20 11:13:23"
      }
    }
  ]
}