{
  "departement": "74",
  "date": "2026-05-31",
  "stations": [
    {
      "id": "74250003",
      "lat": 46.163834319677,
      "lon": 6.3494833495813,
      "cp": "74250",
      "ville": "Fillinges",
      "prix": {
        "Gazole": 0.0022589999999999997,
        "SP95": 0.002229,
        "SP98": 0.002299
      },
      "maj_gouv": {
        "Gazole": "2026-05-17 20:15:15",
        "SP95": "2026-05-17 20:15:15",
        "SP98": "2026-05-29 12:56:51"
      }
    },
    {
      "id": "74330002",
      "lat": 45.941,
      "lon": 6.088,
      "cp": "74330",
      "ville": "ÉPAGNY",
      "prix": {
        "Gazole": 0.00225,
        "SP95": 0.00199,
        "SP98": 0.00197
      },
      "maj_gouv": {
        "Gazole": "2026-05-06 10:05:17",
        "SP95": "2026-05-06 10:05:17",
        "SP98": "2026-04-20 05:14:33"
      }
    },
    {
      "id": "74210003",
      "lat": 45.75333,
      "lon": 6.27791,
      "cp": "74210",
      "ville": "FAVERGES",
      "prix": {
        "Gazole": 0.002159,
        "SP95": 0.002109,
        "E10": 0.002069
      },
      "maj_gouv": {
        "Gazole": "2026-05-20 09:45:00",
        "SP95": "2026-05-20 09:45:00",
        "E10": "2026-05-20 09:45:00"
      }
    },
    {
      "id": "74350006",
      "lat": 46.014,
      "lon": 6.111,
      "cp": "74350",
      "ville": "CRUSEILLES",
      "prix": {
        "Gazole": 0.002159,
        "E85": 0.000879,
        "E10": 0.002149,
        "SP98": 0.002199
      },
      "maj_gouv": {
        "Gazole": "2026-05-29 07:06:01",
        "E85": "2026-05-29 07:06:01",
        "E10": "2026-05-29 07:06:01",
        "SP98": "2026-05-29 07:06:01"
      }
    },
    {
      "id": "74000004",
      "lat": 45.917,
      "lon": 6.128,
      "cp": "74000",
      "ville": "Annecy",
      "prix": {
        "Gazole": 0.001998,
        "E85": 0.000979,
        "E10": 0.001999,
        "SP98": 0.002079
      },
      "maj_gouv": {
        "Gazole": "2026-05-30 07:46:00",
        "E85": "2026-05-30 07:45:00",
        "E10": "2026-05-30 07:45:00",
        "SP98": "2026-05-30 07:45:00"
      }
    },
    {
      "id": "74960003",
      "lat": 45.906,
      "lon": 6.113,
      "cp": "74960",
      "ville": "Cran-Gevrier",
      "prix": {
        "Gazole": 0.00209,
        "E10": 0.002009,
        "SP98": 0.002055
      },
      "maj_gouv": {
        "Gazole": "2026-05-30 07:45:00",
        "E10": "2026-05-30 07:45:00",
        "SP98": "2026-05-30 07:45:00"
      }
    },
    {
      "id": "74800001",
      "lat": 46.06989,
      "lon": 6.30528,
      "cp": "74800",
      "ville": "LA ROCHE-SUR-FORON",
      "prix": {
        "Gazole": 0.00221,
        "SP95": 0.00199
      },
      "maj_gouv": {
        "Gazole": "2026-05-26 07:55:48",
        "SP95": "2026-04-08 12:26:41"
      }
    },
    {
      "id": "74700005",
      "lat": 45.944823296706,
      "lon": 6.6301218220889995,
      "cp": "74700",
      "ville": "SALLANCHES",
      "prix": {
        "Gazole": 0.00209,
        "E85": 0.000909,
        "GPLc": 0.001045
      },
      "maj_gouv": {
        "Gazole": "2026-05-31 00:01:00",
        "E85": "2026-05-31 00:01:00",
        "GPLc": "2026-05-31 00:01:00"
      }
    },
    {
      "id": "74440004",
      "lat": 46.091315,
      "lon": 6.673367,
      "cp": "74440",
      "ville": "VERCHAIX",
      "prix": {
        "Gazole": 0.00209,
        "SP95": 0.00198
      },
      "maj_gouv": {
        "Gazole": "2026-05-30 06:59:30",
        "SP95": "2026-05-30 06:59:30"
      }
    },
    {
      "id": "74000007",
      "lat": 45.895,
      "lon": 6.12,
      "cp": "74000",
      "ville": "ANNECY",
      "prix": {
        "Gazole": 0.002029,
        "E10": 0.001999,
        "SP98": 0.002139
      },
      "maj_gouv": {
        "Gazole": "2026-05-29 17:29:55",
        "E10": "2026-05-29 17:29:55",
        "SP98": "2026-05-29 17:29:55"
      }
    },
    {
      "id": "74210002",
      "lat": 45.776,
      "lon": 6.222,
      "cp": "74210",
      "ville": "DOUSSARD",
      "prix": {
        "Gazole": 0.002162,
        "SP95": 0.002185,
        "SP98": 0.002235
      },
      "maj_gouv": {
        "Gazole": "2026-05-29 08:07:22",
        "SP95": "2026-05-29 08:07:22",
        "SP98": "2026-05-29 08:07:22"
      }
    },
    {
      "id": "74100013",
      "lat": 46.182,
      "lon": 6.238,
      "cp": "74100",
      "ville": "ANNEMASSE",
      "prix": {
        "Gazole": 0.002085,
        "E10": 0.002039,
        "SP98": 0.002175
      },
      "maj_gouv": {
        "Gazole": "2026-05-28 08:04:51",
        "E10": "2026-05-28 08:04:52",
        "SP98": "2026-05-28 08:04:52"
      }
    },
    {
      "id": "74300004",
      "lat": 46.08617,
      "lon": 6.52416,
      "cp": "74300",
      "ville": "Thyez",
      "prix": {
        "Gazole": 0.002079,
        "SP95": 0.002109,
        "E10": 0.002099
      },
      "maj_gouv": {
        "Gazole": "2026-05-28 10:24:28",
        "SP95": "2026-05-22 08:29:36",
        "E10": "2026-05-22 08:29:37"
      }
    },
    {
      "id": "74130006",
      "lat": 46.084,
      "lon": 6.404,
      "cp": "74130",
      "ville": "BONNEVILLE",
      "prix": {
        "Gazole": 0.002069,
        "E85": 0.000798,
        "E10": 0.002049,
        "SP98": 0.002149
      },
      "maj_gouv": {
        "Gazole": "2026-05-28 15:22:00",
        "E85": "2026-05-28 15:22:01",
        "E10": "2026-05-28 15:22:01",
        "SP98": "2026-05-28 15:22:01"
      }
    },
    {
      "id": "74300009",
      "lat": 46.015007149999995,
      "lon": 6.62468959,
      "cp": "74300",
      "ville": "Magland",
      "prix": {
        "Gazole": 0.001999,
        "E85": 0.000759,
        "E10": 0.001999,
        "SP98": 0.002079
      },
      "maj_gouv": {
        "Gazole": "2026-05-29 09:22:34",
        "E85": "2026-05-29 09:16:34",
        "E10": "2026-05-29 09:16:34",
        "SP98": "2026-05-29 09:16:34"
      }
    },
    {
      "id": "74100011",
      "lat": 46.195,
      "lon": 6.261,
      "cp": "74100",
      "ville": "ANNEMASSE",
      "prix": {
        "Gazole": 0.00209,
        "E85": 0.000889,
        "E10": 0.00199,
        "SP98": 0.00199
      },
      "maj_gouv": {
        "Gazole": "2026-05-31 00:01:00",
        "E85": "2026-05-31 00:01:00",
        "E10": "2026-05-31 00:01:00",
        "SP98": "2026-05-31 00:01:00"
      }
    },
    {
      "id": "74370003",
      "lat": 45.963,
      "lon": 6.131,
      "cp": "74370",
      "ville": "SAINT-MARTIN-BELLEVUE",
      "prix": {
        "Gazole": 0.002074,
        "E10": 0.001999,
        "SP98": 0.002155
      },
      "maj_gouv": {
        "Gazole": "2026-05-29 11:53:22",
        "E10": "2026-05-29 11:53:23",
        "SP98": "2026-05-29 11:53:23"
      }
    },
    {
      "id": "74340001",
      "lat": 46.08524803,
      "lon": 6.7053419299999995,
      "cp": "74340",
      "ville": "SAMOENS",
      "prix": {
        "Gazole": 0.002099,
        "SP95": 0.0021190000000000002
      },
      "maj_gouv": {
        "Gazole": "2026-05-29 08:46:42",
        "SP95": "2026-05-29 08:46:42"
      }
    },
    {
      "id": "74500005",
      "lat": 46.405,
      "lon": 6.651,
      "cp": "74500",
      "ville": "Lugrin",
      "prix": {
        "Gazole": 0.002019,
        "E85": 0.000798,
        "E10": 0.0019790000000000003,
        "SP98": 0.002129
      },
      "maj_gouv": {
        "Gazole": "2026-05-29 17:32:51",
        "E85": "2026-05-19 09:04:50",
        "E10": "2026-05-29 17:32:51",
        "SP98": "2026-05-29 17:32:51"
      }
    },
    {
      "id": "74140006",
      "lat": 46.2702266,
      "lon": 6.2570071,
      "cp": "74140",
      "ville": "VEIGY-FONCENEX",
      "prix": {
        "Gazole": 0.002099,
        "SP95": 0.002059,
        "SP98": 0.002109
      },
      "maj_gouv": {
        "Gazole": "2026-05-29 00:01:00",
        "SP95": "2026-05-29 00:01:00",
        "SP98": "2026-05-29 00:01:00"
      }
    },
    {
      "id": "74310002",
      "lat": 45.896029000000006,
      "lon": 6.809573,
      "cp": "74310",
      "ville": "Les Houches",
      "prix": {
        "Gazole": 0.0021190000000000002,
        "E10": 0.002069,
        "SP98": 0.002189
      },
      "maj_gouv": {
        "Gazole": "2026-05-29 06:34:00",
        "E10": "2026-05-29 06:34:00",
        "SP98": "2026-05-29 06:34:00"
      }
    },
    {
      "id": "74200019",
      "lat": 46.343,
      "lon": 6.477,
      "cp": "74200",
      "ville": "ALLINGES",
      "prix": {
        "Gazole": 0.002169,
        "E10": 0.002149,
        "SP98": 0.002249
      },
      "maj_gouv": {
        "Gazole": "2026-05-25 12:28:47",
        "E10": "2026-05-15 11:04:49",
        "SP98": "2026-05-15 11:04:49"
      }
    },
    {
      "id": "74440001",
      "lat": 46.109,
      "lon": 6.582,
      "cp": "74440",
      "ville": "TANINGES",
      "prix": {
        "Gazole": 0.002029,
        "E10": 0.002049,
        "SP98": 0.0021190000000000002
      },
      "maj_gouv": {
        "Gazole": "2026-05-28 18:23:22",
        "E10": "2026-05-28 18:23:22",
        "SP98": "2026-05-28 18:23:22"
      }
    },
    {
      "id": "74100007",
      "lat": 46.205,
      "lon": 6.24,
      "cp": "74100",
      "ville": "Ville-la-Grand",
      "prix": {
        "Gazole": 0.002055,
        "SP95": 0.002023,
        "E10": 0.002007
      },
      "maj_gouv": {
        "Gazole": "2026-05-31 01:15:00",
        "SP95": "2026-05-31 01:15:00",
        "E10": "2026-05-31 01:15:00"
      }
    },
    {
      "id": "74320006",
      "lat": 45.861,
      "lon": 6.141,
      "cp": "74320",
      "ville": "Sevrier",
      "prix": {
        "Gazole": 0.002159,
        "SP95": 0.002149,
        "E85": 0.000949,
        "SP98": 0.002199
      },
      "maj_gouv": {
        "Gazole": "2026-05-29 07:03:52",
        "SP95": "2026-05-29 07:03:53",
        "E85": "2026-05-20 07:01:03",
        "SP98": "2026-05-29 07:03:53"
      }
    },
    {
      "id": "74910003",
      "lat": 45.96065,
      "lon": 5.83663,
      "cp": "74910",
      "ville": "Seyssel",
      "prix": {
        "Gazole": 0.002149,
        "SP95": 0.002109,
        "SP98": 0.002169
      },
      "maj_gouv": {
        "Gazole": "2026-05-29 07:32:08",
        "SP95": "2026-05-29 07:32:08",
        "SP98": "2026-05-29 07:32:08"
      }
    },
    {
      "id": "74200006",
      "lat": 46.38,
      "lon": 6.491,
      "cp": "74200",
      "ville": "Thonon-les-Bains",
      "prix": {
        "Gazole": 0.002024,
        "E10": 0.001951,
        "SP98": 0.002114
      },
      "maj_gouv": {
        "Gazole": "2026-05-30 06:31:00",
        "E10": "2026-05-30 06:31:00",
        "SP98": "2026-05-30 06:31:00"
      }
    },
    {
      "id": "74600016",
      "lat": 45.876694727882,
      "lon": 6.0701051992966,
      "cp": "74600",
      "ville": "Seynod",
      "prix": {
        "Gazole": 0.002269,
        "GPLc": 0.00116,
        "E10": 0.002219,
        "SP98": 0.002299
      },
      "maj_gouv": {
        "Gazole": "2026-05-28 06:00:00",
        "GPLc": "2026-05-28 06:00:00",
        "E10": "2026-05-28 06:00:00",
        "SP98": "2026-05-28 06:00:00"
      }
    },
    {
      "id": "74520009",
      "lat": 46.097407000000004,
      "lon": 5.964123000000001,
      "cp": "74520",
      "ville": "VALLEIRY",
      "prix": {
        "Gazole": 0.00209,
        "E85": 0.000998,
        "GPLc": 0.001138,
        "E10": 0.00199,
        "SP98": 0.00199
      },
      "maj_gouv": {
        "Gazole": "2026-05-31 00:01:00",
        "E85": "2026-05-31 00:01:00",
        "GPLc": "2026-05-31 00:01:00",
        "E10": "2026-05-31 00:01:00",
        "SP98": "2026-05-31 00:01:00"
      }
    },
    {
      "id": "74700001",
      "lat": 45.953,
      "lon": 6.629,
      "cp": "74700",
      "ville": "SALLANCHES",
      "prix": {
        "Gazole": 0.0020099999999999996,
        "SP95": 0.0020510000000000003,
        "E10": 0.00199,
        "SP98": 0.0021349999999999997
      },
      "maj_gouv": {
        "Gazole": "2026-05-29 00:41:00",
        "SP95": "2026-05-29 00:41:00",
        "E10": "2026-05-29 00:41:00",
        "SP98": "2026-05-29 00:41:00"
      }
    },
    {
      "id": "74360004",
      "lat": 46.282,
      "lon": 6.723,
      "cp": "74360",
      "ville": "Abondance",
      "prix": {
        "Gazole": 0.0024089999999999997,
        "SP95": 0.002219,
        "SP98": 0.002249
      },
      "maj_gouv": {
        "Gazole": "2026-04-02 16:13:39",
        "SP95": "2026-04-02 16:13:39",
        "SP98": "2026-04-02 16:13:39"
      }
    },
    {
      "id": "74350005",
      "lat": 46.006,
      "lon": 6.12,
      "cp": "74350",
      "ville": "ALLONZIER LA CAILLE",
      "prix": {
        "Gazole": 0.002189,
        "E85": 0.000879,
        "E10": 0.002149,
        "SP98": 0.0022589999999999997
      },
      "maj_gouv": {
        "Gazole": "2026-05-29 11:36:41",
        "E85": "2026-05-02 09:43:04",
        "E10": "2026-05-29 11:37:03",
        "SP98": "2026-05-29 11:37:03"
      }
    },
    {
      "id": "74800004",
      "lat": 46.07162,
      "lon": 6.32623,
      "cp": "74800",
      "ville": "Amancy",
      "prix": {
        "Gazole": 0.002099,
        "E85": 0.000798,
        "E10": 0.002069,
        "SP98": 0.002179
      },
      "maj_gouv": {
        "Gazole": "2026-05-28 07:00:29",
        "E85": "2026-05-15 10:06:41",
        "E10": "2026-05-28 07:00:29",
        "SP98": "2026-05-28 07:00:29"
      }
    },
    {
      "id": "74140004",
      "lat": 46.331158208299996,
      "lon": 6.37275576533,
      "cp": "74140",
      "ville": "SCIEZ",
      "prix": {
        "Gazole": 0.0021869999999999997,
        "SP95": 0.002179,
        "SP98": 0.002199
      },
      "maj_gouv": {
        "Gazole": "2026-05-23 09:37:36",
        "SP95": "2026-05-23 09:37:36",
        "SP98": "2026-05-19 09:52:26"
      }
    },
    {
      "id": "74310003",
      "lat": 45.89846,
      "lon": 6.81174,
      "cp": "74310",
      "ville": "LES HOUCHES",
      "prix": {
        "Gazole": 0.00209,
        "E85": 0.000945,
        "GPLc": 0.001065
      },
      "maj_gouv": {
        "Gazole": "2026-05-31 00:01:00",
        "E85": "2026-05-31 00:01:00",
        "GPLc": "2026-05-31 00:01:00"
      }
    },
    {
      "id": "74350003",
      "lat": 46.009,
      "lon": 6.114,
      "cp": "74350",
      "ville": "ALLONZIER-LA-CAILLE",
      "prix": {
        "Gazole": 0.002249,
        "SP95": 0.002249,
        "SP98": 0.0023490000000000004
      },
      "maj_gouv": {
        "Gazole": "2026-05-21 06:00:00",
        "SP95": "2026-05-21 06:00:00",
        "SP98": "2026-05-21 06:00:00"
      }
    },
    {
      "id": "74600013",
      "lat": 45.877,
      "lon": 6.073,
      "cp": "74600",
      "ville": "SEYNOD",
      "prix": {
        "Gazole": 0.00209,
        "E85": 0.000998,
        "GPLc": 0.001138,
        "E10": 0.00199,
        "SP98": 0.00199
      },
      "maj_gouv": {
        "Gazole": "2026-05-31 00:01:00",
        "E85": "2026-05-31 00:01:00",
        "GPLc": "2026-05-31 00:01:00",
        "E10": "2026-05-31 00:01:00",
        "SP98": "2026-05-31 00:01:00"
      }
    },
    {
      "id": "74200020",
      "lat": 46.358924572548,
      "lon": 6.4527592980999,
      "cp": "74200",
      "ville": "Thonon-les-Bains",
      "prix": {
        "Gazole": 0.002129,
        "E85": 0.0008990000000000001,
        "E10": 0.002099,
        "SP98": 0.002199
      },
      "maj_gouv": {
        "Gazole": "2026-05-30 21:00:00",
        "E85": "2026-05-30 21:00:00",
        "E10": "2026-05-30 21:00:00",
        "SP98": "2026-05-30 21:00:00"
      }
    },
    {
      "id": "74440002",
      "lat": 46.102,
      "lon": 6.59,
      "cp": "74440",
      "ville": "TANINGES",
      "prix": {
        "Gazole": 0.002249,
        "SP95": 0.002199,
        "SP98": 0.002249
      },
      "maj_gouv": {
        "Gazole": "2026-05-21 17:58:02",
        "SP95": "2026-04-24 10:45:16",
        "SP98": "2026-04-24 10:45:16"
      }
    },
    {
      "id": "74380001",
      "lat": 46.172,
      "lon": 6.312,
      "cp": "74380",
      "ville": "BONNE",
      "prix": {
        "Gazole": 0.002088,
        "SP95": 0.0021379999999999997,
        "E85": 0.000778,
        "GPLc": 0.001089,
        "E10": 0.002078,
        "SP98": 0.002199
      },
      "maj_gouv": {
        "Gazole": "2026-05-28 13:56:38",
        "SP95": "2026-05-29 12:11:44",
        "E85": "2026-05-22 11:21:30",
        "GPLc": "2026-04-21 07:22:12",
        "E10": "2026-05-29 12:11:44",
        "SP98": "2026-05-28 13:56:39"
      }
    },
    {
      "id": "74520012",
      "lat": 46.096359523288996,
      "lon": 5.9641798471,
      "cp": "74520",
      "ville": "Valleiry",
      "prix": {
        "Gazole": 0.002269,
        "GPLc": 0.00116,
        "E10": 0.002219,
        "SP98": 0.002299
      },
      "maj_gouv": {
        "Gazole": "2026-05-28 11:29:57",
        "GPLc": "2026-05-28 11:29:57",
        "E10": "2026-05-28 11:29:57",
        "SP98": "2026-05-28 11:29:57"
      }
    },
    {
      "id": "74890001",
      "lat": 46.264,
      "lon": 6.37,
      "cp": "74890",
      "ville": "BONS-EN-CHABLAIS",
      "prix": {},
      "maj_gouv": {}
    },
    {
      "id": "74800005",
      "lat": 46.07,
      "lon": 6.32,
      "cp": "74800",
      "ville": "AMANCY",
      "prix": {
        "Gazole": 0.002137,
        "SP95": 0.002115,
        "SP98": 0.0021190000000000002
      },
      "maj_gouv": {
        "Gazole": "2026-05-27 11:45:54",
        "SP95": "2026-05-27 11:45:54",
        "SP98": "2026-05-27 11:45:54"
      }
    },
    {
      "id": "74230007",
      "lat": 45.886,
      "lon": 6.329,
      "cp": "74230",
      "ville": "Thônes",
      "prix": {
        "Gazole": 0.002146,
        "E10": 0.002045,
        "SP98": 0.0021880000000000003
      },
      "maj_gouv": {
        "Gazole": "2026-05-29 11:54:55",
        "E10": "2026-05-29 11:54:55",
        "SP98": "2026-05-29 11:54:55"
      }
    },
    {
      "id": "74100014",
      "lat": 46.194436831591,
      "lon": 6.2551470417725,
      "cp": "74100",
      "ville": "Annemasse",
      "prix": {
        "Gazole": 0.0021190000000000002,
        "E10": 0.0020150000000000003,
        "SP98": 0.002175
      },
      "maj_gouv": {
        "Gazole": "2026-05-28 12:14:50",
        "E10": "2026-05-29 11:06:50",
        "SP98": "2026-05-29 11:06:50"
      }
    },
    {
      "id": "74550001",
      "lat": 46.304,
      "lon": 6.437,
      "cp": "74550",
      "ville": "PERRIGNIER",
      "prix": {
        "Gazole": 0.00209
      },
      "maj_gouv": {
        "Gazole": "2026-05-29 22:46:10"
      }
    },
    {
      "id": "74160001",
      "lat": 46.139,
      "lon": 6.07,
      "cp": "74160",
      "ville": "SAINT-JULIEN-EN-GENEVOIS",
      "prix": {
        "Gazole": 0.002055,
        "E85": 0.000798,
        "E10": 0.0019850000000000002,
        "SP98": 0.002149
      },
      "maj_gouv": {
        "Gazole": "2026-05-29 16:48:38",
        "E85": "2026-05-19 16:49:57",
        "E10": "2026-05-29 16:48:38",
        "SP98": "2026-05-29 16:48:38"
      }
    },
    {
      "id": "74140005",
      "lat": 46.299,
      "lon": 6.306,
      "cp": "74140",
      "ville": "DOUVAINE",
      "prix": {
        "Gazole": 0.002009,
        "E85": 0.000798,
        "E10": 0.001999,
        "SP98": 0.002069
      },
      "maj_gouv": {
        "Gazole": "2026-05-29 12:49:34",
        "E85": "2026-05-21 15:50:23",
        "E10": "2026-05-30 08:06:29",
        "SP98": "2026-05-30 08:06:29"
      }
    },
    {
      "id": "74000021",
      "lat": 45.898,
      "lon": 6.117,
      "cp": "74000",
      "ville": "ANNECY",
      "prix": {
        "E85": 0.000949,
        "E10": 0.002149,
        "SP98": 0.002249
      },
      "maj_gouv": {
        "E85": "2026-05-30 20:00:00",
        "E10": "2026-05-30 20:00:00",
        "SP98": "2026-05-30 20:00:00"
      }
    },
    {
      "id": "74330004",
      "lat": 45.974,
      "lon": 6.033,
      "cp": "74330",
      "ville": "La Balme-de-Sillingy",
      "prix": {
        "Gazole": 0.002078,
        "SP95": 0.002099,
        "E85": 0.000798,
        "E10": 0.0020870000000000003
      },
      "maj_gouv": {
        "Gazole": "2026-05-31 01:15:00",
        "SP95": "2026-05-31 01:15:00",
        "E85": "2026-05-31 01:15:00",
        "E10": "2026-05-31 01:15:00"
      }
    },
    {
      "id": "74200002",
      "lat": 46.35892,
      "lon": 6.45909,
      "cp": "74200",
      "ville": "THONON-LES-BAINS",
      "prix": {
        "Gazole": 0.002125,
        "SP95": 0.00211,
        "SP98": 0.002199
      },
      "maj_gouv": {
        "Gazole": "2026-05-22 09:12:20",
        "SP95": "2026-05-22 09:12:20",
        "SP98": "2026-05-22 09:12:20"
      }
    },
    {
      "id": "74210001",
      "lat": 45.749,
      "lon": 6.289,
      "cp": "74210",
      "ville": "FAVERGES",
      "prix": {
        "Gazole": 0.002191,
        "E10": 0.002074,
        "SP98": 0.0021739999999999997
      },
      "maj_gouv": {
        "Gazole": "2026-05-27 10:41:11",
        "E10": "2026-05-26 09:29:51",
        "SP98": "2026-05-26 09:29:52"
      }
    },
    {
      "id": "74540002",
      "lat": 45.802,
      "lon": 5.974,
      "cp": "74540",
      "ville": "Saint-Félix",
      "prix": {
        "Gazole": 0.002149,
        "SP95": 0.0019890000000000003
      },
      "maj_gouv": {
        "Gazole": "2026-05-29 06:59:48",
        "SP95": "2026-05-21 17:09:10"
      }
    },
    {
      "id": "74330003",
      "lat": 45.949,
      "lon": 6.046,
      "cp": "74330",
      "ville": "SILLINGY",
      "prix": {
        "Gazole": 0.002099,
        "E10": 0.002049
      },
      "maj_gouv": {
        "Gazole": "2026-05-28 23:55:00",
        "E10": "2026-05-28 23:55:00"
      }
    },
    {
      "id": "74270001",
      "lat": 46.018,
      "lon": 5.924,
      "cp": "74270",
      "ville": "FRANGY",
      "prix": {
        "Gazole": 0.001999,
        "SP95": 0.001999,
        "SP98": 0.00209
      },
      "maj_gouv": {
        "Gazole": "2026-05-27 11:07:26",
        "SP95": "2026-05-27 11:07:26",
        "SP98": "2026-05-27 11:07:26"
      }
    },
    {
      "id": "74130016",
      "lat": 46.004,
      "lon": 6.397,
      "cp": "74130",
      "ville": "GLIERES VAL DE BORNE",
      "prix": {
        "Gazole": 0.002095,
        "E10": 0.002149,
        "SP98": 0.002222
      },
      "maj_gouv": {
        "Gazole": "2026-05-29 22:45:00",
        "E10": "2026-05-22 22:45:00",
        "SP98": "2026-05-29 22:45:00"
      }
    },
    {
      "id": "74000002",
      "lat": 45.919,
      "lon": 6.124,
      "cp": "74000",
      "ville": "ANNECY",
      "prix": {
        "Gazole": 0.002012,
        "SP95": 0.002059,
        "E85": 0.000815,
        "E10": 0.0019890000000000003,
        "SP98": 0.002099
      },
      "maj_gouv": {
        "Gazole": "2026-05-30 00:42:00",
        "SP95": "2026-05-30 00:42:00",
        "E85": "2026-05-30 00:42:00",
        "E10": "2026-05-30 00:42:00",
        "SP98": "2026-05-30 00:42:00"
      }
    },
    {
      "id": "74290002",
      "lat": 45.866,
      "lon": 6.188,
      "cp": "74290",
      "ville": "Menthon-Saint-Bernard",
      "prix": {
        "Gazole": 0.00217
      },
      "maj_gouv": {
        "Gazole": "2026-05-28 08:16:22"
      }
    },
    {
      "id": "74200021",
      "lat": 46.372362022523006,
      "lon": 6.4856772254481,
      "cp": "74200",
      "ville": "Thonon-les-Bains",
      "prix": {
        "Gazole": 0.002235,
        "E85": 0.00088,
        "E10": 0.002112,
        "SP98": 0.002235
      },
      "maj_gouv": {
        "Gazole": "2026-05-20 13:31:44",
        "E85": "2026-05-20 13:31:44",
        "E10": "2026-05-20 13:31:44",
        "SP98": "2026-05-20 13:31:45"
      }
    },
    {
      "id": "74950002",
      "lat": 46.065965328276,
      "lon": 6.550353079824601,
      "cp": "74950",
      "ville": "SCIONZIER",
      "prix": {
        "Gazole": 0.002089,
        "E10": 0.00206,
        "SP98": 0.002169
      },
      "maj_gouv": {
        "Gazole": "2026-05-28 16:36:12",
        "E10": "2026-05-28 16:36:12",
        "SP98": "2026-05-28 16:36:12"
      }
    },
    {
      "id": "74360002",
      "lat": 46.28,
      "lon": 6.819,
      "cp": "74360",
      "ville": "La Chapelle-d'Abondance",
      "prix": {
        "Gazole": 0.002079,
        "SP95": 0.002069,
        "E10": 0.0020350000000000004
      },
      "maj_gouv": {
        "Gazole": "2026-05-29 08:35:41",
        "SP95": "2026-05-29 08:35:41",
        "E10": "2026-05-29 08:35:41"
      }
    },
    {
      "id": "74140002",
      "lat": 46.310414189,
      "lon": 6.313017855869999,
      "cp": "74140",
      "ville": "DOUVAINE",
      "prix": {
        "Gazole": 0.0021190000000000002,
        "SP95": 0.002109,
        "SP98": 0.002159
      },
      "maj_gouv": {
        "Gazole": "2026-05-29 10:28:45",
        "SP95": "2026-05-29 10:28:45",
        "SP98": "2026-05-29 10:28:45"
      }
    },
    {
      "id": "74200018",
      "lat": 46.361,
      "lon": 6.456,
      "cp": "74200",
      "ville": "THONON LES BAINS",
      "prix": {
        "Gazole": 0.00209,
        "E85": 0.0008489999999999999,
        "E10": 0.00199,
        "SP98": 0.00199
      },
      "maj_gouv": {
        "Gazole": "2026-05-31 00:01:00",
        "E85": "2026-05-31 00:01:00",
        "E10": "2026-05-31 00:01:00",
        "SP98": "2026-05-31 00:01:00"
      }
    },
    {
      "id": "74100008",
      "lat": 46.184,
      "lon": 6.276,
      "cp": "74100",
      "ville": "VETRAZ-MONTHOUX",
      "prix": {
        "Gazole": 0.002009,
        "E85": 0.000798,
        "E10": 0.0019890000000000003,
        "SP98": 0.002179
      },
      "maj_gouv": {
        "Gazole": "2026-05-30 08:49:57",
        "E85": "2026-05-28 08:54:56",
        "E10": "2026-05-30 08:49:58",
        "SP98": "2026-05-30 08:49:58"
      }
    },
    {
      "id": "74960001",
      "lat": 45.90996,
      "lon": 6.14922,
      "cp": "74940",
      "ville": "ANNECY-LE-VIEUX",
      "prix": {
        "Gazole": 0.001999,
        "E10": 0.0019850000000000002,
        "SP98": 0.002099
      },
      "maj_gouv": {
        "Gazole": "2026-05-29 12:43:30",
        "E10": "2026-05-29 12:43:31",
        "SP98": "2026-05-29 12:43:31"
      }
    },
    {
      "id": "74150003",
      "lat": 45.871,
      "lon": 5.938,
      "cp": "74150",
      "ville": "Rumilly",
      "prix": {
        "Gazole": 0.002012,
        "E85": 0.000798,
        "E10": 0.00199,
        "SP98": 0.002099
      },
      "maj_gouv": {
        "Gazole": "2026-05-30 09:11:26",
        "E85": "2026-05-28 15:20:43",
        "E10": "2026-05-30 09:11:26",
        "SP98": "2026-05-30 09:11:26"
      }
    },
    {
      "id": "74520004",
      "lat": 46.105,
      "lon": 5.959,
      "cp": "74520",
      "ville": "VULBENS",
      "prix": {
        "Gazole": 0.002069,
        "SP95": 0.002085,
        "E85": 0.000798,
        "E10": 0.0020150000000000003,
        "SP98": 0.002149
      },
      "maj_gouv": {
        "Gazole": "2026-05-28 15:36:41",
        "SP95": "2026-05-28 15:36:42",
        "E85": "2026-05-26 14:12:38",
        "E10": "2026-05-28 15:36:42",
        "SP98": "2026-05-28 15:36:42"
      }
    },
    {
      "id": "74570011",
      "lat": 45.998591793997996,
      "lon": 6.1661544958,
      "cp": "74570",
      "ville": "Groisy",
      "prix": {
        "Gazole": 0.002269,
        "E10": 0.002219,
        "SP98": 0.002299
      },
      "maj_gouv": {
        "Gazole": "2026-05-28 06:00:00",
        "E10": "2026-05-28 06:00:00",
        "SP98": "2026-05-28 06:00:00"
      }
    },
    {
      "id": "74520011",
      "lat": 46.110919720574,
      "lon": 5.9789424170188,
      "cp": "74520",
      "ville": "Valleiry",
      "prix": {
        "Gazole": 0.002053,
        "E85": 0.0008539999999999999,
        "E10": 0.00199
      },
      "maj_gouv": {
        "Gazole": "2026-05-29 11:07:28",
        "E85": "2026-05-29 11:07:29",
        "E10": "2026-05-29 11:07:29"
      }
    },
    {
      "id": "74200016",
      "lat": 46.38020701999999,
      "lon": 6.496408540000001,
      "cp": "74200",
      "ville": "Thonon-les-Bains",
      "prix": {
        "Gazole": 0.002005,
        "E85": 0.000798,
        "E10": 0.001925,
        "SP98": 0.002039
      },
      "maj_gouv": {
        "Gazole": "2026-05-29 09:14:28",
        "E85": "2026-05-29 09:14:28",
        "E10": "2026-05-29 09:14:28",
        "SP98": "2026-05-29 09:14:28"
      }
    },
    {
      "id": "74000020",
      "lat": 45.91,
      "lon": 6.118,
      "cp": "74000",
      "ville": "ANNECY",
      "prix": {
        "Gazole": 0.002099,
        "GPLc": 0.0010689999999999999,
        "E10": 0.002099,
        "SP98": 0.002199
      },
      "maj_gouv": {
        "Gazole": "2026-05-31 06:00:00",
        "GPLc": "2026-05-31 06:00:00",
        "E10": "2026-05-31 06:00:00",
        "SP98": "2026-05-31 06:00:00"
      }
    },
    {
      "id": "74190003",
      "lat": 45.91878,
      "lon": 6.70405,
      "cp": "74190",
      "ville": "PASSY",
      "prix": {
        "Gazole": 0.0021190000000000002,
        "SP95": 0.002129,
        "E10": 0.002099,
        "SP98": 0.002189
      },
      "maj_gouv": {
        "Gazole": "2026-05-23 12:21:38",
        "SP95": "2026-05-23 12:21:38",
        "E10": "2026-05-23 12:21:38",
        "SP98": "2026-05-23 12:21:38"
      }
    },
    {
      "id": "74000014",
      "lat": 45.90803,
      "lon": 6.11613,
      "cp": "74000",
      "ville": "ANNECY",
      "prix": {
        "Gazole": 0.00209,
        "E85": 0.000925,
        "GPLc": 0.001009,
        "E10": 0.00199,
        "SP98": 0.00199
      },
      "maj_gouv": {
        "Gazole": "2026-05-31 00:01:00",
        "E85": "2026-05-31 00:01:00",
        "GPLc": "2026-05-31 00:01:00",
        "E10": "2026-05-31 00:01:00",
        "SP98": "2026-05-31 00:01:00"
      }
    },
    {
      "id": "74120006",
      "lat": 45.865,
      "lon": 6.626,
      "cp": "74120",
      "ville": "MEGEVE",
      "prix": {
        "Gazole": 0.00209,
        "E85": 0.000949,
        "E10": 0.00199
      },
      "maj_gouv": {
        "Gazole": "2026-05-31 00:01:00",
        "E85": "2026-05-31 00:01:00",
        "E10": "2026-05-31 00:01:00"
      }
    },
    {
      "id": "74300003",
      "lat": 46.059,
      "lon": 6.574,
      "cp": "74300",
      "ville": "Cluses",
      "prix": {
        "Gazole": 0.00209,
        "E85": 0.000982,
        "E10": 0.002022,
        "SP98": 0.0021019999999999997
      },
      "maj_gouv": {
        "Gazole": "2026-05-30 07:45:00",
        "E85": "2026-05-30 07:45:00",
        "E10": "2026-05-30 07:45:00",
        "SP98": "2026-05-30 07:45:00"
      }
    },
    {
      "id": "74500009",
      "lat": 46.399,
      "lon": 6.58,
      "cp": "74500",
      "ville": "Évian-les-Bains",
      "prix": {
        "Gazole": 0.002169,
        "SP95": 0.002169,
        "SP98": 0.002269
      },
      "maj_gouv": {
        "Gazole": "2026-05-31 06:00:00",
        "SP95": "2026-05-31 06:00:00",
        "SP98": "2026-05-31 06:00:00"
      }
    },
    {
      "id": "74700003",
      "lat": 45.904,
      "lon": 6.683,
      "cp": "74700",
      "ville": "Domancy",
      "prix": {
        "Gazole": 0.0021000000000000003,
        "E10": 0.00204,
        "SP98": 0.00216
      },
      "maj_gouv": {
        "Gazole": "2026-05-28 08:12:45",
        "E10": "2026-05-28 08:12:45",
        "SP98": "2026-05-28 08:12:45"
      }
    },
    {
      "id": "74450001",
      "lat": 45.915,
      "lon": 6.419,
      "cp": "74450",
      "ville": "SAINT-JEAN-DE-SIXT",
      "prix": {
        "Gazole": 0.00225,
        "E10": 0.00199,
        "SP98": 0.00199
      },
      "maj_gouv": {
        "Gazole": "2026-05-26 14:19:19",
        "E10": "2026-05-26 14:19:19",
        "SP98": "2026-05-26 14:19:19"
      }
    },
    {
      "id": "74240001",
      "lat": 46.18,
      "lon": 6.218,
      "cp": "74240",
      "ville": "GAILLARD",
      "prix": {
        "Gazole": 0.002055,
        "SP95": 0.002009,
        "E85": 0.000798,
        "E10": 0.0019850000000000002
      },
      "maj_gouv": {
        "Gazole": "2026-05-29 09:44:33",
        "SP95": "2026-05-29 09:44:33",
        "E85": "2026-05-20 08:35:44",
        "E10": "2026-05-29 09:44:33"
      }
    },
    {
      "id": "74400001",
      "lat": 45.912,
      "lon": 6.861,
      "cp": "74400",
      "ville": "CHAMONIX-MONT-BLANC",
      "prix": {
        "Gazole": 0.00233,
        "SP95": 0.00227,
        "E10": 0.00222
      },
      "maj_gouv": {
        "Gazole": "2026-05-20 13:34:16",
        "SP95": "2026-05-20 13:34:17",
        "E10": "2026-05-20 13:34:17"
      }
    },
    {
      "id": "74100009",
      "lat": 46.178,
      "lon": 6.242,
      "cp": "74100",
      "ville": "Vétraz-Monthoux",
      "prix": {
        "Gazole": 0.00225,
        "SP98": 0.00199
      },
      "maj_gouv": {
        "Gazole": "2026-05-30 08:49:50",
        "SP98": "2026-05-30 08:49:50"
      }
    },
    {
      "id": "74320001",
      "lat": 45.84501,
      "lon": 6.15048,
      "cp": "74320",
      "ville": "Sévrier",
      "prix": {
        "Gazole": 0.00219,
        "SP95": 0.0021000000000000003,
        "SP98": 0.00228
      },
      "maj_gouv": {
        "Gazole": "2026-05-28 10:03:56",
        "SP95": "2026-05-28 10:03:56",
        "SP98": "2026-05-28 10:03:56"
      }
    },
    {
      "id": "74150002",
      "lat": 45.856339986284006,
      "lon": 5.9484181554018996,
      "cp": "74150",
      "ville": "RUMILLY",
      "prix": {
        "Gazole": 0.002012,
        "E85": 0.000798,
        "GPLc": 0.001009,
        "E10": 0.00199,
        "SP98": 0.002099
      },
      "maj_gouv": {
        "Gazole": "2026-05-29 11:15:31",
        "E85": "2026-05-29 11:15:31",
        "GPLc": "2026-05-05 07:24:44",
        "E10": "2026-05-29 11:15:31",
        "SP98": "2026-05-29 11:15:31"
      }
    },
    {
      "id": "74200003",
      "lat": 46.349,
      "lon": 6.432,
      "cp": "74200",
      "ville": "MARGENCEL",
      "prix": {
        "Gazole": 0.0021030000000000003,
        "GPLc": 0.0010840000000000001,
        "E10": 0.002039,
        "SP98": 0.002179
      },
      "maj_gouv": {
        "Gazole": "2026-05-26 15:26:19",
        "GPLc": "2026-05-26 12:34:08",
        "E10": "2026-05-26 15:26:19",
        "SP98": "2026-05-26 15:26:19"
      }
    },
    {
      "id": "74430001",
      "lat": 46.235415653400004,
      "lon": 6.65508238436,
      "cp": "74430",
      "ville": "SAINT-JEAN-D'AULPS",
      "prix": {
        "Gazole": 0.001999,
        "E10": 0.001999,
        "SP98": 0.002109
      },
      "maj_gouv": {
        "Gazole": "2026-05-29 08:34:51",
        "E10": "2026-05-29 08:34:51",
        "SP98": "2026-05-29 08:34:51"
      }
    },
    {
      "id": "74200014",
      "lat": 46.33538,
      "lon": 6.48231,
      "cp": "74200",
      "ville": "ALLINGES",
      "prix": {
        "Gazole": 0.001998,
        "SP95": 0.001999,
        "E85": 0.000798
      },
      "maj_gouv": {
        "Gazole": "2026-05-29 23:45:00",
        "SP95": "2026-05-29 23:45:00",
        "E85": "2026-05-17 23:45:00"
      }
    },
    {
      "id": "74120004",
      "lat": 45.83991,
      "lon": 6.57942,
      "cp": "74120",
      "ville": "Praz-sur-Arly",
      "prix": {
        "Gazole": 0.001997,
        "E10": 0.001949,
        "SP98": 0.0020659999999999997
      },
      "maj_gouv": {
        "Gazole": "2026-05-29 09:52:31",
        "E10": "2026-05-29 09:52:31",
        "SP98": "2026-05-29 09:52:31"
      }
    },
    {
      "id": "74130004",
      "lat": 46.065,
      "lon": 6.409,
      "cp": "74130",
      "ville": "BONNEVILLE",
      "prix": {
        "Gazole": 0.002342,
        "E10": 0.002387,
        "SP98": 0.0025369999999999998
      },
      "maj_gouv": {
        "Gazole": "2026-05-29 09:30:00",
        "E10": "2026-05-29 09:30:00",
        "SP98": "2026-05-29 09:30:00"
      }
    },
    {
      "id": "74570004",
      "lat": 46.006,
      "lon": 6.187,
      "cp": "74570",
      "ville": "GROISY",
      "prix": {
        "Gazole": 0.002079,
        "SP95": 0.002045,
        "SP98": 0.00215
      },
      "maj_gouv": {
        "Gazole": "2026-05-29 11:42:42",
        "SP95": "2026-05-29 11:42:43",
        "SP98": "2026-05-29 11:42:43"
      }
    },
    {
      "id": "74500003",
      "lat": 46.352,
      "lon": 6.616,
      "cp": "74500",
      "ville": "VINZIER",
      "prix": {
        "Gazole": 0.002059,
        "E85": 0.000799,
        "E10": 0.002049,
        "SP98": 0.002139
      },
      "maj_gouv": {
        "Gazole": "2026-05-29 16:10:02",
        "E85": "2026-05-29 16:10:02",
        "E10": "2026-05-29 16:10:02",
        "SP98": "2026-05-29 16:10:02"
      }
    },
    {
      "id": "74180001",
      "lat": 46.135,
      "lon": 6.461,
      "cp": "74490",
      "ville": "SAINT-JEOIRE",
      "prix": {
        "Gazole": 0.0019790000000000003,
        "SP95": 0.002019,
        "E10": 0.0019690000000000003
      },
      "maj_gouv": {
        "Gazole": "2026-05-29 12:00:00",
        "SP95": "2026-05-29 12:00:00",
        "E10": "2026-05-29 12:00:00"
      }
    },
    {
      "id": "74920001",
      "lat": 45.9,
      "lon": 6.641,
      "cp": "74920",
      "ville": "COMBLOUX",
      "prix": {},
      "maj_gouv": {}
    },
    {
      "id": "74130017",
      "lat": 46.07158332529,
      "lon": 6.403211919326799,
      "cp": "74130",
      "ville": "BONNEVILLE",
      "prix": {
        "Gazole": 0.002109,
        "E10": 0.002079
      },
      "maj_gouv": {
        "Gazole": "2026-05-29 00:01:00",
        "E10": "2026-05-29 00:01:00"
      }
    },
    {
      "id": "74330001",
      "lat": 45.94,
      "lon": 6.073,
      "cp": "74330",
      "ville": "ÉPAGNY METZ-TESSY",
      "prix": {
        "Gazole": 0.002012,
        "E85": 0.000799,
        "GPLc": 0.001009,
        "E10": 0.00199,
        "SP98": 0.002099
      },
      "maj_gouv": {
        "Gazole": "2026-05-29 08:51:46",
        "E85": "2026-05-30 09:10:15",
        "GPLc": "2026-05-27 09:08:03",
        "E10": "2026-05-29 08:51:46",
        "SP98": "2026-05-29 08:51:47"
      }
    },
    {
      "id": "74250001",
      "lat": 46.142,
      "lon": 6.405,
      "cp": "74250",
      "ville": "Viuz-en-Sallaz",
      "prix": {
        "Gazole": 0.00209
      },
      "maj_gouv": {
        "Gazole": "2026-05-30 08:05:17"
      }
    },
    {
      "id": "74600015",
      "lat": 45.852,
      "lon": 6.062,
      "cp": "74600",
      "ville": "seynod",
      "prix": {
        "Gazole": 0.002143,
        "E10": 0.00199
      },
      "maj_gouv": {
        "Gazole": "2026-05-29 10:34:59",
        "E10": "2026-05-26 08:58:14"
      }
    },
    {
      "id": "74170001",
      "lat": 45.88,
      "lon": 6.717,
      "cp": "74170",
      "ville": "SAINT-GERVAIS-LES-BAINS",
      "prix": {
        "Gazole": 0.00209,
        "SP98": 0.00199
      },
      "maj_gouv": {
        "Gazole": "2026-05-29 20:15:06",
        "SP98": "2026-05-27 20:13:04"
      }
    },
    {
      "id": "74600017",
      "lat": 45.877,
      "lon": 6.089,
      "cp": "74600",
      "ville": "SEYNOD",
      "prix": {
        "Gazole": 0.002012,
        "GPLc": 0.001009,
        "E10": 0.002022,
        "SP98": 0.002139
      },
      "maj_gouv": {
        "Gazole": "2026-05-29 09:13:48",
        "GPLc": "2026-04-13 09:26:28",
        "E10": "2026-05-29 09:13:48",
        "SP98": "2026-05-29 09:13:49"
      }
    },
    {
      "id": "74540001",
      "lat": 45.819,
      "lon": 6.004,
      "cp": "74540",
      "ville": "Alby-sur-Chéran",
      "prix": {
        "Gazole": 0.00209,
        "GPLc": 0.00107,
        "E10": 0.00199
      },
      "maj_gouv": {
        "Gazole": "2026-05-30 08:07:52",
        "GPLc": "2026-05-11 07:17:24",
        "E10": "2026-05-28 13:14:33"
      }
    },
    {
      "id": "74930001",
      "lat": 46.132,
      "lon": 6.27,
      "cp": "74930",
      "ville": "REIGNIER",
      "prix": {
        "Gazole": 0.002008,
        "E10": 0.001958,
        "SP98": 0.0020859999999999997
      },
      "maj_gouv": {
        "Gazole": "2026-05-29 08:06:17",
        "E10": "2026-05-29 08:06:17",
        "SP98": "2026-05-29 08:06:17"
      }
    },
    {
      "id": "74260002",
      "lat": 46.149,
      "lon": 6.656,
      "cp": "74260",
      "ville": "Les Gets",
      "prix": {
        "Gazole": 0.002179,
        "SP95": 0.00199,
        "SP98": 0.00199
      },
      "maj_gouv": {
        "Gazole": "2026-05-26 14:44:58",
        "SP95": "2026-05-26 14:44:59",
        "SP98": "2026-05-26 14:44:59"
      }
    },
    {
      "id": "74970001",
      "lat": 46.08,
      "lon": 6.502,
      "cp": "74970",
      "ville": "MARIGNIER",
      "prix": {
        "Gazole": 0.002029,
        "E85": 0.000759,
        "E10": 0.002029,
        "SP98": 0.002099
      },
      "maj_gouv": {
        "Gazole": "2026-05-28 07:31:09",
        "E85": "2026-05-28 07:31:09",
        "E10": "2026-05-28 07:31:09",
        "SP98": "2026-05-28 07:31:10"
      }
    },
    {
      "id": "74302001",
      "lat": 46.061,
      "lon": 6.564,
      "cp": "74300",
      "ville": "Cluses",
      "prix": {
        "Gazole": 0.00209,
        "GPLc": 0.0011
      },
      "maj_gouv": {
        "Gazole": "2026-05-30 06:41:19",
        "GPLc": "2026-05-30 06:41:19"
      }
    },
    {
      "id": "74270006",
      "lat": 46.016,
      "lon": 5.944,
      "cp": "74270",
      "ville": "MUSIEGES",
      "prix": {
        "Gazole": 0.0019890000000000003,
        "E85": 0.000798,
        "E10": 0.00197,
        "SP98": 0.0020800000000000003
      },
      "maj_gouv": {
        "Gazole": "2026-05-28 06:55:46",
        "E85": "2026-05-19 06:50:03",
        "E10": "2026-05-28 06:55:46",
        "SP98": "2026-05-28 06:55:46"
      }
    },
    {
      "id": "74100005",
      "lat": 46.194,
      "lon": 6.241,
      "cp": "74100",
      "ville": "Annemasse",
      "prix": {
        "Gazole": 0.002128,
        "E85": 0.000985,
        "GPLc": 0.001065,
        "E10": 0.002024,
        "SP98": 0.0021070000000000004
      },
      "maj_gouv": {
        "Gazole": "2026-05-29 15:21:00",
        "E85": "2026-05-29 15:21:00",
        "GPLc": "2026-05-29 15:21:00",
        "E10": "2026-05-29 15:21:00",
        "SP98": "2026-05-29 15:21:00"
      }
    },
    {
      "id": "74800002",
      "lat": 46.073,
      "lon": 6.392,
      "cp": "74800",
      "ville": "Saint-Pierre-en-Faucigny",
      "prix": {
        "Gazole": 0.00209,
        "E85": 0.000984,
        "E10": 0.002019,
        "SP98": 0.002081
      },
      "maj_gouv": {
        "Gazole": "2026-05-30 11:32:00",
        "E85": "2026-05-30 11:32:00",
        "E10": "2026-05-30 11:32:00",
        "SP98": "2026-05-30 11:32:00"
      }
    },
    {
      "id": "74300001",
      "lat": 46.068524000000004,
      "lon": 6.568021,
      "cp": "74300",
      "ville": "CLUSES",
      "prix": {
        "Gazole": 0.002099,
        "SP95": 0.002109,
        "SP98": 0.002149
      },
      "maj_gouv": {
        "Gazole": "2026-05-30 07:30:00",
        "SP95": "2026-05-15 08:29:36",
        "SP98": "2026-05-30 07:30:00"
      }
    },
    {
      "id": "74370001",
      "lat": 45.942,
      "lon": 6.149,
      "cp": "74370",
      "ville": "Argonay",
      "prix": {},
      "maj_gouv": {}
    },
    {
      "id": "74230004",
      "lat": 45.908,
      "lon": 6.365,
      "cp": "74230",
      "ville": "Les Villards-sur-Thônes",
      "prix": {
        "Gazole": 0.002099,
        "SP95": 0.002109,
        "E10": 0.0019950000000000002
      },
      "maj_gouv": {
        "Gazole": "2026-05-28 13:31:28",
        "SP95": "2026-05-28 13:31:28",
        "E10": "2026-05-28 13:31:29"
      }
    },
    {
      "id": "74420001",
      "lat": 46.208,
      "lon": 6.403,
      "cp": "74420",
      "ville": "Boëge",
      "prix": {
        "Gazole": 0.0022,
        "SP95": 0.0022299999999999998,
        "SP98": 0.00227
      },
      "maj_gouv": {
        "Gazole": "2026-05-28 11:57:47",
        "SP95": "2026-05-20 08:57:32",
        "SP98": "2026-05-26 17:47:23"
      }
    },
    {
      "id": "74700006",
      "lat": 45.932719000000006,
      "lon": 6.6377109999999995,
      "cp": "74700",
      "ville": "SALLANCHES",
      "prix": {
        "Gazole": 0.002079,
        "E10": 0.002099,
        "SP98": 0.002159
      },
      "maj_gouv": {
        "Gazole": "2026-05-29 00:01:00",
        "E10": "2026-05-29 00:01:00",
        "SP98": "2026-05-29 00:01:00"
      }
    },
    {
      "id": "74500012",
      "lat": 46.39,
      "lon": 6.525,
      "cp": "74500",
      "ville": "PUBLIER",
      "prix": {
        "Gazole": 0.001999,
        "E85": 0.000798,
        "E10": 0.0019190000000000001,
        "SP98": 0.002039
      },
      "maj_gouv": {
        "Gazole": "2026-05-29 09:29:16",
        "E85": "2026-05-29 09:29:16",
        "E10": "2026-05-29 09:29:16",
        "SP98": "2026-05-29 09:29:16"
      }
    },
    {
      "id": "74520010",
      "lat": 46.108,
      "lon": 5.969,
      "cp": "74520",
      "ville": "Valleiry",
      "prix": {
        "Gazole": 0.002069,
        "E10": 0.00199,
        "SP98": 0.002139
      },
      "maj_gouv": {
        "Gazole": "2026-05-29 10:14:40",
        "E10": "2026-05-29 10:14:40",
        "SP98": "2026-05-29 10:14:40"
      }
    },
    {
      "id": "74230006",
      "lat": 45.882,
      "lon": 6.323,
      "cp": "74230",
      "ville": "Thônes",
      "prix": {
        "Gazole": 0.002059,
        "SP95": 0.002179,
        "E85": 0.000999,
        "SP98": 0.0022389999999999997
      },
      "maj_gouv": {
        "Gazole": "2026-05-29 13:46:57",
        "SP95": "2026-05-24 07:20:56",
        "E85": "2026-05-13 09:43:26",
        "SP98": "2026-05-04 08:45:58"
      }
    },
    {
      "id": "74960005",
      "lat": 45.892,
      "lon": 6.092,
      "cp": "74960",
      "ville": "CRAN-GEVRIER",
      "prix": {
        "Gazole": 0.002012,
        "E10": 0.002012,
        "SP98": 0.002129
      },
      "maj_gouv": {
        "Gazole": "2026-05-31 01:16:00",
        "E10": "2026-05-31 01:16:00",
        "SP98": "2026-05-31 01:16:00"
      }
    },
    {
      "id": "74270005",
      "lat": 46.062211003801,
      "lon": 5.865641817653,
      "cp": "74270",
      "ville": "Chêne-en-Semine",
      "prix": {
        "Gazole": 0.002199,
        "SP95": 0.002189,
        "SP98": 0.002249
      },
      "maj_gouv": {
        "Gazole": "2026-05-19 10:24:18",
        "SP95": "2026-05-19 10:24:18",
        "SP98": "2026-05-19 10:24:18"
      }
    },
    {
      "id": "74500011",
      "lat": 46.39647900000001,
      "lon": 6.573086999999999,
      "cp": "74500",
      "ville": "EVIAN LES BAINS",
      "prix": {
        "Gazole": 0.002099,
        "E10": 0.002089,
        "SP98": 0.002169
      },
      "maj_gouv": {
        "Gazole": "2026-05-23 00:01:00",
        "E10": "2026-05-01 00:01:00",
        "SP98": "2026-05-01 00:01:00"
      }
    },
    {
      "id": "74570012",
      "lat": 46.0,
      "lon": 6.168,
      "cp": "74570",
      "ville": "Groisy",
      "prix": {
        "Gazole": 0.002269,
        "E10": 0.002219,
        "SP98": 0.002299
      },
      "maj_gouv": {
        "Gazole": "2026-05-28 06:00:00",
        "E10": "2026-05-28 06:00:00",
        "SP98": "2026-05-28 06:00:00"
      }
    },
    {
      "id": "74130018",
      "lat": 46.066,
      "lon": 6.511,
      "cp": "74130",
      "ville": "VOUGY",
      "prix": {
        "Gazole": 0.002029,
        "SP95": 0.002049,
        "E85": 0.000759,
        "GPLc": 0.0010789999999999999,
        "E10": 0.002029,
        "SP98": 0.002099
      },
      "maj_gouv": {
        "Gazole": "2026-05-28 07:32:00",
        "SP95": "2026-05-28 07:32:00",
        "E85": "2026-05-28 07:32:01",
        "GPLc": "2026-05-28 07:32:01",
        "E10": "2026-05-28 07:32:01",
        "SP98": "2026-05-28 07:32:01"
      }
    },
    {
      "id": "74140003",
      "lat": 46.271,
      "lon": 6.314,
      "cp": "74140",
      "ville": "LOISIN",
      "prix": {
        "Gazole": 0.002084,
        "E85": 0.000798,
        "E10": 0.0020369999999999997,
        "SP98": 0.002089
      },
      "maj_gouv": {
        "Gazole": "2026-05-29 14:02:15",
        "E85": "2026-05-28 09:22:25",
        "E10": "2026-05-29 14:02:16",
        "SP98": "2026-05-29 14:02:16"
      }
    },
    {
      "id": "74120011",
      "lat": 45.871446511715,
      "lon": 6.6305923018323005,
      "cp": "74120",
      "ville": "DEMI QUARTIER",
      "prix": {
        "Gazole": 0.001997,
        "E10": 0.001949,
        "SP98": 0.0020659999999999997
      },
      "maj_gouv": {
        "Gazole": "2026-05-30 11:19:13",
        "E10": "2026-05-30 11:19:13",
        "SP98": "2026-05-30 11:19:13"
      }
    },
    {
      "id": "74130001",
      "lat": 46.073,
      "lon": 6.419,
      "cp": "74130",
      "ville": "Bonneville",
      "prix": {
        "Gazole": 0.002048,
        "E10": 0.002036,
        "SP98": 0.002141
      },
      "maj_gouv": {
        "Gazole": "2026-05-28 07:14:03",
        "E10": "2026-05-28 07:14:03",
        "SP98": "2026-05-28 07:14:04"
      }
    },
    {
      "id": "74960013",
      "lat": 45.894328,
      "lon": 6.106921,
      "cp": "74960",
      "ville": "Cran-Gevrier",
      "prix": {
        "Gazole": 0.002169,
        "E10": 0.002149,
        "SP98": 0.002249
      },
      "maj_gouv": {
        "Gazole": "2026-05-30 21:00:00",
        "E10": "2026-05-30 21:00:00",
        "SP98": "2026-05-30 21:00:00"
      }
    },
    {
      "id": "74930003",
      "lat": 46.122607407024994,
      "lon": 6.267840478506501,
      "cp": "74930",
      "ville": "PERS JUSSY",
      "prix": {
        "Gazole": 0.002008,
        "E10": 0.001958,
        "SP98": 0.0020859999999999997
      },
      "maj_gouv": {
        "Gazole": "2026-05-29 12:33:08",
        "E10": "2026-05-29 12:33:09",
        "SP98": "2026-05-29 12:33:09"
      }
    },
    {
      "id": "74100010",
      "lat": 46.186,
      "lon": 6.231,
      "cp": "74100",
      "ville": "ANNEMASSE",
      "prix": {},
      "maj_gouv": {}
    },
    {
      "id": "74220002",
      "lat": 45.906025,
      "lon": 6.422485,
      "cp": "74220",
      "ville": "La Clusaz",
      "prix": {
        "Gazole": 0.00209,
        "SP95": 0.00199,
        "SP98": 0.00199
      },
      "maj_gouv": {
        "Gazole": "2026-05-29 18:39:22",
        "SP95": "2026-05-14 16:47:06",
        "SP98": "2026-05-14 16:47:06"
      }
    }
  ]
}