{
  "departement": "15",
  "date": "2026-05-02",
  "stations": [
    {
      "id": "15290001",
      "lat": 44.855,
      "lon": 2.233,
      "cp": "15290",
      "ville": "Le Rouget",
      "prix": {
        "Gazole": 0.002235,
        "E10": 0.002065,
        "SP98": 0.002155
      },
      "maj_gouv": {
        "Gazole": "2026-04-30 07:40:37",
        "E10": "2026-04-30 07:40:37",
        "SP98": "2026-04-30 07:40:37"
      }
    },
    {
      "id": "15200004",
      "lat": 45.222,
      "lon": 2.34,
      "cp": "15200",
      "ville": "Mauriac",
      "prix": {
        "Gazole": 0.002219,
        "E10": 0.001999,
        "SP98": 0.002099
      },
      "maj_gouv": {
        "Gazole": "2026-04-28 19:40:27",
        "E10": "2026-04-28 19:40:28",
        "SP98": "2026-04-28 19:40:28"
      }
    },
    {
      "id": "15700001",
      "lat": 45.133,
      "lon": 2.22,
      "cp": "15700",
      "ville": "PLEAUX",
      "prix": {
        "Gazole": 0.00229,
        "E10": 0.00211,
        "SP98": 0.0022
      },
      "maj_gouv": {
        "Gazole": "2026-04-17 17:14:20",
        "E10": "2026-04-17 17:14:21",
        "SP98": "2026-04-17 17:14:21"
      }
    },
    {
      "id": "15100013",
      "lat": 45.031,
      "lon": 3.093,
      "cp": "15100",
      "ville": "Saint-Flour",
      "prix": {
        "Gazole": 0.00209,
        "SP95": 0.00199
      },
      "maj_gouv": {
        "Gazole": "2026-05-01 08:16:54",
        "SP95": "2026-05-01 08:16:54"
      }
    },
    {
      "id": "15600001",
      "lat": 44.706,
      "lon": 2.195,
      "cp": "15600",
      "ville": "MAURS",
      "prix": {
        "Gazole": 0.00225,
        "GPLc": 0.00114,
        "E10": 0.00199,
        "SP98": 0.00199
      },
      "maj_gouv": {
        "Gazole": "2026-04-29 09:51:47",
        "GPLc": "2026-04-29 09:51:47",
        "E10": "2026-04-29 09:51:47",
        "SP98": "2026-04-29 09:51:47"
      }
    },
    {
      "id": "15250004",
      "lat": 44.99661,
      "lon": 2.42166,
      "cp": "15250",
      "ville": "JUSSAC",
      "prix": {
        "Gazole": 0.002219,
        "SP95": 0.002164,
        "E10": 0.00213
      },
      "maj_gouv": {
        "Gazole": "2026-05-01 08:24:11",
        "SP95": "2026-05-01 08:24:11",
        "E10": "2026-05-01 08:24:11"
      }
    },
    {
      "id": "15190004",
      "lat": 45.338837005856995,
      "lon": 2.7590162851812,
      "cp": "15190",
      "ville": "Condat",
      "prix": {
        "Gazole": 0.0022299999999999998,
        "SP95": 0.002095,
        "E10": 0.002048
      },
      "maj_gouv": {
        "Gazole": "2026-04-29 06:03:45",
        "SP95": "2026-04-22 09:31:31",
        "E10": "2026-04-22 09:31:31"
      }
    },
    {
      "id": "15300003",
      "lat": 45.10616,
      "lon": 2.86291,
      "cp": "15300",
      "ville": "Murat",
      "prix": {
        "Gazole": 0.00218,
        "E10": 0.0020440000000000002,
        "SP98": 0.002156
      },
      "maj_gouv": {
        "Gazole": "2026-04-27 15:06:16",
        "E10": "2026-04-27 15:06:16",
        "SP98": "2026-04-27 15:06:16"
      }
    },
    {
      "id": "15190001",
      "lat": 45.33826,
      "lon": 2.76036,
      "cp": "15190",
      "ville": "Condat",
      "prix": {
        "Gazole": 0.002299,
        "SP95": 0.00214,
        "SP98": 0.00216
      },
      "maj_gouv": {
        "Gazole": "2026-04-29 07:21:53",
        "SP95": "2026-04-29 07:21:53",
        "SP98": "2026-04-29 07:21:53"
      }
    },
    {
      "id": "15250006",
      "lat": 44.94448371,
      "lon": 2.31132819,
      "cp": "15250",
      "ville": "Saint-Paul-des-Landes",
      "prix": {
        "Gazole": 0.002219,
        "SP95": 0.002129,
        "SP98": 0.002099
      },
      "maj_gouv": {
        "Gazole": "2026-05-01 19:24:36",
        "SP95": "2026-05-01 19:24:36",
        "SP98": "2026-05-01 19:24:36"
      }
    },
    {
      "id": "15100005",
      "lat": 45.038,
      "lon": 3.065,
      "cp": "15100",
      "ville": "SAINT-FLOUR",
      "prix": {
        "Gazole": 0.002218,
        "SP95": 0.002108,
        "E85": 0.000839,
        "GPLc": 0.0012250000000000002,
        "E10": 0.002078,
        "SP98": 0.002179
      },
      "maj_gouv": {
        "Gazole": "2026-04-30 08:45:00",
        "SP95": "2026-04-30 08:45:00",
        "E85": "2026-04-27 07:58:16",
        "GPLc": "2026-04-27 07:58:17",
        "E10": "2026-04-30 08:45:00",
        "SP98": "2026-04-27 07:58:17"
      }
    },
    {
      "id": "15200005",
      "lat": 45.214,
      "lon": 2.346,
      "cp": "15200",
      "ville": "MAURIAC",
      "prix": {
        "Gazole": 0.002219,
        "SP95": 0.002069,
        "GPLc": 0.001199,
        "E10": 0.002019,
        "SP98": 0.002159
      },
      "maj_gouv": {
        "Gazole": "2026-04-22 13:05:01",
        "SP95": "2026-04-29 09:28:22",
        "GPLc": "2026-04-27 09:16:40",
        "E10": "2026-04-29 09:28:23",
        "SP98": "2026-04-29 09:28:23"
      }
    },
    {
      "id": "15000003",
      "lat": 44.92297528,
      "lon": 2.4276538800000003,
      "cp": "15000",
      "ville": "AURILLAC",
      "prix": {
        "Gazole": 0.00209
      },
      "maj_gouv": {
        "Gazole": "2026-05-01 13:50:07"
      }
    },
    {
      "id": "15320001",
      "lat": 45.001,
      "lon": 3.224,
      "cp": "15320",
      "ville": "Ruynes-en-Margeride",
      "prix": {
        "Gazole": 0.0022389999999999997,
        "SP95": 0.002099,
        "SP98": 0.002179
      },
      "maj_gouv": {
        "Gazole": "2026-04-24 14:47:41",
        "SP95": "2026-04-17 15:13:19",
        "SP98": "2026-04-17 15:13:20"
      }
    },
    {
      "id": "15100011",
      "lat": 45.034,
      "lon": 3.093,
      "cp": "15100",
      "ville": "Saint-Flour",
      "prix": {
        "Gazole": 0.0022389999999999997,
        "E10": 0.002075,
        "SP98": 0.002179
      },
      "maj_gouv": {
        "Gazole": "2026-04-24 14:48:07",
        "E10": "2026-04-17 15:14:07",
        "SP98": "2026-04-17 15:14:07"
      }
    },
    {
      "id": "15310001",
      "lat": 45.057,
      "lon": 2.422,
      "cp": "15310",
      "ville": "Saint-Cernin",
      "prix": {
        "Gazole": 0.0023,
        "SP95": 0.00218,
        "SP98": 0.0023
      },
      "maj_gouv": {
        "Gazole": "2026-04-24 09:29:14",
        "SP95": "2026-04-24 09:29:14",
        "SP98": "2026-04-24 09:29:14"
      }
    },
    {
      "id": "15800004",
      "lat": 45.016,
      "lon": 2.664,
      "cp": "15800",
      "ville": "Thiézac",
      "prix": {
        "Gazole": 0.00228,
        "SP95": 0.0021000000000000003
      },
      "maj_gouv": {
        "Gazole": "2026-04-24 09:05:31",
        "SP95": "2026-04-24 09:05:31"
      }
    },
    {
      "id": "15100003",
      "lat": 45.038,
      "lon": 3.087,
      "cp": "15100",
      "ville": "SAINT-FLOUR",
      "prix": {
        "Gazole": 0.0022389999999999997,
        "SP95": 0.0021190000000000002,
        "E85": 0.0008900000000000001
      },
      "maj_gouv": {
        "Gazole": "2026-04-23 00:01:00",
        "SP95": "2026-05-01 00:01:00",
        "E85": "2026-04-08 00:01:00"
      }
    },
    {
      "id": "15110003",
      "lat": 44.857,
      "lon": 3.008,
      "cp": "15110",
      "ville": "Chaudes-Aigues",
      "prix": {
        "Gazole": 0.002249,
        "SP95": 0.002099
      },
      "maj_gouv": {
        "Gazole": "2026-04-29 00:01:00",
        "SP95": "2026-04-21 00:01:00"
      }
    },
    {
      "id": "15700005",
      "lat": 45.13346491,
      "lon": 2.22264433,
      "cp": "15700",
      "ville": "PLEAUX",
      "prix": {
        "Gazole": 0.002198,
        "SP95": 0.002058,
        "E10": 0.001998
      },
      "maj_gouv": {
        "Gazole": "2026-04-29 08:02:28",
        "SP95": "2026-04-29 10:00:54",
        "E10": "2026-04-29 10:00:54"
      }
    },
    {
      "id": "15100010",
      "lat": 45.032,
      "lon": 3.135,
      "cp": "15100",
      "ville": "Saint-Georges",
      "prix": {
        "Gazole": 0.002218,
        "SP95": 0.002108,
        "E85": 0.000819,
        "GPLc": 0.0012259999999999999,
        "E10": 0.002078,
        "SP98": 0.002179
      },
      "maj_gouv": {
        "Gazole": "2026-04-30 09:36:51",
        "SP95": "2026-04-30 09:36:51",
        "E85": "2026-04-16 10:27:11",
        "GPLc": "2026-04-14 09:38:10",
        "E10": "2026-04-30 09:36:51",
        "SP98": "2026-04-30 17:35:00"
      }
    },
    {
      "id": "15190003",
      "lat": 45.303141500363,
      "lon": 2.8327425989774997,
      "cp": "15190",
      "ville": "Marcenat",
      "prix": {
        "Gazole": 0.0022389999999999997,
        "E85": 0.000758,
        "E10": 0.002075,
        "SP98": 0.002179
      },
      "maj_gouv": {
        "Gazole": "2026-04-27 14:00:00",
        "E85": "2026-04-15 12:19:23",
        "E10": "2026-04-27 14:00:00",
        "SP98": "2026-04-27 14:00:00"
      }
    },
    {
      "id": "15500006",
      "lat": 45.258,
      "lon": 3.199,
      "cp": "15500",
      "ville": "MASSIAC",
      "prix": {
        "Gazole": 0.0022389999999999997,
        "SP95": 0.002109,
        "E10": 0.002089
      },
      "maj_gouv": {
        "Gazole": "2026-04-24 15:08:51",
        "SP95": "2026-04-20 15:26:45",
        "E10": "2026-04-20 15:26:46"
      }
    },
    {
      "id": "15100012",
      "lat": 45.032035,
      "lon": 3.130412,
      "cp": "15100",
      "ville": "Saint Georges",
      "prix": {
        "Gazole": 0.002218,
        "SP95": 0.002108,
        "E85": 0.0008179999999999999,
        "E10": 0.002078
      },
      "maj_gouv": {
        "Gazole": "2026-04-30 07:50:46",
        "SP95": "2026-04-30 07:50:46",
        "E85": "2026-04-25 19:00:00",
        "E10": "2026-04-30 07:50:47"
      }
    },
    {
      "id": "15000008",
      "lat": 44.91572,
      "lon": 2.43189,
      "cp": "15000",
      "ville": "AURILLAC",
      "prix": {
        "Gazole": 0.002197,
        "SP95": 0.002056,
        "E85": 0.000819,
        "E10": 0.002021,
        "SP98": 0.002115
      },
      "maj_gouv": {
        "Gazole": "2026-04-30 11:02:29",
        "SP95": "2026-04-30 11:02:29",
        "E85": "2026-04-22 11:09:57",
        "E10": "2026-04-30 11:02:29",
        "SP98": "2026-04-16 10:27:38"
      }
    },
    {
      "id": "15130001",
      "lat": 44.788,
      "lon": 2.456,
      "cp": "15130",
      "ville": "LAFEUILLADE-EN-VéZIE",
      "prix": {
        "Gazole": 0.00225,
        "E10": 0.00199,
        "SP98": 0.00199
      },
      "maj_gouv": {
        "Gazole": "2026-04-18 23:31:23",
        "E10": "2026-04-18 23:31:23",
        "SP98": "2026-04-18 23:31:23"
      }
    },
    {
      "id": "15800002",
      "lat": 44.981,
      "lon": 2.628,
      "cp": "15800",
      "ville": "Vic-sur-Cère",
      "prix": {
        "Gazole": 0.002242,
        "E85": 0.000819,
        "E10": 0.0020440000000000002,
        "SP98": 0.002162
      },
      "maj_gouv": {
        "Gazole": "2026-04-29 09:20:55",
        "E85": "2026-04-22 09:55:17",
        "E10": "2026-04-29 09:20:55",
        "SP98": "2026-04-29 09:20:55"
      }
    },
    {
      "id": "15500003",
      "lat": 45.262,
      "lon": 3.199,
      "cp": "15500",
      "ville": "MASSIAC",
      "prix": {
        "Gazole": 0.002235,
        "SP95": 0.002129,
        "SP98": 0.002175
      },
      "maj_gouv": {
        "Gazole": "2026-04-29 14:33:46",
        "SP95": "2026-04-29 14:33:47",
        "SP98": "2026-04-29 14:33:47"
      }
    },
    {
      "id": "15220002",
      "lat": 44.859,
      "lon": 2.292,
      "cp": "15220",
      "ville": "Saint-Mamet-la-Salvetat",
      "prix": {
        "Gazole": 0.00225,
        "SP95": 0.00199
      },
      "maj_gouv": {
        "Gazole": "2026-04-08 18:23:32",
        "SP95": "2026-04-08 18:23:32"
      }
    },
    {
      "id": "15000017",
      "lat": 44.894559139204,
      "lon": 2.4015925601762,
      "cp": "15000",
      "ville": "Aurillac",
      "prix": {
        "Gazole": 0.002219,
        "SP95": 0.002164,
        "E85": 0.000819,
        "E10": 0.00213,
        "SP98": 0.002189
      },
      "maj_gouv": {
        "Gazole": "2026-04-30 19:00:00",
        "SP95": "2026-04-30 19:00:00",
        "E85": "2026-04-28 10:16:20",
        "E10": "2026-04-30 19:00:00",
        "SP98": "2026-04-30 19:00:00"
      }
    },
    {
      "id": "15300002",
      "lat": 45.107650938541006,
      "lon": 2.8630026809344,
      "cp": "15300",
      "ville": "Murat",
      "prix": {},
      "maj_gouv": {}
    },
    {
      "id": "15300006",
      "lat": 45.106588810308,
      "lon": 2.8648094441031002,
      "cp": "15300",
      "ville": "Murat",
      "prix": {
        "Gazole": 0.0022400000000000002
      },
      "maj_gouv": {
        "Gazole": "2026-04-28 08:03:44"
      }
    },
    {
      "id": "15000009",
      "lat": 44.90916,
      "lon": 2.44627,
      "cp": "15000",
      "ville": "Aurillac",
      "prix": {
        "Gazole": 0.002197,
        "SP95": 0.002056,
        "E85": 0.000819,
        "E10": 0.002021,
        "SP98": 0.002115
      },
      "maj_gouv": {
        "Gazole": "2026-04-30 09:23:19",
        "SP95": "2026-04-30 09:23:19",
        "E85": "2026-04-22 11:19:31",
        "E10": "2026-04-30 09:23:19",
        "SP98": "2026-04-16 10:16:00"
      }
    },
    {
      "id": "15130003",
      "lat": 44.921,
      "lon": 2.839,
      "cp": "15230",
      "ville": "PIERREFORT",
      "prix": {
        "Gazole": 0.002249,
        "SP95": 0.002099,
        "SP98": 0.002189
      },
      "maj_gouv": {
        "Gazole": "2026-04-29 00:01:00",
        "SP95": "2026-04-21 00:01:00",
        "SP98": "2026-04-21 00:01:00"
      }
    },
    {
      "id": "15400002",
      "lat": 45.28327,
      "lon": 2.65993,
      "cp": "15400",
      "ville": "Riom-Ès-Montagnes",
      "prix": {},
      "maj_gouv": {}
    },
    {
      "id": "15000018",
      "lat": 44.910339878759004,
      "lon": 2.4534163077782,
      "cp": "15000",
      "ville": "AURILLAC",
      "prix": {
        "Gazole": 0.0022400000000000002,
        "SP95": 0.0021000000000000003,
        "E85": 0.00082,
        "SP98": 0.00214
      },
      "maj_gouv": {
        "Gazole": "2026-04-28 07:46:32",
        "SP95": "2026-04-28 07:46:32",
        "E85": "2026-04-16 17:27:08",
        "SP98": "2026-04-28 07:46:32"
      }
    },
    {
      "id": "15250001",
      "lat": 44.98584,
      "lon": 2.41672,
      "cp": "15250",
      "ville": "Jussac",
      "prix": {
        "Gazole": 0.00209,
        "SP95": 0.00199
      },
      "maj_gouv": {
        "Gazole": "2026-05-01 10:04:23",
        "SP95": "2026-05-01 10:04:23"
      }
    },
    {
      "id": "15100006",
      "lat": 45.035,
      "lon": 3.089,
      "cp": "15100",
      "ville": "SAINT-FLOUR",
      "prix": {
        "Gazole": 0.002218,
        "SP95": 0.002108,
        "SP98": 0.002179
      },
      "maj_gouv": {
        "Gazole": "2026-04-30 12:09:02",
        "SP95": "2026-04-30 12:09:02",
        "SP98": "2026-04-25 17:50:00"
      }
    },
    {
      "id": "15000012",
      "lat": 44.913536221781,
      "lon": 2.4270647024088,
      "cp": "15000",
      "ville": "AURILLAC",
      "prix": {
        "Gazole": 0.0022400000000000002,
        "SP95": 0.0021000000000000003,
        "E85": 0.00082,
        "GPLc": 0.00109,
        "SP98": 0.00214
      },
      "maj_gouv": {
        "Gazole": "2026-04-28 07:46:04",
        "SP95": "2026-04-28 07:46:04",
        "E85": "2026-04-16 17:28:07",
        "GPLc": "2026-04-07 08:47:35",
        "SP98": "2026-04-28 07:46:04"
      }
    },
    {
      "id": "15110001",
      "lat": 44.856,
      "lon": 3.006,
      "cp": "15110",
      "ville": "Chaudes-Aigues",
      "prix": {},
      "maj_gouv": {}
    },
    {
      "id": "15400003",
      "lat": 45.288,
      "lon": 2.669,
      "cp": "15400",
      "ville": "Riom-Ès-Montagnes",
      "prix": {
        "Gazole": 0.00222,
        "E10": 0.00199,
        "SP98": 0.002144
      },
      "maj_gouv": {
        "Gazole": "2026-04-30 18:30:00",
        "E10": "2026-04-29 09:00:00",
        "SP98": "2026-04-25 09:00:00"
      }
    },
    {
      "id": "15400004",
      "lat": 45.28,
      "lon": 2.665,
      "cp": "15400",
      "ville": "Riom-es-Montagnes",
      "prix": {
        "Gazole": 0.00209,
        "E10": 0.00199,
        "SP98": 0.00199
      },
      "maj_gouv": {
        "Gazole": "2026-05-01 05:08:46",
        "E10": "2026-05-01 05:08:47",
        "SP98": "2026-05-01 05:08:47"
      }
    },
    {
      "id": "15000005",
      "lat": 44.923,
      "lon": 2.435,
      "cp": "15000",
      "ville": "AURILLAC",
      "prix": {
        "Gazole": 0.00225
      },
      "maj_gouv": {
        "Gazole": "2026-04-22 18:59:28"
      }
    },
    {
      "id": "15600003",
      "lat": 44.714,
      "lon": 2.203,
      "cp": "15600",
      "ville": "Saint-Étienne-de-Maurs",
      "prix": {
        "Gazole": 0.002169,
        "E85": 0.000819,
        "E10": 0.0019890000000000003,
        "SP98": 0.002109
      },
      "maj_gouv": {
        "Gazole": "2026-04-27 10:17:47",
        "E85": "2026-04-16 07:46:47",
        "E10": "2026-04-27 10:17:47",
        "SP98": "2026-04-27 10:17:47"
      }
    },
    {
      "id": "15210001",
      "lat": 45.34,
      "lon": 2.434,
      "cp": "15210",
      "ville": "Ydes",
      "prix": {
        "Gazole": 0.002199,
        "E85": 0.000759,
        "E10": 0.002049,
        "SP98": 0.002099
      },
      "maj_gouv": {
        "Gazole": "2026-04-30 08:41:27",
        "E85": "2026-04-15 09:01:11",
        "E10": "2026-04-30 08:41:28",
        "SP98": "2026-04-30 08:41:28"
      }
    },
    {
      "id": "15500008",
      "lat": 45.254,
      "lon": 3.197,
      "cp": "15500",
      "ville": "MASSIAC",
      "prix": {
        "Gazole": 0.002235,
        "SP95": 0.002129,
        "SP98": 0.002175
      },
      "maj_gouv": {
        "Gazole": "2026-04-28 06:33:52",
        "SP95": "2026-04-28 06:33:52",
        "SP98": "2026-04-28 06:33:52"
      }
    },
    {
      "id": "15300007",
      "lat": 45.079,
      "lon": 2.937,
      "cp": "15300",
      "ville": "USSEL",
      "prix": {
        "Gazole": 0.0024100000000000002,
        "SP95": 0.00218
      },
      "maj_gouv": {
        "Gazole": "2026-04-11 09:55:15",
        "SP95": "2026-04-11 09:55:49"
      }
    },
    {
      "id": "15004002",
      "lat": 44.914,
      "lon": 2.441,
      "cp": "15000",
      "ville": "AURILLAC",
      "prix": {
        "Gazole": 0.002197,
        "SP95": 0.002068,
        "E85": 0.000759,
        "E10": 0.0020310000000000003
      },
      "maj_gouv": {
        "Gazole": "2026-04-29 14:37:54",
        "SP95": "2026-04-30 20:39:23",
        "E85": "2026-04-27 17:48:29",
        "E10": "2026-04-30 20:39:23"
      }
    },
    {
      "id": "15000016",
      "lat": 44.908,
      "lon": 2.421,
      "cp": "15000",
      "ville": "AURILLAC",
      "prix": {
        "Gazole": 0.00209,
        "E10": 0.00199,
        "SP98": 0.00199
      },
      "maj_gouv": {
        "Gazole": "2026-05-02 00:01:00",
        "E10": "2026-05-02 00:01:00",
        "SP98": "2026-05-02 00:01:00"
      }
    }
  ]
}