{
  "departement": "76",
  "date": "2026-05-02",
  "stations": [
    {
      "id": "76240001",
      "lat": 49.418,
      "lon": 1.133,
      "cp": "76240",
      "ville": "BONSECOURS",
      "prix": {
        "Gazole": 0.00219,
        "E10": 0.002029,
        "SP98": 0.002095
      },
      "maj_gouv": {
        "Gazole": "2026-04-28 08:03:31",
        "E10": "2026-04-28 08:46:27",
        "SP98": "2026-04-28 08:46:28"
      }
    },
    {
      "id": "76630001",
      "lat": 49.8971513,
      "lon": 1.2598235,
      "cp": "76630",
      "ville": "ENVERMEU",
      "prix": {
        "Gazole": 0.002209,
        "SP95": 0.002059,
        "SP98": 0.002139
      },
      "maj_gouv": {
        "Gazole": "2026-04-29 09:37:37",
        "SP95": "2026-04-29 09:37:38",
        "SP98": "2026-04-29 09:37:38"
      }
    },
    {
      "id": "76200002",
      "lat": 49.916,
      "lon": 1.075,
      "cp": "76200",
      "ville": "Dieppe",
      "prix": {
        "Gazole": 0.0021939999999999998,
        "E10": 0.00199,
        "SP98": 0.00207
      },
      "maj_gouv": {
        "Gazole": "2026-05-01 07:46:00",
        "E10": "2026-05-01 07:46:00",
        "SP98": "2026-05-01 07:46:00"
      }
    },
    {
      "id": "76260005",
      "lat": 50.051,
      "lon": 1.423,
      "cp": "76260",
      "ville": "EU",
      "prix": {},
      "maj_gouv": {}
    },
    {
      "id": "76371001",
      "lat": 49.91,
      "lon": 1.077,
      "cp": "76371",
      "ville": "DIEPPE",
      "prix": {
        "Gazole": 0.002189,
        "E85": 0.000829,
        "GPLc": 0.001019,
        "E10": 0.001977,
        "SP98": 0.002079
      },
      "maj_gouv": {
        "Gazole": "2026-04-30 10:04:29",
        "E85": "2026-04-17 12:11:04",
        "GPLc": "2026-04-27 08:23:25",
        "E10": "2026-04-30 10:04:29",
        "SP98": "2026-04-30 10:04:30"
      }
    },
    {
      "id": "76320002",
      "lat": 49.29,
      "lon": 1.04,
      "cp": "76320",
      "ville": "Saint-Pierre-lès-Elbeuf",
      "prix": {
        "Gazole": 0.002149,
        "E85": 0.000749,
        "E10": 0.001967,
        "SP98": 0.002022
      },
      "maj_gouv": {
        "Gazole": "2026-05-02 01:17:00",
        "E85": "2026-05-02 01:17:00",
        "E10": "2026-05-02 01:17:00",
        "SP98": "2026-05-02 01:17:00"
      }
    },
    {
      "id": "76490002",
      "lat": 49.52922,
      "lon": 0.72064,
      "cp": "76490",
      "ville": "Caudebec-en-Caux",
      "prix": {
        "Gazole": 0.002209,
        "SP95": 0.002069,
        "E10": 0.002019
      },
      "maj_gouv": {
        "Gazole": "2026-04-25 09:17:12",
        "SP95": "2026-04-25 09:17:12",
        "E10": "2026-04-25 09:17:12"
      }
    },
    {
      "id": "76950001",
      "lat": 49.789,
      "lon": 1.222,
      "cp": "76950",
      "ville": "Les Grandes-Ventes",
      "prix": {
        "Gazole": 0.00225,
        "E10": 0.00199
      },
      "maj_gouv": {
        "Gazole": "2026-04-27 08:52:25",
        "E10": "2026-04-27 08:52:25"
      }
    },
    {
      "id": "76380003",
      "lat": 49.45,
      "lon": 1.028,
      "cp": "76380",
      "ville": "Canteleu",
      "prix": {
        "Gazole": 0.0021469999999999996,
        "E85": 0.0008179999999999999,
        "E10": 0.0019790000000000003,
        "SP98": 0.002088
      },
      "maj_gouv": {
        "Gazole": "2026-04-30 06:49:27",
        "E85": "2026-04-30 06:49:27",
        "E10": "2026-04-30 06:49:27",
        "SP98": "2026-04-30 06:49:27"
      }
    },
    {
      "id": "76600022",
      "lat": 49.485,
      "lon": 0.096,
      "cp": "76600",
      "ville": "LE HAVRE",
      "prix": {
        "Gazole": 0.00209,
        "E85": 0.0008449999999999999,
        "E10": 0.00199,
        "SP98": 0.00199
      },
      "maj_gouv": {
        "Gazole": "2026-05-02 00:01:00",
        "E85": "2026-05-02 00:01:00",
        "E10": "2026-05-02 00:01:00",
        "SP98": "2026-05-02 00:01:00"
      }
    },
    {
      "id": "76000014",
      "lat": 49.434,
      "lon": 1.076,
      "cp": "76000",
      "ville": "Rouen",
      "prix": {
        "Gazole": 0.002247,
        "E85": 0.000839,
        "GPLc": 0.001049,
        "E10": 0.00199,
        "SP98": 0.00199
      },
      "maj_gouv": {
        "Gazole": "2026-04-30 09:21:02",
        "E85": "2026-04-30 09:21:02",
        "GPLc": "2026-04-30 09:21:02",
        "E10": "2026-04-30 09:21:02",
        "SP98": "2026-04-30 09:21:02"
      }
    },
    {
      "id": "76430005",
      "lat": 49.529,
      "lon": 0.343,
      "cp": "76430",
      "ville": "Saint-Romain-de-Colbosc",
      "prix": {
        "Gazole": 0.002179,
        "E85": 0.000766,
        "E10": 0.002012,
        "SP98": 0.002089
      },
      "maj_gouv": {
        "Gazole": "2026-04-29 12:37:17",
        "E85": "2026-04-29 14:22:13",
        "E10": "2026-04-29 14:22:13",
        "SP98": "2026-04-29 14:22:13"
      }
    },
    {
      "id": "76680005",
      "lat": 49.678,
      "lon": 1.337,
      "cp": "76680",
      "ville": "Bosc-Mesnil",
      "prix": {
        "Gazole": 0.00209,
        "E10": 0.00199,
        "SP98": 0.00199
      },
      "maj_gouv": {
        "Gazole": "2026-05-01 10:00:00",
        "E10": "2026-05-01 10:00:00",
        "SP98": "2026-05-01 10:00:00"
      }
    },
    {
      "id": "76590002",
      "lat": 49.79545,
      "lon": 1.10615,
      "cp": "76590",
      "ville": "LONGUEVILLE-SUR-SCIE",
      "prix": {
        "Gazole": 0.002149,
        "E10": 0.0019690000000000003,
        "SP98": 0.002059
      },
      "maj_gouv": {
        "Gazole": "2026-04-28 09:32:57",
        "E10": "2026-04-28 09:32:57",
        "SP98": "2026-04-28 09:32:57"
      }
    },
    {
      "id": "76250004",
      "lat": 49.47837,
      "lon": 1.047361,
      "cp": "76250",
      "ville": "DEVILLE LES ROUEN",
      "prix": {
        "Gazole": 0.002299,
        "E85": 0.0009649999999999999,
        "E10": 0.002039,
        "SP98": 0.002129
      },
      "maj_gouv": {
        "Gazole": "2026-05-01 23:50:00",
        "E85": "2026-05-01 23:50:00",
        "E10": "2026-05-01 23:50:00",
        "SP98": "2026-05-01 23:50:00"
      }
    },
    {
      "id": "76803001",
      "lat": 49.387399180399996,
      "lon": 1.0715780622076,
      "cp": "76800",
      "ville": "SAINT-ÉTIENNE-DU-ROUVRAY",
      "prix": {
        "Gazole": 0.002178,
        "E10": 0.002018,
        "SP98": 0.002088
      },
      "maj_gouv": {
        "Gazole": "2026-04-29 08:07:11",
        "E10": "2026-04-30 08:14:01",
        "SP98": "2026-04-30 08:14:01"
      }
    },
    {
      "id": "76800003",
      "lat": 49.397,
      "lon": 1.102,
      "cp": "76800",
      "ville": "SAINT-ÉTIENNE-DU-ROUVRAY",
      "prix": {
        "Gazole": 0.00216,
        "E85": 0.0008179999999999999
      },
      "maj_gouv": {
        "Gazole": "2026-04-28 09:00:51",
        "E85": "2026-04-28 07:03:02"
      }
    },
    {
      "id": "76430004",
      "lat": 49.525352993599995,
      "lon": 0.365112606713,
      "cp": "76430",
      "ville": "SAINT-ROMAIN-DE-COLBOSC",
      "prix": {
        "Gazole": 0.00216,
        "SP95": 0.00198,
        "SP98": 0.002062
      },
      "maj_gouv": {
        "Gazole": "2026-04-19 07:59:44",
        "SP95": "2026-04-17 09:33:33",
        "SP98": "2026-04-21 09:29:25"
      }
    },
    {
      "id": "76680004",
      "lat": 49.675589360189,
      "lon": 1.3347640905368,
      "cp": "76680",
      "ville": "Bosc-Mesnil",
      "prix": {
        "Gazole": 0.00209,
        "E85": 0.000999,
        "GPLc": 0.001159,
        "E10": 0.00199,
        "SP98": 0.00199
      },
      "maj_gouv": {
        "Gazole": "2026-05-01 10:00:00",
        "E85": "2026-05-01 10:00:00",
        "GPLc": "2026-05-01 10:00:00",
        "E10": "2026-05-01 10:00:00",
        "SP98": "2026-05-01 10:00:00"
      }
    },
    {
      "id": "76890001",
      "lat": 49.681,
      "lon": 1.046,
      "cp": "76890",
      "ville": "TOTES",
      "prix": {
        "Gazole": 0.0021190000000000002,
        "SP95": 0.002009,
        "E85": 0.000819,
        "E10": 0.0019590000000000002,
        "SP98": 0.002049
      },
      "maj_gouv": {
        "Gazole": "2026-04-30 08:34:56",
        "SP95": "2026-04-30 08:34:56",
        "E85": "2026-04-30 08:34:57",
        "E10": "2026-04-30 08:34:57",
        "SP98": "2026-04-30 08:34:57"
      }
    },
    {
      "id": "76100005",
      "lat": 49.427,
      "lon": 1.093,
      "cp": "76100",
      "ville": "ROUEN",
      "prix": {
        "Gazole": 0.00209,
        "E85": 0.000844,
        "SP98": 0.00199
      },
      "maj_gouv": {
        "Gazole": "2026-05-02 00:01:00",
        "E85": "2026-05-02 00:01:00",
        "SP98": "2026-05-02 00:01:00"
      }
    },
    {
      "id": "76770002",
      "lat": 49.512,
      "lon": 1.038,
      "cp": "76770",
      "ville": "LE HOULME",
      "prix": {
        "Gazole": 0.002149,
        "SP95": 0.002019,
        "GPLc": 0.000999,
        "E10": 0.0019890000000000003,
        "SP98": 0.002059
      },
      "maj_gouv": {
        "Gazole": "2026-04-30 08:07:22",
        "SP95": "2026-04-30 08:07:22",
        "GPLc": "2026-04-04 08:23:44",
        "E10": "2026-04-30 08:07:22",
        "SP98": "2026-04-30 08:07:22"
      }
    },
    {
      "id": "76150003",
      "lat": 49.482,
      "lon": 1.04,
      "cp": "76150",
      "ville": "Maromme",
      "prix": {
        "Gazole": 0.002269,
        "E85": 0.000799,
        "E10": 0.0019790000000000003,
        "SP98": 0.0021190000000000002
      },
      "maj_gouv": {
        "Gazole": "2026-04-13 08:25:31",
        "E85": "2026-04-10 11:14:43",
        "E10": "2026-04-10 11:14:43",
        "SP98": "2026-04-15 09:19:32"
      }
    },
    {
      "id": "76770003",
      "lat": 49.502,
      "lon": 1.043,
      "cp": "76770",
      "ville": "LE HOULME",
      "prix": {
        "Gazole": 0.00209,
        "E10": 0.00199
      },
      "maj_gouv": {
        "Gazole": "2026-05-02 00:01:00",
        "E10": "2026-05-02 00:01:00"
      }
    },
    {
      "id": "76190003",
      "lat": 49.626,
      "lon": 0.788,
      "cp": "76190",
      "ville": "Sainte-Marie-des-Champs",
      "prix": {
        "Gazole": 0.002129,
        "E85": 0.0008179999999999999,
        "GPLc": 0.000999,
        "E10": 0.001999,
        "SP98": 0.002049
      },
      "maj_gouv": {
        "Gazole": "2026-04-28 08:50:29",
        "E85": "2026-04-17 08:37:11",
        "GPLc": "2026-04-24 10:19:52",
        "E10": "2026-04-28 08:50:29",
        "SP98": "2026-04-28 08:50:29"
      }
    },
    {
      "id": "76290003",
      "lat": 49.539957570000006,
      "lon": 0.17773185000000002,
      "cp": "76290",
      "ville": "Montivilliers",
      "prix": {
        "Gazole": 0.002114,
        "E85": 0.0008179999999999999,
        "E10": 0.001984
      },
      "maj_gouv": {
        "Gazole": "2026-04-29 10:15:48",
        "E85": "2026-04-17 13:53:31",
        "E10": "2026-04-30 09:33:14"
      }
    },
    {
      "id": "76950002",
      "lat": 49.7895378062,
      "lon": 1.21887113953,
      "cp": "76950",
      "ville": "LES GRANDES VENTES",
      "prix": {
        "Gazole": 0.002189,
        "SP95": 0.002069
      },
      "maj_gouv": {
        "Gazole": "2026-04-25 07:21:20",
        "SP95": "2026-04-24 07:38:45"
      }
    },
    {
      "id": "76210005",
      "lat": 49.57,
      "lon": 0.49,
      "cp": "76210",
      "ville": "BOLBEC",
      "prix": {
        "Gazole": 0.002139,
        "GPLc": 0.000999,
        "E10": 0.0019690000000000003,
        "SP98": 0.002079
      },
      "maj_gouv": {
        "Gazole": "2026-04-30 13:03:25",
        "GPLc": "2026-04-21 08:12:12",
        "E10": "2026-04-30 13:03:25",
        "SP98": "2026-04-30 13:03:25"
      }
    },
    {
      "id": "76760002",
      "lat": 49.667,
      "lon": 0.898,
      "cp": "76760",
      "ville": "YERVILLE",
      "prix": {
        "Gazole": 0.002179,
        "SP95": 0.002019,
        "E10": 0.001999,
        "SP98": 0.002099
      },
      "maj_gouv": {
        "Gazole": "2026-04-30 19:00:00",
        "SP95": "2026-04-30 09:06:15",
        "E10": "2026-04-30 09:06:15",
        "SP98": "2026-04-30 09:06:15"
      }
    },
    {
      "id": "76400010",
      "lat": 49.767597716663,
      "lon": 0.4192826526266,
      "cp": "76400",
      "ville": "Senneville-sur-Fécamp",
      "prix": {
        "Gazole": 0.002242
      },
      "maj_gouv": {
        "Gazole": "2026-04-24 14:29:38"
      }
    },
    {
      "id": "76700005",
      "lat": 49.509,
      "lon": 0.226,
      "cp": "76700",
      "ville": "GONFREVILLE-L'ORCHER",
      "prix": {
        "Gazole": 0.00213,
        "E85": 0.0007650000000000001,
        "GPLc": 0.001072,
        "E10": 0.002007,
        "SP98": 0.002049
      },
      "maj_gouv": {
        "Gazole": "2026-05-02 01:17:00",
        "E85": "2026-05-02 01:17:00",
        "GPLc": "2026-05-02 01:17:00",
        "E10": "2026-05-02 01:17:00",
        "SP98": "2026-05-02 01:17:00"
      }
    },
    {
      "id": "76210004",
      "lat": 49.58,
      "lon": 0.474,
      "cp": "76210",
      "ville": "Bolbec",
      "prix": {
        "Gazole": 0.002121,
        "E85": 0.000819,
        "E10": 0.001955,
        "SP98": 0.002062
      },
      "maj_gouv": {
        "Gazole": "2026-04-30 07:19:46",
        "E85": "2026-04-17 06:35:17",
        "E10": "2026-04-30 07:19:46",
        "SP98": "2026-04-30 07:19:46"
      }
    },
    {
      "id": "76480002",
      "lat": 49.498,
      "lon": 0.929,
      "cp": "76480",
      "ville": "Saint-Pierre-de-Varengeville",
      "prix": {
        "Gazole": 0.002212,
        "SP95": 0.002065,
        "E10": 0.002008,
        "SP98": 0.00212
      },
      "maj_gouv": {
        "Gazole": "2026-04-28 09:37:37",
        "SP95": "2026-04-28 09:37:38",
        "E10": "2026-04-28 09:37:38",
        "SP98": "2026-04-28 09:37:38"
      }
    },
    {
      "id": "76580002",
      "lat": 49.483,
      "lon": 0.807,
      "cp": "76580",
      "ville": "LE TRAIT",
      "prix": {
        "Gazole": 0.002285,
        "SP98": 0.0021880000000000003
      },
      "maj_gouv": {
        "Gazole": "2026-04-30 15:00:00",
        "SP98": "2026-04-30 15:00:00"
      }
    },
    {
      "id": "76850001",
      "lat": 49.631,
      "lon": 1.18,
      "cp": "76850",
      "ville": "BOSC-LE-HARD",
      "prix": {
        "Gazole": 0.002179,
        "SP95": 0.002049,
        "SP98": 0.002129
      },
      "maj_gouv": {
        "Gazole": "2026-04-30 08:18:31",
        "SP95": "2026-04-30 08:18:31",
        "SP98": "2026-04-30 08:18:31"
      }
    },
    {
      "id": "76600021",
      "lat": 49.489,
      "lon": 0.098,
      "cp": "76600",
      "ville": "LE HAVRE",
      "prix": {
        "Gazole": 0.00209,
        "SP98": 0.00199
      },
      "maj_gouv": {
        "Gazole": "2026-05-02 00:01:00",
        "SP98": "2026-05-02 00:01:00"
      }
    },
    {
      "id": "76200004",
      "lat": 49.90522,
      "lon": 1.07678,
      "cp": "76200",
      "ville": "DIEPPE",
      "prix": {
        "Gazole": 0.00209,
        "E85": 0.000839,
        "E10": 0.00199,
        "SP98": 0.00199
      },
      "maj_gouv": {
        "Gazole": "2026-05-02 00:01:00",
        "E85": "2026-05-02 00:01:00",
        "E10": "2026-05-02 00:01:00",
        "SP98": "2026-05-02 00:01:00"
      }
    },
    {
      "id": "76440008",
      "lat": 49.611,
      "lon": 1.547,
      "cp": "76440",
      "ville": "Forges-les-Eaux",
      "prix": {
        "Gazole": 0.002491,
        "SP95": 0.002055,
        "SP98": 0.002124
      },
      "maj_gouv": {
        "Gazole": "2026-04-07 08:21:55",
        "SP95": "2026-04-07 08:21:55",
        "SP98": "2026-04-07 08:21:55"
      }
    },
    {
      "id": "76210006",
      "lat": 49.614,
      "lon": 0.546,
      "cp": "76210",
      "ville": "Bolleville",
      "prix": {
        "Gazole": 0.002315,
        "GPLc": 0.001159,
        "E10": 0.0021349999999999997,
        "SP98": 0.002235
      },
      "maj_gouv": {
        "Gazole": "2026-05-01 07:46:00",
        "GPLc": "2026-05-01 07:46:00",
        "E10": "2026-05-01 07:46:00",
        "SP98": "2026-05-01 07:46:00"
      }
    },
    {
      "id": "76610006",
      "lat": 49.509322000000004,
      "lon": 0.15951,
      "cp": "76610",
      "ville": "LE HAVRE",
      "prix": {
        "Gazole": 0.00235,
        "SP95": 0.0020800000000000003,
        "E10": 0.001999
      },
      "maj_gouv": {
        "Gazole": "2026-04-29 11:35:55",
        "SP95": "2026-04-29 11:35:55",
        "E10": "2026-04-29 11:35:55"
      }
    },
    {
      "id": "76120011",
      "lat": 49.41,
      "lon": 1.033,
      "cp": "76120",
      "ville": "Le Grand-Quevilly",
      "prix": {
        "Gazole": 0.002229,
        "E10": 0.002069,
        "SP98": 0.0019590000000000002
      },
      "maj_gouv": {
        "Gazole": "2026-05-01 11:26:40",
        "E10": "2026-05-01 11:26:40",
        "SP98": "2025-08-26 10:57:29"
      }
    },
    {
      "id": "76280003",
      "lat": 49.643,
      "lon": 0.269,
      "cp": "76280",
      "ville": "Criquetot-l'Esneval",
      "prix": {
        "Gazole": 0.002129,
        "E10": 0.0019890000000000003,
        "SP98": 0.002079
      },
      "maj_gouv": {
        "Gazole": "2026-04-30 10:27:07",
        "E10": "2026-04-30 10:27:07",
        "SP98": "2026-04-30 10:27:07"
      }
    },
    {
      "id": "76600023",
      "lat": 49.503,
      "lon": 0.191,
      "cp": "76600",
      "ville": "LE HAVRE",
      "prix": {},
      "maj_gouv": {}
    },
    {
      "id": "76110001",
      "lat": 49.64469,
      "lon": 0.37595,
      "cp": "76110",
      "ville": "Goderville",
      "prix": {
        "Gazole": 0.002129,
        "SP95": 0.002028,
        "E85": 0.0008209999999999999,
        "GPLc": 0.001019,
        "SP98": 0.002099
      },
      "maj_gouv": {
        "Gazole": "2026-04-30 10:20:29",
        "SP95": "2026-04-30 10:20:29",
        "E85": "2026-04-30 10:20:29",
        "GPLc": "2026-04-16 14:54:55",
        "SP98": "2026-04-30 10:20:29"
      }
    },
    {
      "id": "76000015",
      "lat": 49.44973619068001,
      "lon": 1.0493244909955,
      "cp": "76000",
      "ville": "ROUEN",
      "prix": {
        "Gazole": 0.002234,
        "E10": 0.002036,
        "SP98": 0.0021579999999999998
      },
      "maj_gouv": {
        "Gazole": "2026-04-28 23:50:00",
        "E10": "2026-04-28 23:50:00",
        "SP98": "2026-04-29 23:50:00"
      }
    },
    {
      "id": "76740002",
      "lat": 49.833,
      "lon": 0.906,
      "cp": "76740",
      "ville": "LA GAILLARDE",
      "prix": {
        "Gazole": 0.0021230000000000003,
        "E85": 0.0008179999999999999,
        "E10": 0.001957,
        "SP98": 0.002064
      },
      "maj_gouv": {
        "Gazole": "2026-04-30 16:05:46",
        "E85": "2026-04-24 12:19:15",
        "E10": "2026-04-30 16:05:46",
        "SP98": "2026-04-30 16:05:46"
      }
    },
    {
      "id": "76220004",
      "lat": 49.478,
      "lon": 1.74,
      "cp": "76220",
      "ville": "Gournay-en-Bray",
      "prix": {
        "Gazole": 0.002199,
        "SP95": 0.002099,
        "E85": 0.0008489999999999999,
        "GPLc": 0.000999,
        "E10": 0.002049,
        "SP98": 0.002139
      },
      "maj_gouv": {
        "Gazole": "2026-04-28 08:47:21",
        "SP95": "2026-04-28 07:25:12",
        "E85": "2026-04-14 06:47:08",
        "GPLc": "2026-04-13 06:57:55",
        "E10": "2026-04-28 07:25:12",
        "SP98": "2026-04-28 07:25:12"
      }
    },
    {
      "id": "76540002",
      "lat": 49.74522522720599,
      "lon": 0.51213110511015,
      "cp": "76540",
      "ville": "Valmont",
      "prix": {
        "Gazole": 0.002189,
        "SP95": 0.001999,
        "SP98": 0.002095
      },
      "maj_gouv": {
        "Gazole": "2026-04-28 10:33:42",
        "SP95": "2026-04-28 10:33:42",
        "SP98": "2026-04-28 10:33:42"
      }
    },
    {
      "id": "76260004",
      "lat": 50.043,
      "lon": 1.42,
      "cp": "76260",
      "ville": "Eu",
      "prix": {
        "Gazole": 0.002269,
        "E10": 0.002079,
        "SP98": 0.002139
      },
      "maj_gouv": {
        "Gazole": "2026-04-30 16:16:00",
        "E10": "2026-04-30 16:16:00",
        "SP98": "2026-04-30 16:16:00"
      }
    },
    {
      "id": "76340005",
      "lat": 49.930638045392996,
      "lon": 1.6370643011109,
      "cp": "76340",
      "ville": "BLANGY SUR BRESLE",
      "prix": {
        "Gazole": 0.0021939999999999998,
        "E85": 0.0008139999999999999,
        "GPLc": 0.00095,
        "E10": 0.002027,
        "SP98": 0.002101
      },
      "maj_gouv": {
        "Gazole": "2026-04-28 06:42:22",
        "E85": "2026-04-14 05:38:06",
        "GPLc": "2025-12-22 05:57:11",
        "E10": "2026-04-28 06:42:22",
        "SP98": "2026-04-28 06:42:22"
      }
    },
    {
      "id": "76410001",
      "lat": 49.303,
      "lon": 1.035,
      "cp": "76410",
      "ville": "Saint-Aubin-lès-Elbeuf",
      "prix": {
        "Gazole": 0.00226,
        "E10": 0.0020499999999999997,
        "SP98": 0.00215
      },
      "maj_gouv": {
        "Gazole": "2026-04-30 09:06:54",
        "E10": "2026-04-30 09:06:54",
        "SP98": "2026-04-30 09:06:54"
      }
    },
    {
      "id": "76360001",
      "lat": 49.534896206291,
      "lon": 0.96409769058218,
      "cp": "76360",
      "ville": "BARENTIN",
      "prix": {
        "Gazole": 0.00218,
        "SP95": 0.00211,
        "E10": 0.0020139999999999997,
        "SP98": 0.002161
      },
      "maj_gouv": {
        "Gazole": "2026-05-02 00:40:00",
        "SP95": "2026-05-02 00:40:00",
        "E10": "2026-05-02 00:40:00",
        "SP98": "2026-05-02 00:40:00"
      }
    },
    {
      "id": "76270001",
      "lat": 49.732,
      "lon": 1.434,
      "cp": "76270",
      "ville": "NEUFCHATEL-EN-BRAY",
      "prix": {
        "SP95": 0.002029,
        "E85": 0.000739,
        "E10": 0.001999
      },
      "maj_gouv": {
        "SP95": "2026-04-29 08:30:00",
        "E85": "2026-04-16 08:30:00",
        "E10": "2026-04-29 08:30:00"
      }
    },
    {
      "id": "76600024",
      "lat": 49.49878,
      "lon": 0.15925,
      "cp": "76600",
      "ville": "LE HAVRE",
      "prix": {
        "Gazole": 0.00209,
        "GPLc": 0.001035,
        "E10": 0.00199
      },
      "maj_gouv": {
        "Gazole": "2026-05-02 00:01:00",
        "GPLc": "2026-05-02 00:01:00",
        "E10": "2026-05-02 00:01:00"
      }
    },
    {
      "id": "76730001",
      "lat": 49.79,
      "lon": 0.998,
      "cp": "76730",
      "ville": "BACQUEVILLE-EN-CAUX",
      "prix": {
        "Gazole": 0.002179,
        "SP95": 0.0020350000000000004,
        "SP98": 0.002099
      },
      "maj_gouv": {
        "Gazole": "2026-04-29 17:16:49",
        "SP95": "2026-04-29 17:16:49",
        "SP98": "2026-04-29 17:16:49"
      }
    },
    {
      "id": "76400001",
      "lat": 49.74874,
      "lon": 0.40324,
      "cp": "76400",
      "ville": "FéCAMP",
      "prix": {
        "Gazole": 0.002189,
        "SP95": 0.002079,
        "SP98": 0.002189
      },
      "maj_gouv": {
        "Gazole": "2026-04-22 08:38:06",
        "SP95": "2026-04-22 08:38:06",
        "SP98": "2026-04-22 08:38:06"
      }
    },
    {
      "id": "76750001",
      "lat": 49.598,
      "lon": 1.342,
      "cp": "76750",
      "ville": "BUCHY",
      "prix": {
        "E10": 0.0020009999999999997,
        "SP98": 0.002129
      },
      "maj_gouv": {
        "E10": "2026-04-30 11:23:49",
        "SP98": "2026-04-30 11:23:49"
      }
    },
    {
      "id": "76950003",
      "lat": 49.79,
      "lon": 1.22,
      "cp": "76950",
      "ville": "LES GRANDES VENTES",
      "prix": {
        "Gazole": 0.0022280000000000004,
        "SP95": 0.002079,
        "SP98": 0.002129
      },
      "maj_gouv": {
        "Gazole": "2026-04-30 15:44:22",
        "SP95": "2026-04-14 11:07:34",
        "SP98": "2026-04-11 09:28:10"
      }
    },
    {
      "id": "76870001",
      "lat": 49.654,
      "lon": 1.615,
      "cp": "76870",
      "ville": "Gaillefontaine",
      "prix": {
        "Gazole": 0.00219,
        "E10": 0.00204,
        "SP98": 0.00213
      },
      "maj_gouv": {
        "Gazole": "2026-04-30 11:25:52",
        "E10": "2026-04-27 11:43:42",
        "SP98": "2026-04-30 11:25:52"
      }
    },
    {
      "id": "76530004",
      "lat": 49.343,
      "lon": 0.939,
      "cp": "76530",
      "ville": "MOULINEAUX",
      "prix": {
        "Gazole": 0.00209,
        "E10": 0.00199
      },
      "maj_gouv": {
        "Gazole": "2026-05-02 00:01:00",
        "E10": "2026-05-02 00:01:00"
      }
    },
    {
      "id": "76250001",
      "lat": 49.471,
      "lon": 1.043,
      "cp": "76250",
      "ville": "Déville-lès-Rouen",
      "prix": {
        "Gazole": 0.002469,
        "SP95": 0.002139,
        "SP98": 0.002199
      },
      "maj_gouv": {
        "Gazole": "2026-04-15 09:25:37",
        "SP95": "2026-04-15 09:25:37",
        "SP98": "2026-04-15 09:25:37"
      }
    },
    {
      "id": "76610004",
      "lat": 49.518,
      "lon": 0.158,
      "cp": "76610",
      "ville": "LE HAVRE",
      "prix": {
        "Gazole": 0.00209,
        "E10": 0.00199
      },
      "maj_gouv": {
        "Gazole": "2026-05-02 00:01:00",
        "E10": "2026-05-02 00:01:00"
      }
    },
    {
      "id": "76700006",
      "lat": 49.511941098293,
      "lon": 0.20041534246844,
      "cp": "76700",
      "ville": "HARFLEUR",
      "prix": {
        "Gazole": 0.00209,
        "E85": 0.000829,
        "E10": 0.00199
      },
      "maj_gouv": {
        "Gazole": "2026-05-02 00:01:00",
        "E85": "2026-05-02 00:01:00",
        "E10": "2026-05-02 00:01:00"
      }
    },
    {
      "id": "76133001",
      "lat": 49.562,
      "lon": 0.221,
      "cp": "76133",
      "ville": "ÉPOUVILLE",
      "prix": {
        "Gazole": 0.002215,
        "E10": 0.002023,
        "SP98": 0.002121
      },
      "maj_gouv": {
        "Gazole": "2026-04-29 08:29:29",
        "E10": "2026-04-29 08:29:29",
        "SP98": "2026-04-29 08:29:30"
      }
    },
    {
      "id": "76600001",
      "lat": 49.495,
      "lon": 0.155,
      "cp": "76600",
      "ville": "LE HAVRE",
      "prix": {
        "Gazole": 0.002227,
        "SP95": 0.002052,
        "SP98": 0.0021349999999999997
      },
      "maj_gouv": {
        "Gazole": "2026-04-30 13:16:57",
        "SP95": "2026-04-30 13:16:57",
        "SP98": "2026-04-30 13:16:58"
      }
    },
    {
      "id": "76000009",
      "lat": 49.449,
      "lon": 1.067,
      "cp": "76000",
      "ville": "ROUEN",
      "prix": {
        "Gazole": 0.002179,
        "E85": 0.0008179999999999999,
        "E10": 0.001999,
        "SP98": 0.002111
      },
      "maj_gouv": {
        "Gazole": "2026-04-30 20:15:45",
        "E85": "2026-04-30 20:15:45",
        "E10": "2026-04-30 20:15:45",
        "SP98": "2026-04-30 20:15:45"
      }
    },
    {
      "id": "74500002",
      "lat": 49.7555111909,
      "lon": 0.374491663689,
      "cp": "76400",
      "ville": "FéCAMP",
      "prix": {
        "Gazole": 0.0021230000000000003,
        "SP95": 0.002028,
        "SP98": 0.002099
      },
      "maj_gouv": {
        "Gazole": "2026-04-30 10:12:30",
        "SP95": "2026-04-30 10:12:30",
        "SP98": "2026-04-30 10:12:31"
      }
    },
    {
      "id": "76190001",
      "lat": 49.624,
      "lon": 0.779,
      "cp": "76190",
      "ville": "Sainte-Marie-des-Champs",
      "prix": {
        "Gazole": 0.00225,
        "E85": 0.0008349999999999999,
        "E10": 0.00199,
        "SP98": 0.00199
      },
      "maj_gouv": {
        "Gazole": "2026-04-30 08:14:17",
        "E85": "2026-04-30 08:14:17",
        "E10": "2026-04-30 08:14:17",
        "SP98": "2026-04-30 08:14:17"
      }
    },
    {
      "id": "76240002",
      "lat": 49.407311369631,
      "lon": 1.152053904217,
      "cp": "76240",
      "ville": "Le Mesnil-Esnard",
      "prix": {
        "Gazole": 0.00218,
        "E10": 0.001935,
        "SP98": 0.002058
      },
      "maj_gouv": {
        "Gazole": "2026-04-17 11:34:02",
        "E10": "2026-04-17 11:34:02",
        "SP98": "2026-04-17 11:34:02"
      }
    },
    {
      "id": "76120002",
      "lat": 49.418,
      "lon": 1.046,
      "cp": "76120",
      "ville": "Le Grand-Quevilly",
      "prix": {
        "Gazole": 0.002179,
        "SP95": 0.002059,
        "E85": 0.000749,
        "GPLc": 0.000999,
        "E10": 0.002019,
        "SP98": 0.002089
      },
      "maj_gouv": {
        "Gazole": "2026-04-30 01:00:00",
        "SP95": "2026-04-30 01:00:00",
        "E85": "2026-04-25 09:28:19",
        "GPLc": "2026-04-25 09:28:19",
        "E10": "2026-04-30 01:00:00",
        "SP98": "2026-04-30 01:00:00"
      }
    },
    {
      "id": "76380006",
      "lat": 49.450973674913996,
      "lon": 1.0342499010497999,
      "cp": "76380",
      "ville": "CANTELEU",
      "prix": {
        "Gazole": 0.0024590000000000002,
        "E10": 0.00199,
        "SP98": 0.00211
      },
      "maj_gouv": {
        "Gazole": "2026-04-09 09:56:45",
        "E10": "2026-04-09 09:56:45",
        "SP98": "2026-04-09 09:56:45"
      }
    },
    {
      "id": "76290001",
      "lat": 49.525,
      "lon": 0.19,
      "cp": "76290",
      "ville": "MONTIVILLIERS",
      "prix": {
        "Gazole": 0.002117,
        "SP95": 0.00199,
        "GPLc": 0.001077,
        "E10": 0.002008,
        "SP98": 0.002045
      },
      "maj_gouv": {
        "Gazole": "2026-04-30 09:45:06",
        "SP95": "2026-04-30 09:45:06",
        "GPLc": "2026-04-30 09:45:06",
        "E10": "2026-04-30 09:45:06",
        "SP98": "2026-04-30 09:45:06"
      }
    },
    {
      "id": "76370002",
      "lat": 49.94,
      "lon": 1.186,
      "cp": "76370",
      "ville": "BERNEVAL-LE-GRAND",
      "prix": {
        "Gazole": 0.00225,
        "SP95": 0.00199
      },
      "maj_gouv": {
        "Gazole": "2026-04-13 09:27:39",
        "SP95": "2026-04-13 09:27:39"
      }
    },
    {
      "id": "76120008",
      "lat": 49.401,
      "lon": 1.065,
      "cp": "76120",
      "ville": "Le Grand-Quevilly",
      "prix": {
        "Gazole": 0.00209,
        "E85": 0.0008489999999999999,
        "E10": 0.00199,
        "SP98": 0.00199
      },
      "maj_gouv": {
        "Gazole": "2026-05-02 00:01:00",
        "E85": "2026-05-02 00:01:00",
        "E10": "2026-05-02 00:01:00",
        "SP98": "2026-05-02 00:01:00"
      }
    },
    {
      "id": "76160003",
      "lat": 49.4451337,
      "lon": 1.1742042,
      "cp": "76160",
      "ville": "SAINT JACQUES SUR DARNETAL",
      "prix": {
        "Gazole": 0.002199,
        "E85": 0.0008489999999999999,
        "GPLc": 0.000999,
        "E10": 0.002049,
        "SP98": 0.002129
      },
      "maj_gouv": {
        "Gazole": "2026-04-28 01:00:00",
        "E85": "2026-04-14 01:00:00",
        "GPLc": "2026-04-13 01:00:00",
        "E10": "2026-04-28 01:00:00",
        "SP98": "2026-04-30 01:00:00"
      }
    },
    {
      "id": "76370006",
      "lat": 49.914,
      "lon": 1.094,
      "cp": "76370",
      "ville": "DIEPPE",
      "prix": {
        "Gazole": 0.002189,
        "SP95": 0.002029,
        "E85": 0.000819,
        "E10": 0.001977,
        "SP98": 0.002079
      },
      "maj_gouv": {
        "Gazole": "2026-04-29 09:41:52",
        "SP95": "2026-04-27 07:30:20",
        "E85": "2026-04-18 10:02:25",
        "E10": "2026-04-29 09:41:52",
        "SP98": "2026-04-27 07:30:20"
      }
    },
    {
      "id": "76500004",
      "lat": 49.287,
      "lon": 1.013,
      "cp": "76500",
      "ville": "ELBEUF",
      "prix": {
        "Gazole": 0.00209,
        "E85": 0.000839,
        "E10": 0.00199,
        "SP98": 0.00199
      },
      "maj_gouv": {
        "Gazole": "2026-05-02 00:01:00",
        "E85": "2026-05-02 00:01:00",
        "E10": "2026-05-02 00:01:00",
        "SP98": "2026-05-02 00:01:00"
      }
    },
    {
      "id": "76000013",
      "lat": 49.437,
      "lon": 1.137,
      "cp": "76000",
      "ville": "ROUEN",
      "prix": {
        "Gazole": 0.00209
      },
      "maj_gouv": {
        "Gazole": "2026-05-02 00:01:00"
      }
    },
    {
      "id": "76530003",
      "lat": 49.3642,
      "lon": 1.01147,
      "cp": "76530",
      "ville": "GRAND-COURONNE",
      "prix": {
        "Gazole": 0.002173,
        "E10": 0.001983,
        "SP98": 0.002094
      },
      "maj_gouv": {
        "Gazole": "2026-04-29 09:00:00",
        "E10": "2026-04-29 09:00:00",
        "SP98": "2026-04-29 09:00:00"
      }
    },
    {
      "id": "76590001",
      "lat": 49.771,
      "lon": 1.049,
      "cp": "76590",
      "ville": "BELMESNIL",
      "prix": {
        "Gazole": 0.002199,
        "SP95": 0.002057,
        "E85": 0.0009170000000000001,
        "SP98": 0.002101
      },
      "maj_gouv": {
        "Gazole": "2026-04-21 19:27:06",
        "SP95": "2026-04-27 19:18:16",
        "E85": "2026-04-27 19:18:16",
        "SP98": "2026-04-27 19:18:16"
      }
    },
    {
      "id": "76480001",
      "lat": 49.48,
      "lon": 0.873,
      "cp": "76480",
      "ville": "DUCLAIR",
      "prix": {
        "Gazole": 0.00225
      },
      "maj_gouv": {
        "Gazole": "2026-04-25 07:26:51"
      }
    },
    {
      "id": "76810002",
      "lat": 49.832925015872995,
      "lon": 0.91717087582721,
      "cp": "76810",
      "ville": "Luneray",
      "prix": {
        "Gazole": 0.002115,
        "E10": 0.001946,
        "SP98": 0.002057
      },
      "maj_gouv": {
        "Gazole": "2026-04-30 10:04:35",
        "E10": "2026-04-30 10:04:35",
        "SP98": "2026-04-30 10:04:36"
      }
    },
    {
      "id": "76190005",
      "lat": 49.62113,
      "lon": 0.76692,
      "cp": "76190",
      "ville": "YVETOT",
      "prix": {
        "Gazole": 0.002199,
        "SP95": 0.002059,
        "SP98": 0.002089
      },
      "maj_gouv": {
        "Gazole": "2026-04-30 06:00:00",
        "SP95": "2026-04-29 18:12:08",
        "SP98": "2026-04-29 18:12:08"
      }
    },
    {
      "id": "76150002",
      "lat": 49.495,
      "lon": 0.998,
      "cp": "76150",
      "ville": "Saint-Jean-du-Cardonnay",
      "prix": {
        "Gazole": 0.002303,
        "E85": 0.0009130000000000001,
        "E10": 0.002096,
        "SP98": 0.002196
      },
      "maj_gouv": {
        "Gazole": "2026-05-01 06:31:00",
        "E85": "2026-05-01 06:31:00",
        "E10": "2026-05-01 06:31:00",
        "SP98": "2026-05-01 06:31:00"
      }
    },
    {
      "id": "76130001",
      "lat": 49.461,
      "lon": 1.082,
      "cp": "76130",
      "ville": "Mont-Saint-Aignan",
      "prix": {
        "Gazole": 0.002177,
        "E10": 0.001999,
        "SP98": 0.002079
      },
      "maj_gouv": {
        "Gazole": "2026-05-01 07:45:00",
        "E10": "2026-05-01 07:45:00",
        "SP98": "2026-05-01 07:45:00"
      }
    },
    {
      "id": "76580001",
      "lat": 49.486,
      "lon": 0.806,
      "cp": "76580",
      "ville": "LE TRAIT",
      "prix": {
        "Gazole": 0.00225,
        "E10": 0.00199,
        "SP98": 0.00207
      },
      "maj_gouv": {
        "Gazole": "2026-04-26 07:56:00",
        "E10": "2026-04-26 07:56:00",
        "SP98": "2026-04-26 07:56:00"
      }
    },
    {
      "id": "76530002",
      "lat": 49.354,
      "lon": 1.03,
      "cp": "76530",
      "ville": "Grand-Couronne",
      "prix": {
        "Gazole": 0.0021739999999999997,
        "E85": 0.000924,
        "E10": 0.00199,
        "SP98": 0.002068
      },
      "maj_gouv": {
        "Gazole": "2026-05-01 07:46:00",
        "E85": "2026-05-01 07:46:00",
        "E10": "2026-05-01 07:46:00",
        "SP98": "2026-05-01 07:46:00"
      }
    },
    {
      "id": "76710001",
      "lat": 49.54109,
      "lon": 1.06286,
      "cp": "76710",
      "ville": "MONTVILLE",
      "prix": {
        "Gazole": 0.002225,
        "E85": 0.000819,
        "E10": 0.002,
        "SP98": 0.00211
      },
      "maj_gouv": {
        "Gazole": "2026-04-29 08:53:27",
        "E85": "2026-04-16 08:52:38",
        "E10": "2026-04-29 08:53:38",
        "SP98": "2026-04-29 08:53:48"
      }
    },
    {
      "id": "76620003",
      "lat": 49.512,
      "lon": 0.127,
      "cp": "76620",
      "ville": "Le Havre",
      "prix": {
        "Gazole": 0.002149,
        "E10": 0.001999,
        "SP98": 0.0020310000000000003
      },
      "maj_gouv": {
        "Gazole": "2026-05-01 07:45:00",
        "E10": "2026-05-01 07:45:00",
        "SP98": "2026-05-01 07:45:00"
      }
    },
    {
      "id": "76610002",
      "lat": 49.508,
      "lon": 0.175,
      "cp": "76610",
      "ville": "Le Havre",
      "prix": {
        "Gazole": 0.002209,
        "E10": 0.00199,
        "SP98": 0.00207
      },
      "maj_gouv": {
        "Gazole": "2026-05-01 06:31:00",
        "E10": "2026-05-01 06:31:00",
        "SP98": "2026-05-01 06:31:00"
      }
    },
    {
      "id": "76800002",
      "lat": 49.395,
      "lon": 1.112,
      "cp": "76800",
      "ville": "Saint-Étienne-du-Rouvray",
      "prix": {
        "Gazole": 0.0021880000000000003,
        "E10": 0.00199,
        "SP98": 0.00207
      },
      "maj_gouv": {
        "Gazole": "2026-05-01 07:46:00",
        "E10": "2026-05-01 07:46:00",
        "SP98": "2026-05-01 07:46:00"
      }
    },
    {
      "id": "76700007",
      "lat": 49.47933,
      "lon": 0.25865,
      "cp": "76700",
      "ville": "ROGERVILLE",
      "prix": {
        "Gazole": 0.00209,
        "E85": 0.000837,
        "E10": 0.00199
      },
      "maj_gouv": {
        "Gazole": "2026-05-02 00:01:00",
        "E85": "2026-05-02 00:01:00",
        "E10": "2026-05-02 00:01:00"
      }
    },
    {
      "id": "76230001",
      "lat": 49.47557,
      "lon": 1.10624,
      "cp": "76230",
      "ville": "BOIS-GUILLAUME",
      "prix": {
        "Gazole": 0.002142,
        "E10": 0.001977,
        "SP98": 0.0021019999999999997
      },
      "maj_gouv": {
        "Gazole": "2026-04-28 08:43:42",
        "E10": "2026-04-28 08:43:42",
        "SP98": "2026-04-28 08:43:42"
      }
    },
    {
      "id": "76140001",
      "lat": 49.427,
      "lon": 1.063,
      "cp": "76140",
      "ville": "LE PETIT-QUEVILLY",
      "prix": {
        "Gazole": 0.0022299999999999998,
        "E85": 0.000855,
        "E10": 0.0020150000000000003,
        "SP98": 0.00215
      },
      "maj_gouv": {
        "Gazole": "2026-04-29 13:12:57",
        "E85": "2026-04-29 13:12:57",
        "E10": "2026-04-29 13:12:57",
        "SP98": "2026-04-29 13:12:57"
      }
    },
    {
      "id": "76340003",
      "lat": 49.85,
      "lon": 1.57,
      "cp": "76340",
      "ville": "Foucarmont",
      "prix": {
        "Gazole": 0.002195,
        "SP95": 0.002049,
        "SP98": 0.002095
      },
      "maj_gouv": {
        "Gazole": "2026-04-25 09:36:14",
        "SP95": "2026-04-25 09:36:14",
        "SP98": "2026-04-25 09:36:14"
      }
    },
    {
      "id": "76000006",
      "lat": 49.435,
      "lon": 1.105,
      "cp": "76000",
      "ville": "ROUEN",
      "prix": {
        "Gazole": 0.002299,
        "E85": 0.0009649999999999999,
        "E10": 0.002099,
        "SP98": 0.002199
      },
      "maj_gouv": {
        "Gazole": "2026-04-27 23:59:00",
        "E85": "2026-04-27 23:59:00",
        "E10": "2026-04-27 23:59:00",
        "SP98": "2026-04-27 23:59:00"
      }
    },
    {
      "id": "76300005",
      "lat": 49.421,
      "lon": 1.096,
      "cp": "76300",
      "ville": "SOTTEVILLE-LèS-ROUEN",
      "prix": {
        "Gazole": 0.00216,
        "E85": 0.0008179999999999999,
        "E10": 0.00197,
        "SP98": 0.002088
      },
      "maj_gouv": {
        "Gazole": "2026-04-29 09:55:54",
        "E85": "2026-04-17 10:13:13",
        "E10": "2026-04-30 09:48:49",
        "SP98": "2026-04-30 09:48:49"
      }
    },
    {
      "id": "76116003",
      "lat": 49.462,
      "lon": 1.257,
      "cp": "76116",
      "ville": "Servaville-Salmonville",
      "prix": {
        "Gazole": 0.00209,
        "SP98": 0.00199
      },
      "maj_gouv": {
        "Gazole": "2026-05-01 10:40:40",
        "SP98": "2026-04-15 18:00:17"
      }
    },
    {
      "id": "76500005",
      "lat": 49.286,
      "lon": 1.009,
      "cp": "76500",
      "ville": "ELBEUF",
      "prix": {
        "Gazole": 0.002199,
        "E10": 0.0019890000000000003,
        "SP98": 0.002089
      },
      "maj_gouv": {
        "Gazole": "2026-04-30 14:44:34",
        "E10": "2026-04-30 14:44:34",
        "SP98": "2026-04-20 15:30:09"
      }
    },
    {
      "id": "76420004",
      "lat": 49.459,
      "lon": 1.126,
      "cp": "76420",
      "ville": "BIHOREL",
      "prix": {
        "Gazole": 0.0022789999999999998,
        "SP95": 0.002029,
        "E10": 0.0019790000000000003
      },
      "maj_gouv": {
        "Gazole": "2026-04-18 09:41:07",
        "SP95": "2026-04-18 09:41:08",
        "E10": "2026-04-18 09:41:08"
      }
    },
    {
      "id": "76260003",
      "lat": 50.032,
      "lon": 1.399,
      "cp": "76260",
      "ville": "ETALONDES",
      "prix": {
        "Gazole": 0.002189,
        "SP95": 0.002045,
        "E85": 0.000749,
        "GPLc": 0.0010249999999999999,
        "E10": 0.001999
      },
      "maj_gouv": {
        "Gazole": "2026-04-29 09:50:37",
        "SP95": "2026-04-29 09:50:38",
        "E85": "2026-04-29 09:50:38",
        "GPLc": "2026-04-22 09:40:06",
        "E10": "2026-04-29 09:50:38"
      }
    },
    {
      "id": "76220008",
      "lat": 49.473,
      "lon": 1.726,
      "cp": "76220",
      "ville": "Gournay-en-Bray",
      "prix": {
        "Gazole": 0.002199,
        "SP95": 0.002045,
        "E85": 0.000856
      },
      "maj_gouv": {
        "Gazole": "2026-04-29 08:41:07",
        "SP95": "2026-04-29 08:41:08",
        "E85": "2026-04-17 17:30:37"
      }
    },
    {
      "id": "76680001",
      "lat": 49.67,
      "lon": 1.284,
      "cp": "76680",
      "ville": "SAINT-SAëNS",
      "prix": {
        "Gazole": 0.002369,
        "SP95": 0.00209,
        "SP98": 0.002159
      },
      "maj_gouv": {
        "Gazole": "2026-04-21 09:08:14",
        "SP95": "2026-04-21 09:08:14",
        "SP98": "2026-04-21 09:08:14"
      }
    },
    {
      "id": "76640004",
      "lat": 49.651,
      "lon": 0.591,
      "cp": "76640",
      "ville": "FAUVILLE-EN-CAUX",
      "prix": {
        "Gazole": 0.002249,
        "SP95": 0.002049,
        "SP98": 0.002099
      },
      "maj_gouv": {
        "Gazole": "2026-04-30 14:56:48",
        "SP95": "2026-04-30 14:56:48",
        "SP98": "2026-04-30 14:56:48"
      }
    },
    {
      "id": "76370004",
      "lat": 49.909,
      "lon": 1.108,
      "cp": "76370",
      "ville": "DIEPPE",
      "prix": {
        "Gazole": 0.002189,
        "SP95": 0.002028,
        "E10": 0.001999,
        "SP98": 0.002079
      },
      "maj_gouv": {
        "Gazole": "2026-04-29 10:35:35",
        "SP95": "2026-04-29 11:17:11",
        "E10": "2026-04-30 11:58:45",
        "SP98": "2026-04-27 10:44:31"
      }
    },
    {
      "id": "76330002",
      "lat": 49.48189,
      "lon": 0.58305,
      "cp": "76330",
      "ville": "Notre-Dame-de-Gravenchon",
      "prix": {
        "Gazole": 0.002219,
        "SP95": 0.002034,
        "SP98": 0.002114
      },
      "maj_gouv": {
        "Gazole": "2026-04-29 08:36:43",
        "SP95": "2026-04-27 09:12:05",
        "SP98": "2026-04-27 09:12:05"
      }
    },
    {
      "id": "76510001",
      "lat": 49.876,
      "lon": 1.234,
      "cp": "76510",
      "ville": "Saint-Nicolas-d'Aliermont",
      "prix": {
        "Gazole": 0.002185,
        "E85": 0.000819,
        "E10": 0.001977,
        "SP98": 0.002079
      },
      "maj_gouv": {
        "Gazole": "2026-04-30 09:00:00",
        "E85": "2026-04-17 09:00:00",
        "E10": "2026-04-30 09:00:00",
        "SP98": "2026-04-30 09:00:00"
      }
    },
    {
      "id": "76700001",
      "lat": 49.503,
      "lon": 0.209,
      "cp": "76700",
      "ville": "Gonfreville-l'Orcher",
      "prix": {
        "Gazole": 0.0023,
        "SP95": 0.0021000000000000003,
        "SP98": 0.00219
      },
      "maj_gouv": {
        "Gazole": "2026-04-29 07:00:00",
        "SP95": "2026-04-15 07:00:00",
        "SP98": "2026-04-08 09:53:11"
      }
    },
    {
      "id": "76270003",
      "lat": 49.725277201557,
      "lon": 1.4597834195908,
      "cp": "76270",
      "ville": "NEUVILLE-FERRIERES",
      "prix": {
        "Gazole": 0.002199,
        "E85": 0.0008489999999999999,
        "E10": 0.002049,
        "SP98": 0.002129
      },
      "maj_gouv": {
        "Gazole": "2026-04-29 01:00:00",
        "E85": "2026-04-14 01:00:00",
        "E10": "2026-04-30 01:00:00",
        "SP98": "2026-04-30 01:00:00"
      }
    },
    {
      "id": "76176001",
      "lat": 49.432,
      "lon": 1.083,
      "cp": "76100",
      "ville": "ROUEN",
      "prix": {
        "Gazole": 0.0021379999999999997,
        "E85": 0.000773,
        "E10": 0.0019950000000000002
      },
      "maj_gouv": {
        "Gazole": "2026-05-02 01:16:00",
        "E85": "2026-05-02 01:16:00",
        "E10": "2026-05-02 01:16:00"
      }
    },
    {
      "id": "76220005",
      "lat": 49.479,
      "lon": 1.713,
      "cp": "76220",
      "ville": "GOURNAY-EN-BRAY",
      "prix": {
        "Gazole": 0.002199,
        "SP95": 0.002099,
        "SP98": 0.002139
      },
      "maj_gouv": {
        "Gazole": "2026-04-28 09:13:13",
        "SP95": "2026-04-28 09:13:13",
        "SP98": "2026-04-28 09:13:13"
      }
    },
    {
      "id": "76230002",
      "lat": 49.470116509600004,
      "lon": 1.11748807822,
      "cp": "76230",
      "ville": "BOIS-GUILLAUME",
      "prix": {
        "Gazole": 0.0022789999999999998,
        "E10": 0.001977
      },
      "maj_gouv": {
        "Gazole": "2026-04-20 08:12:55",
        "E10": "2026-04-20 08:12:55"
      }
    },
    {
      "id": "76440003",
      "lat": 49.62214,
      "lon": 1.53814,
      "cp": "76440",
      "ville": "Serqueux",
      "prix": {
        "Gazole": 0.002199,
        "E85": 0.0008489999999999999,
        "GPLc": 0.000999,
        "E10": 0.002049,
        "SP98": 0.002129
      },
      "maj_gouv": {
        "Gazole": "2026-04-29 01:00:00",
        "E85": "2026-04-14 01:00:00",
        "GPLc": "2026-04-13 01:00:00",
        "E10": "2026-04-30 01:00:00",
        "SP98": "2026-04-30 01:00:00"
      }
    },
    {
      "id": "76200003",
      "lat": 49.919,
      "lon": 1.086,
      "cp": "76200",
      "ville": "DIEPPE",
      "prix": {
        "Gazole": 0.002219,
        "SP95": 0.002055,
        "E85": 0.0008349999999999999,
        "GPLc": 0.001029,
        "SP98": 0.002114
      },
      "maj_gouv": {
        "Gazole": "2026-04-27 17:59:00",
        "SP95": "2026-04-27 17:59:00",
        "E85": "2026-04-27 17:59:00",
        "GPLc": "2026-04-24 08:08:16",
        "SP98": "2026-04-27 17:59:00"
      }
    },
    {
      "id": "76400008",
      "lat": 49.758,
      "lon": 0.392,
      "cp": "76400",
      "ville": "FECAMP",
      "prix": {
        "Gazole": 0.0021190000000000002,
        "E10": 0.002027,
        "SP98": 0.002099
      },
      "maj_gouv": {
        "Gazole": "2026-04-30 10:47:20",
        "E10": "2026-04-30 10:47:20",
        "SP98": "2026-04-30 10:47:20"
      }
    },
    {
      "id": "76131001",
      "lat": 49.472,
      "lon": 1.094,
      "cp": "76130",
      "ville": "MONT-SAINT-AIGNAN",
      "prix": {
        "Gazole": 0.002134,
        "SP95": 0.002019,
        "E10": 0.001971,
        "SP98": 0.002129
      },
      "maj_gouv": {
        "Gazole": "2026-04-30 00:40:00",
        "SP95": "2026-04-30 00:40:00",
        "E10": "2026-04-30 00:40:00",
        "SP98": "2026-04-30 00:40:00"
      }
    },
    {
      "id": "76940001",
      "lat": 49.4791071533,
      "lon": 0.768094546353,
      "cp": "76940",
      "ville": "LA MAILLERAYE-SUR-SEINE",
      "prix": {
        "Gazole": 0.002245,
        "SP95": 0.002072,
        "SP98": 0.002154
      },
      "maj_gouv": {
        "Gazole": "2026-04-28 07:36:25",
        "SP95": "2026-04-28 07:36:25",
        "SP98": "2026-04-28 07:36:25"
      }
    },
    {
      "id": "76340001",
      "lat": 49.847,
      "lon": 1.565,
      "cp": "76340",
      "ville": "FOUCARMONT",
      "prix": {
        "Gazole": 0.002219,
        "SP95": 0.00199,
        "SP98": 0.00199
      },
      "maj_gouv": {
        "Gazole": "2026-04-21 19:14:28",
        "SP95": "2026-04-30 17:37:11",
        "SP98": "2026-04-30 17:37:11"
      }
    },
    {
      "id": "76300004",
      "lat": 49.414,
      "lon": 1.091,
      "cp": "76300",
      "ville": "Sotteville-lès-Rouen",
      "prix": {
        "Gazole": 0.00216,
        "E10": 0.00198,
        "SP98": 0.00212
      },
      "maj_gouv": {
        "Gazole": "2026-04-29 11:09:48",
        "E10": "2026-04-29 11:09:48",
        "SP98": "2026-04-29 11:09:48"
      }
    },
    {
      "id": "76460002",
      "lat": 49.858,
      "lon": 0.693,
      "cp": "76460",
      "ville": "Saint-Valery-en-Caux",
      "prix": {
        "Gazole": 0.002169,
        "E85": 0.000906,
        "GPLc": 0.00115,
        "E10": 0.001999,
        "SP98": 0.00229
      },
      "maj_gouv": {
        "Gazole": "2026-04-29 12:46:23",
        "E85": "2026-04-10 17:47:41",
        "GPLc": "2026-04-27 12:06:04",
        "E10": "2026-04-29 12:51:40",
        "SP98": "2026-04-30 14:48:23"
      }
    },
    {
      "id": "76450001",
      "lat": 49.792,
      "lon": 0.634,
      "cp": "76450",
      "ville": "Cany-Barville",
      "prix": {
        "Gazole": 0.002185,
        "SP95": 0.0020499999999999997,
        "SP98": 0.002133
      },
      "maj_gouv": {
        "Gazole": "2026-04-30 09:37:59",
        "SP95": "2026-04-30 09:37:59",
        "SP98": "2026-04-30 09:37:59"
      }
    },
    {
      "id": "76191001",
      "lat": 49.612,
      "lon": 0.775,
      "cp": "76190",
      "ville": "YVETOT",
      "prix": {
        "Gazole": 0.002129,
        "SP95": 0.002019,
        "E85": 0.000749,
        "GPLc": 0.000999,
        "E10": 0.001999,
        "SP98": 0.002049
      },
      "maj_gouv": {
        "Gazole": "2026-04-28 08:30:00",
        "SP95": "2026-04-28 08:30:00",
        "E85": "2026-04-11 08:30:00",
        "GPLc": "2026-03-09 09:18:57",
        "E10": "2026-04-28 08:30:00",
        "SP98": "2026-04-28 08:30:00"
      }
    },
    {
      "id": "76520002",
      "lat": 49.388880019033,
      "lon": 1.2004598332776,
      "cp": "76520",
      "ville": "Boos",
      "prix": {
        "Gazole": 0.00216,
        "SP95": 0.001996,
        "E10": 0.0019450000000000001
      },
      "maj_gouv": {
        "Gazole": "2026-04-29 09:13:06",
        "SP95": "2026-04-29 09:13:06",
        "E10": "2026-04-29 09:13:06"
      }
    },
    {
      "id": "76460003",
      "lat": 49.864,
      "lon": 0.708,
      "cp": "76460",
      "ville": "SAINT-VALERY-EN-CAUX",
      "prix": {
        "Gazole": 0.00209,
        "E10": 0.00199,
        "SP98": 0.00199
      },
      "maj_gouv": {
        "Gazole": "2026-05-01 08:20:06",
        "E10": "2026-05-01 08:20:06",
        "SP98": "2026-05-01 08:20:06"
      }
    },
    {
      "id": "76760003",
      "lat": 49.661,
      "lon": 0.88,
      "cp": "76760",
      "ville": "YERVILLE",
      "prix": {
        "Gazole": 0.002179,
        "E85": 0.000819,
        "E10": 0.001999,
        "SP98": 0.002099
      },
      "maj_gouv": {
        "Gazole": "2026-04-30 19:00:00",
        "E85": "2026-04-28 09:09:54",
        "E10": "2026-04-30 09:07:32",
        "SP98": "2026-04-30 09:07:32"
      }
    },
    {
      "id": "76300007",
      "lat": 49.421,
      "lon": 1.107,
      "cp": "76300",
      "ville": "Sotteville-lès-Rouen",
      "prix": {
        "Gazole": 0.002299,
        "E85": 0.0009649999999999999,
        "GPLc": 0.001059,
        "E10": 0.002099,
        "SP98": 0.002199
      },
      "maj_gouv": {
        "Gazole": "2026-04-27 23:59:00",
        "E85": "2026-04-27 23:59:00",
        "GPLc": "2026-04-23 10:45:52",
        "E10": "2026-04-27 23:59:00",
        "SP98": "2026-04-27 23:59:00"
      }
    },
    {
      "id": "76370001",
      "lat": 49.926,
      "lon": 1.115,
      "cp": "76370",
      "ville": "Dieppe",
      "prix": {
        "Gazole": 0.002199,
        "SP95": 0.002078,
        "SP98": 0.002163
      },
      "maj_gouv": {
        "Gazole": "2026-04-30 09:29:48",
        "SP95": "2026-04-30 09:29:48",
        "SP98": "2026-04-30 09:29:48"
      }
    },
    {
      "id": "76410002",
      "lat": 49.327932546506005,
      "lon": 1.0983886252421,
      "cp": "76410",
      "ville": "TOURVILLE-LA-RIVIèRE",
      "prix": {
        "Gazole": 0.002185,
        "E85": 0.000842,
        "E10": 0.002003,
        "SP98": 0.002114
      },
      "maj_gouv": {
        "Gazole": "2026-04-30 09:20:08",
        "E85": "2026-04-28 10:21:22",
        "E10": "2026-04-30 09:20:08",
        "SP98": "2026-04-30 09:20:09"
      }
    },
    {
      "id": "76520001",
      "lat": 49.398,
      "lon": 1.178,
      "cp": "76520",
      "ville": "FRANQUEVILLE-SAINT-PIERRE",
      "prix": {
        "Gazole": 0.002169,
        "SP95": 0.002049,
        "E85": 0.00078,
        "E10": 0.001999,
        "SP98": 0.002095
      },
      "maj_gouv": {
        "Gazole": "2026-04-30 08:20:15",
        "SP95": "2026-04-30 08:20:15",
        "E85": "2026-04-30 08:20:15",
        "E10": "2026-04-30 08:20:15",
        "SP98": "2026-04-30 08:20:15"
      }
    },
    {
      "id": "76210001",
      "lat": 49.547,
      "lon": 0.495,
      "cp": "76210",
      "ville": "Gruchet-le-Valasse",
      "prix": {
        "Gazole": 0.0021509999999999997,
        "SP95": 0.002009,
        "E85": 0.0007700000000000001,
        "GPLc": 0.000999,
        "E10": 0.001999,
        "SP98": 0.002157
      },
      "maj_gouv": {
        "Gazole": "2026-04-29 22:39:00",
        "SP95": "2026-04-29 22:39:00",
        "E85": "2026-04-29 22:39:00",
        "GPLc": "2026-04-23 22:41:00",
        "E10": "2026-04-29 22:39:00",
        "SP98": "2026-04-29 22:39:00"
      }
    },
    {
      "id": "76420007",
      "lat": 49.462333841909,
      "lon": 1.12343058864,
      "cp": "76420",
      "ville": "Bihorel",
      "prix": {
        "Gazole": 0.002179,
        "E85": 0.000799,
        "E10": 0.001999,
        "SP98": 0.002099
      },
      "maj_gouv": {
        "Gazole": "2026-04-30 09:38:57",
        "E85": "2026-04-20 07:35:37",
        "E10": "2026-04-30 09:38:57",
        "SP98": "2026-04-30 09:38:57"
      }
    },
    {
      "id": "76910001",
      "lat": 50.012,
      "lon": 1.316,
      "cp": "76910",
      "ville": "Criel-sur-Mer",
      "prix": {
        "Gazole": 0.002278,
        "SP95": 0.002058,
        "E85": 0.0008179999999999999,
        "SP98": 0.002111
      },
      "maj_gouv": {
        "Gazole": "2026-04-23 11:22:21",
        "SP95": "2026-04-28 12:23:33",
        "E85": "2026-04-28 12:23:33",
        "SP98": "2026-04-28 12:23:33"
      }
    },
    {
      "id": "76150004",
      "lat": 49.4830834,
      "lon": 1.0170327000000001,
      "cp": "76150",
      "ville": "St Jean Du Cardonnay",
      "prix": {},
      "maj_gouv": {}
    },
    {
      "id": "76280004",
      "lat": 49.639,
      "lon": 0.226,
      "cp": "76280",
      "ville": "GONNEVILLE LA MALLET",
      "prix": {
        "Gazole": 0.00225,
        "SP95": 0.00199
      },
      "maj_gouv": {
        "Gazole": "2026-04-27 14:01:27",
        "SP95": "2026-04-27 14:01:27"
      }
    },
    {
      "id": "76620002",
      "lat": 49.506,
      "lon": 0.101,
      "cp": "76620",
      "ville": "Le Havre",
      "prix": {
        "Gazole": 0.002156,
        "SP95": 0.001999,
        "SP98": 0.002077
      },
      "maj_gouv": {
        "Gazole": "2026-04-23 10:34:37",
        "SP95": "2026-04-23 10:34:38",
        "SP98": "2026-04-23 10:34:38"
      }
    },
    {
      "id": "76230007",
      "lat": 49.5039875947,
      "lon": 1.15396459007,
      "cp": "76230",
      "ville": "ISNEAUVILLE",
      "prix": {
        "Gazole": 0.002179,
        "E85": 0.0008179999999999999,
        "E10": 0.0019890000000000003,
        "SP98": 0.002089
      },
      "maj_gouv": {
        "Gazole": "2026-04-29 07:43:38",
        "E85": "2026-04-20 08:14:13",
        "E10": "2026-04-29 07:43:38",
        "SP98": "2026-04-29 07:43:38"
      }
    },
    {
      "id": "76550001",
      "lat": 49.87174,
      "lon": 1.04855,
      "cp": "76550",
      "ville": "Offranville",
      "prix": {
        "Gazole": 0.0022,
        "SP95": 0.002048,
        "SP98": 0.00213
      },
      "maj_gouv": {
        "Gazole": "2026-04-30 09:19:40",
        "SP95": "2026-04-30 09:19:40",
        "SP98": "2026-04-30 09:19:40"
      }
    },
    {
      "id": "76220009",
      "lat": 49.485,
      "lon": 1.701,
      "cp": "76220",
      "ville": "GOURNAY EN BRAY",
      "prix": {
        "Gazole": 0.00209,
        "GPLc": 0.00107,
        "E10": 0.00199
      },
      "maj_gouv": {
        "Gazole": "2026-05-01 11:50:17",
        "GPLc": "2026-05-01 11:50:18",
        "E10": "2026-05-01 11:50:18"
      }
    },
    {
      "id": "76350001",
      "lat": 49.346,
      "lon": 1.096,
      "cp": "76350",
      "ville": "OISSEL",
      "prix": {
        "Gazole": 0.002186,
        "E10": 0.002055,
        "SP98": 0.00206
      },
      "maj_gouv": {
        "Gazole": "2026-04-30 07:24:15",
        "E10": "2026-04-30 07:24:15",
        "SP98": "2026-04-30 07:24:15"
      }
    },
    {
      "id": "76570001",
      "lat": 49.564,
      "lon": 0.952,
      "cp": "76570",
      "ville": "Pavilly",
      "prix": {
        "Gazole": 0.0024590000000000002,
        "SP95": 0.002059,
        "SP98": 0.002139
      },
      "maj_gouv": {
        "Gazole": "2026-04-29 09:15:02",
        "SP95": "2026-04-29 09:15:02",
        "SP98": "2026-04-29 09:15:03"
      }
    },
    {
      "id": "76280002",
      "lat": 49.64033,
      "lon": 0.22423,
      "cp": "76280",
      "ville": "Gonneville-la-Mallet",
      "prix": {
        "Gazole": 0.002209,
        "E10": 0.002027,
        "SP98": 0.0021509999999999997
      },
      "maj_gouv": {
        "Gazole": "2026-04-30 09:35:41",
        "E10": "2026-04-30 09:35:42",
        "SP98": "2026-04-30 09:35:42"
      }
    },
    {
      "id": "76590003",
      "lat": 49.809,
      "lon": 1.172,
      "cp": "76590",
      "ville": "Torcy-le-petit",
      "prix": {
        "Gazole": 0.002169,
        "E85": 0.000799,
        "E10": 0.0019690000000000003,
        "SP98": 0.002049
      },
      "maj_gouv": {
        "Gazole": "2026-04-25 08:43:13",
        "E85": "2026-04-10 05:18:54",
        "E10": "2026-04-25 08:43:13",
        "SP98": "2026-04-25 08:43:13"
      }
    },
    {
      "id": "76600014",
      "lat": 49.83,
      "lon": 1.404,
      "cp": "76660",
      "ville": "LONDINIERES",
      "prix": {
        "Gazole": 0.002189,
        "SP95": 0.002049,
        "SP98": 0.002079
      },
      "maj_gouv": {
        "Gazole": "2026-04-30 07:27:55",
        "SP95": "2026-04-30 07:27:55",
        "SP98": "2026-04-30 07:27:55"
      }
    },
    {
      "id": "76160002",
      "lat": 49.441,
      "lon": 1.148,
      "cp": "76160",
      "ville": "Darnétal",
      "prix": {
        "Gazole": 0.0022080000000000003,
        "E10": 0.002058,
        "SP98": 0.0021379999999999997
      },
      "maj_gouv": {
        "Gazole": "2026-04-30 07:46:00",
        "E10": "2026-04-30 07:46:00",
        "SP98": "2026-04-30 07:46:00"
      }
    },
    {
      "id": "76330003",
      "lat": 49.489,
      "lon": 0.566,
      "cp": "76330",
      "ville": "PORT JEROME SUR SEINE",
      "prix": {
        "Gazole": 0.0022080000000000003,
        "E85": 0.000928,
        "E10": 0.002009,
        "SP98": 0.002089
      },
      "maj_gouv": {
        "Gazole": "2026-05-01 06:31:00",
        "E85": "2026-05-01 06:31:00",
        "E10": "2026-05-01 06:31:00",
        "SP98": "2026-05-01 06:31:00"
      }
    },
    {
      "id": "76600010",
      "lat": 49.494,
      "lon": 0.097,
      "cp": "76600",
      "ville": "Le Havre",
      "prix": {
        "Gazole": 0.0021880000000000003,
        "E10": 0.001999,
        "SP98": 0.002079
      },
      "maj_gouv": {
        "Gazole": "2026-05-01 07:46:00",
        "E10": "2026-05-01 07:46:00",
        "SP98": "2026-05-01 07:46:00"
      }
    },
    {
      "id": "76380002",
      "lat": 49.45879,
      "lon": 1.04473,
      "cp": "76380",
      "ville": "CANTELEU",
      "prix": {
        "Gazole": 0.002157,
        "E10": 0.002006,
        "SP98": 0.002079
      },
      "maj_gouv": {
        "Gazole": "2026-04-30 08:04:16",
        "E10": "2026-04-30 08:04:16",
        "SP98": "2026-04-30 08:04:16"
      }
    },
    {
      "id": "76600025",
      "lat": 49.48837,
      "lon": 0.1502,
      "cp": "76600",
      "ville": "LE HAVRE",
      "prix": {
        "Gazole": 0.00209,
        "E10": 0.00199,
        "SP98": 0.00199
      },
      "maj_gouv": {
        "Gazole": "2026-05-02 00:01:00",
        "E10": "2026-05-02 00:01:00",
        "SP98": "2026-05-02 00:01:00"
      }
    },
    {
      "id": "76420006",
      "lat": 49.458,
      "lon": 1.108,
      "cp": "76420",
      "ville": "BIHOREL",
      "prix": {
        "Gazole": 0.00209,
        "E85": 0.000834,
        "GPLc": 0.001004
      },
      "maj_gouv": {
        "Gazole": "2026-05-02 00:01:00",
        "E85": "2026-05-02 00:01:00",
        "GPLc": "2026-05-02 00:01:00"
      }
    },
    {
      "id": "76600012",
      "lat": 49.498,
      "lon": 0.184,
      "cp": "76600",
      "ville": "LE HAVRE",
      "prix": {
        "Gazole": 0.00209,
        "SP95": 0.00199
      },
      "maj_gouv": {
        "Gazole": "2026-04-30 18:00:00",
        "SP95": "2026-04-07 11:42:01"
      }
    },
    {
      "id": "76640002",
      "lat": 49.652,
      "lon": 0.6,
      "cp": "76640",
      "ville": "FAUVILLE-EN-CAUX",
      "prix": {
        "Gazole": 0.002149,
        "E85": 0.000799,
        "E10": 0.0019890000000000003,
        "SP98": 0.002059
      },
      "maj_gouv": {
        "Gazole": "2026-04-29 11:04:14",
        "E85": "2026-04-20 08:16:58",
        "E10": "2026-04-27 08:34:05",
        "SP98": "2026-04-27 08:34:05"
      }
    },
    {
      "id": "76560001",
      "lat": 49.721,
      "lon": 0.782,
      "cp": "76560",
      "ville": "DOUDEVILLE",
      "prix": {
        "Gazole": 0.002129,
        "SP95": 0.002019,
        "SP98": 0.002099
      },
      "maj_gouv": {
        "Gazole": "2026-04-29 09:54:38",
        "SP95": "2026-04-24 13:07:42",
        "SP98": "2026-04-24 13:07:42"
      }
    },
    {
      "id": "76700004",
      "lat": 49.503,
      "lon": 0.21,
      "cp": "76700",
      "ville": "GONFREVILLE-L'ORCHER",
      "prix": {
        "Gazole": 0.00209,
        "SP95": 0.00199,
        "SP98": 0.00199
      },
      "maj_gouv": {
        "Gazole": "2026-04-30 17:30:00",
        "SP95": "2026-04-08 14:25:10",
        "SP98": "2026-04-08 14:25:10"
      }
    },
    {
      "id": "76300009",
      "lat": 49.404,
      "lon": 1.111,
      "cp": "76300",
      "ville": "Sotteville-lès-Rouen",
      "prix": {
        "Gazole": 0.00209,
        "E10": 0.00199
      },
      "maj_gouv": {
        "Gazole": "2026-05-02 00:01:00",
        "E10": "2026-05-02 00:01:00"
      }
    },
    {
      "id": "76720002",
      "lat": 49.634,
      "lon": 1.044,
      "cp": "76890",
      "ville": "VARNEVILLE  BRETTEVILLE",
      "prix": {
        "Gazole": 0.002179,
        "SP95": 0.001999,
        "E85": 0.000885,
        "E10": 0.001975,
        "SP98": 0.002079
      },
      "maj_gouv": {
        "Gazole": "2026-04-30 07:09:11",
        "SP95": "2026-04-17 08:52:07",
        "E85": "2026-04-30 07:09:11",
        "E10": "2026-04-30 07:09:11",
        "SP98": "2026-04-30 07:09:11"
      }
    },
    {
      "id": "76910002",
      "lat": 50.022017766993,
      "lon": 1.3257412969589,
      "cp": "76910",
      "ville": "CRIEL SUR MER",
      "prix": {
        "Gazole": 0.002229,
        "E10": 0.00199,
        "SP98": 0.00199
      },
      "maj_gouv": {
        "Gazole": "2026-04-20 12:52:26",
        "E10": "2026-04-20 12:52:26",
        "SP98": "2026-04-20 12:52:26"
      }
    },
    {
      "id": "76170005",
      "lat": 49.515547999999995,
      "lon": 0.532634,
      "cp": "76170",
      "ville": "Lillebonne",
      "prix": {
        "Gazole": 0.002149,
        "SP95": 0.002008,
        "E85": 0.000819,
        "SP98": 0.002079
      },
      "maj_gouv": {
        "Gazole": "2026-04-30 05:34:31",
        "SP95": "2026-04-30 05:34:31",
        "E85": "2026-04-16 07:12:17",
        "SP98": "2026-04-30 05:34:31"
      }
    },
    {
      "id": "76360004",
      "lat": 49.557114000000006,
      "lon": 0.952772,
      "cp": "76360",
      "ville": "BARENTIN",
      "prix": {
        "Gazole": 0.00209,
        "E10": 0.00199
      },
      "maj_gouv": {
        "Gazole": "2026-05-01 10:38:25",
        "E10": "2026-04-29 19:46:32"
      }
    },
    {
      "id": "76450003",
      "lat": 49.789896799213004,
      "lon": 0.63955765642719,
      "cp": "76450",
      "ville": "Cany-Barville",
      "prix": {
        "Gazole": 0.00209
      },
      "maj_gouv": {
        "Gazole": "2026-05-01 07:10:14"
      }
    },
    {
      "id": "76220010",
      "lat": 49.461,
      "lon": 1.52,
      "cp": "76220",
      "ville": "LA FEUILLIE",
      "prix": {
        "Gazole": 0.002199,
        "E85": 0.0008179999999999999,
        "E10": 0.002049,
        "SP98": 0.002139
      },
      "maj_gouv": {
        "Gazole": "2026-04-30 17:41:32",
        "E85": "2026-04-23 08:26:01",
        "E10": "2026-04-30 17:41:32",
        "SP98": "2026-04-30 17:41:32"
      }
    },
    {
      "id": "76240006",
      "lat": 49.407,
      "lon": 1.148,
      "cp": "76240",
      "ville": "LE MESNIL ESNARD",
      "prix": {
        "Gazole": 0.00209,
        "E10": 0.00199,
        "SP98": 0.00199
      },
      "maj_gouv": {
        "Gazole": "2026-05-02 00:01:00",
        "E10": "2026-05-02 00:01:00",
        "SP98": "2026-05-02 00:01:00"
      }
    },
    {
      "id": "76720004",
      "lat": 49.719,
      "lon": 1.092,
      "cp": "76720",
      "ville": "VAL DE SCIE",
      "prix": {
        "Gazole": 0.002199,
        "SP95": 0.002099,
        "SP98": 0.002129
      },
      "maj_gouv": {
        "Gazole": "2026-04-28 09:42:58",
        "SP95": "2026-04-28 09:42:58",
        "SP98": "2026-04-28 09:42:58"
      }
    },
    {
      "id": "76210009",
      "lat": 49.57249,
      "lon": 0.469096,
      "cp": "76210",
      "ville": "BOLBEC",
      "prix": {
        "Gazole": 0.0022789999999999998,
        "E10": 0.002059,
        "SP98": 0.002159
      },
      "maj_gouv": {
        "Gazole": "2026-05-01 23:50:00",
        "E10": "2026-05-01 23:50:00",
        "SP98": "2026-05-01 23:50:00"
      }
    },
    {
      "id": "76430006",
      "lat": 49.484,
      "lon": 0.449,
      "cp": "76430",
      "ville": "TANCARVILLE",
      "prix": {
        "Gazole": 0.00209,
        "E85": 0.000829,
        "E10": 0.00199,
        "SP98": 0.00199
      },
      "maj_gouv": {
        "Gazole": "2026-05-02 00:01:00",
        "E85": "2026-05-02 00:01:00",
        "E10": "2026-05-02 00:01:00",
        "SP98": "2026-05-02 00:01:00"
      }
    },
    {
      "id": "76800009",
      "lat": 49.394,
      "lon": 1.06,
      "cp": "76800",
      "ville": "Saint-Étienne-du-Rouvray",
      "prix": {
        "Gazole": 0.00209,
        "E10": 0.00199
      },
      "maj_gouv": {
        "Gazole": "2026-05-02 00:01:00",
        "E10": "2026-05-02 00:01:00"
      }
    },
    {
      "id": "76400009",
      "lat": 49.74544,
      "lon": 0.37202,
      "cp": "76400",
      "ville": "FECAMP-SAINT LEONARD",
      "prix": {
        "Gazole": 0.002092,
        "SP95": 0.002028,
        "E85": 0.000712,
        "E10": 0.001997
      },
      "maj_gouv": {
        "Gazole": "2026-05-02 01:17:00",
        "SP95": "2026-05-02 01:17:00",
        "E85": "2026-05-02 01:17:00",
        "E10": "2026-05-02 01:17:00"
      }
    },
    {
      "id": "76410003",
      "lat": 49.307,
      "lon": 1.029,
      "cp": "76410",
      "ville": "Cléon",
      "prix": {
        "Gazole": 0.00225,
        "E10": 0.00199,
        "SP98": 0.00199
      },
      "maj_gouv": {
        "Gazole": "2026-04-25 08:14:16",
        "E10": "2026-04-25 08:14:17",
        "SP98": "2026-04-25 08:14:17"
      }
    },
    {
      "id": "76620001",
      "lat": 49.52315,
      "lon": 0.10955,
      "cp": "76620",
      "ville": "Le Havre",
      "prix": {
        "Gazole": 0.002117,
        "E85": 0.000766,
        "GPLc": 0.001082,
        "E10": 0.001968,
        "SP98": 0.002058
      },
      "maj_gouv": {
        "Gazole": "2026-04-30 09:26:19",
        "E85": "2026-04-30 09:26:19",
        "GPLc": "2026-04-30 09:26:19",
        "E10": "2026-04-30 09:26:19",
        "SP98": "2026-04-30 09:26:19"
      }
    }
  ]
}