{
  "departement": "33",
  "date": "2026-05-02",
  "stations": [
    {
      "id": "33114001",
      "lat": 44.623,
      "lon": -0.787,
      "cp": "33114",
      "ville": "LE BARP",
      "prix": {
        "Gazole": 0.002199,
        "E10": 0.0019890000000000003,
        "SP98": 0.002069
      },
      "maj_gouv": {
        "Gazole": "2026-04-24 05:24:21",
        "E10": "2026-04-24 05:24:21",
        "SP98": "2026-04-24 05:24:21"
      }
    },
    {
      "id": "33210008",
      "lat": 44.542,
      "lon": -0.242,
      "cp": "33210",
      "ville": "LANGON",
      "prix": {
        "Gazole": 0.002149,
        "SP95": 0.002019,
        "E10": 0.0019890000000000003,
        "SP98": 0.002065
      },
      "maj_gouv": {
        "Gazole": "2026-04-28 09:00:00",
        "SP95": "2026-04-28 09:00:00",
        "E10": "2026-04-28 09:00:00",
        "SP98": "2026-04-28 09:00:00"
      }
    },
    {
      "id": "33440006",
      "lat": 44.926153290504004,
      "lon": -0.52054201580751,
      "cp": "33440",
      "ville": "Ambarès-et-Lagrave",
      "prix": {
        "Gazole": 0.002299,
        "E10": 0.0021190000000000002
      },
      "maj_gouv": {
        "Gazole": "2026-05-01 23:50:00",
        "E10": "2026-05-01 23:50:00"
      }
    },
    {
      "id": "33520002",
      "lat": 44.888,
      "lon": -0.579,
      "cp": "33520",
      "ville": "Bruges",
      "prix": {
        "Gazole": 0.0022789999999999998,
        "GPLc": 0.001039,
        "E10": 0.002068,
        "SP98": 0.0021680000000000002
      },
      "maj_gouv": {
        "Gazole": "2026-05-01 07:45:00",
        "GPLc": "2026-05-01 07:45:00",
        "E10": "2026-05-01 07:45:00",
        "SP98": "2026-05-01 07:45:00"
      }
    },
    {
      "id": "33640002",
      "lat": 44.688,
      "lon": -0.417,
      "cp": "33640",
      "ville": "PORTETS",
      "prix": {
        "Gazole": 0.00225,
        "SP95": 0.00199,
        "SP98": 0.00199
      },
      "maj_gouv": {
        "Gazole": "2026-04-08 06:53:12",
        "SP95": "2026-03-17 07:13:50",
        "SP98": "2026-03-17 07:13:50"
      }
    },
    {
      "id": "33340001",
      "lat": 45.3103,
      "lon": -0.93839,
      "cp": "33340",
      "ville": "Lesparre-Médoc",
      "prix": {
        "Gazole": 0.00221,
        "E10": 0.00199,
        "SP98": 0.00199
      },
      "maj_gouv": {
        "Gazole": "2026-04-23 10:26:43",
        "E10": "2026-04-21 15:27:28",
        "SP98": "2026-04-21 15:27:29"
      }
    },
    {
      "id": "33760002",
      "lat": 44.736,
      "lon": -0.268,
      "cp": "33760",
      "ville": "TARGON",
      "prix": {
        "Gazole": 0.00225,
        "SP95": 0.002059,
        "SP98": 0.002139
      },
      "maj_gouv": {
        "Gazole": "2026-04-18 15:31:43",
        "SP95": "2026-04-30 09:16:08",
        "SP98": "2026-04-30 09:16:08"
      }
    },
    {
      "id": "33370006",
      "lat": 44.846957,
      "lon": -0.497714,
      "cp": "33370",
      "ville": "ARTIGUES-PRèS-BORDEAUX",
      "prix": {
        "Gazole": 0.002181,
        "SP95": 0.0020169999999999997,
        "E85": 0.000819,
        "E10": 0.001981,
        "SP98": 0.002083
      },
      "maj_gouv": {
        "Gazole": "2026-04-30 08:30:00",
        "SP95": "2026-04-30 08:30:00",
        "E85": "2026-04-30 08:30:00",
        "E10": "2026-04-30 08:30:00",
        "SP98": "2026-04-30 08:30:00"
      }
    },
    {
      "id": "33370005",
      "lat": 44.871,
      "lon": -0.469,
      "cp": "33370",
      "ville": "YVRAC",
      "prix": {
        "Gazole": 0.002149,
        "E10": 0.0019890000000000003,
        "SP98": 0.002069
      },
      "maj_gouv": {
        "Gazole": "2026-04-28 07:09:17",
        "E10": "2026-04-28 07:09:17",
        "SP98": "2026-04-28 07:09:17"
      }
    },
    {
      "id": "33730001",
      "lat": 44.46,
      "lon": -0.375,
      "cp": "33730",
      "ville": "VILLANDRAUT",
      "prix": {
        "Gazole": 0.00225,
        "SP95": 0.00199
      },
      "maj_gouv": {
        "Gazole": "2026-04-30 18:56:17",
        "SP95": "2026-04-30 18:56:17"
      }
    },
    {
      "id": "33320003",
      "lat": 44.881,
      "lon": -0.651,
      "cp": "33320",
      "ville": "Eysines",
      "prix": {
        "Gazole": 0.002145,
        "E10": 0.001975,
        "SP98": 0.002085
      },
      "maj_gouv": {
        "Gazole": "2026-04-30 08:00:00",
        "E10": "2026-04-30 08:00:00",
        "SP98": "2026-04-30 08:00:00"
      }
    },
    {
      "id": "33550002",
      "lat": 44.71373,
      "lon": -0.39435,
      "cp": "33550",
      "ville": "Langoiran",
      "prix": {
        "Gazole": 0.002159,
        "SP95": 0.002029,
        "E10": 0.001999,
        "SP98": 0.002079
      },
      "maj_gouv": {
        "Gazole": "2026-04-30 15:49:28",
        "SP95": "2026-04-30 15:49:28",
        "E10": "2026-04-30 15:49:29",
        "SP98": "2026-04-30 15:49:29"
      }
    },
    {
      "id": "33460003",
      "lat": 44.994,
      "lon": -0.693,
      "cp": "33460",
      "ville": "ARSAC",
      "prix": {
        "Gazole": 0.00209,
        "SP95": 0.00199
      },
      "maj_gouv": {
        "Gazole": "2026-05-01 07:24:41",
        "SP95": "2026-05-01 07:24:41"
      }
    },
    {
      "id": "33370007",
      "lat": 44.825,
      "lon": -0.444,
      "cp": "33370",
      "ville": "FARGUES-SAINT-HILAIRE",
      "prix": {
        "Gazole": 0.00218,
        "E85": 0.000819,
        "E10": 0.001988,
        "SP98": 0.002053
      },
      "maj_gouv": {
        "Gazole": "2026-04-30 12:29:01",
        "E85": "2026-04-30 12:29:01",
        "E10": "2026-04-30 12:29:01",
        "SP98": "2026-04-30 12:29:01"
      }
    },
    {
      "id": "33000014",
      "lat": 44.855,
      "lon": -0.592,
      "cp": "33000",
      "ville": "BORDEAUX",
      "prix": {
        "Gazole": 0.002229,
        "E10": 0.002049,
        "SP98": 0.002159
      },
      "maj_gouv": {
        "Gazole": "2026-04-30 11:18:24",
        "E10": "2026-04-30 11:18:24",
        "SP98": "2026-04-30 11:18:24"
      }
    },
    {
      "id": "33127002",
      "lat": 44.801,
      "lon": -0.779,
      "cp": "33127",
      "ville": "Saint-Jean-d'Illac",
      "prix": {
        "Gazole": 0.00209,
        "SP95": 0.00199,
        "SP98": 0.00199
      },
      "maj_gouv": {
        "Gazole": "2026-05-01 11:14:50",
        "SP95": "2026-04-22 11:15:43",
        "SP98": "2026-04-22 11:15:43"
      }
    },
    {
      "id": "33430005",
      "lat": 44.439,
      "lon": -0.229,
      "cp": "33430",
      "ville": "BAZAS",
      "prix": {
        "Gazole": 0.002159,
        "E10": 0.001999,
        "SP98": 0.002078
      },
      "maj_gouv": {
        "Gazole": "2026-04-28 18:14:23",
        "E10": "2026-04-28 18:14:23",
        "SP98": "2026-04-28 18:14:24"
      }
    },
    {
      "id": "33710003",
      "lat": 45.076,
      "lon": -0.499,
      "cp": "33710",
      "ville": "PUGNAC",
      "prix": {
        "Gazole": 0.002299,
        "SP95": 0.002049,
        "E85": 0.000819,
        "E10": 0.001999
      },
      "maj_gouv": {
        "Gazole": "2026-04-24 08:18:06",
        "SP95": "2026-04-17 17:32:41",
        "E85": "2026-04-22 10:30:30",
        "E10": "2026-04-13 16:58:03"
      }
    },
    {
      "id": "33110007",
      "lat": 44.86,
      "lon": -0.612,
      "cp": "33110",
      "ville": "LE BOUSCAT",
      "prix": {
        "Gazole": 0.00209,
        "E85": 0.000825,
        "E10": 0.00199
      },
      "maj_gouv": {
        "Gazole": "2026-05-02 00:01:00",
        "E85": "2026-05-02 00:01:00",
        "E10": "2026-05-02 00:01:00"
      }
    },
    {
      "id": "33502001",
      "lat": 44.898,
      "lon": -0.209,
      "cp": "33500",
      "ville": "LIBOURNE",
      "prix": {
        "Gazole": 0.00225,
        "E10": 0.00199,
        "SP98": 0.00199
      },
      "maj_gouv": {
        "Gazole": "2026-04-30 08:11:44",
        "E10": "2026-04-30 08:11:45",
        "SP98": "2026-04-30 08:11:45"
      }
    },
    {
      "id": "33510006",
      "lat": 44.743110800000004,
      "lon": -1.1005943,
      "cp": "33510",
      "ville": "Andernos-les-Bains",
      "prix": {
        "Gazole": 0.002229,
        "E10": 0.0019890000000000003,
        "SP98": 0.002069
      },
      "maj_gouv": {
        "Gazole": "2026-04-30 08:58:22",
        "E10": "2026-04-30 08:58:22",
        "SP98": "2026-04-30 08:58:22"
      }
    },
    {
      "id": "33500008",
      "lat": 44.919,
      "lon": -0.242,
      "cp": "33500",
      "ville": "Libourne",
      "prix": {
        "Gazole": 0.002246,
        "E10": 0.002076,
        "SP98": 0.0022040000000000002
      },
      "maj_gouv": {
        "Gazole": "2026-04-27 10:40:07",
        "E10": "2026-04-27 10:40:08",
        "SP98": "2026-04-27 10:40:08"
      }
    },
    {
      "id": "33790001",
      "lat": 44.74436,
      "lon": 0.07909,
      "cp": "33790",
      "ville": "PELLEGRUE",
      "prix": {
        "Gazole": 0.002179,
        "E10": 0.0019890000000000003,
        "SP98": 0.002099
      },
      "maj_gouv": {
        "Gazole": "2026-04-30 09:12:50",
        "E10": "2026-04-30 09:12:50",
        "SP98": "2026-04-30 09:12:51"
      }
    },
    {
      "id": "33430001",
      "lat": 44.433877400700005,
      "lon": -0.21895288266399998,
      "cp": "33430",
      "ville": "BAZAS",
      "prix": {
        "Gazole": 0.002199,
        "SP95": 0.002059,
        "E10": 0.002019,
        "SP98": 0.002099
      },
      "maj_gouv": {
        "Gazole": "2026-04-21 13:06:29",
        "SP95": "2026-04-27 16:40:47",
        "E10": "2026-04-27 16:41:20",
        "SP98": "2026-04-27 16:40:47"
      }
    },
    {
      "id": "33250004",
      "lat": 45.201,
      "lon": -0.75,
      "cp": "33250",
      "ville": "PAUILLAC",
      "prix": {
        "Gazole": 0.00214,
        "SP95": 0.002055,
        "E10": 0.00197,
        "SP98": 0.002095
      },
      "maj_gouv": {
        "Gazole": "2026-05-02 04:00:00",
        "SP95": "2026-04-30 04:00:00",
        "E10": "2026-04-30 04:00:00",
        "SP98": "2026-04-30 04:00:00"
      }
    },
    {
      "id": "33930001",
      "lat": 45.376978748000006,
      "lon": -1.14406334524,
      "cp": "33930",
      "ville": "VENDAYS-MONTALIVET",
      "prix": {
        "Gazole": 0.00209,
        "E10": 0.00199,
        "SP98": 0.00199
      },
      "maj_gouv": {
        "Gazole": "2026-05-01 08:33:26",
        "E10": "2026-05-01 08:33:26",
        "SP98": "2026-05-01 08:33:26"
      }
    },
    {
      "id": "33390003",
      "lat": 45.127,
      "lon": -0.643,
      "cp": "33390",
      "ville": "BLAYE",
      "prix": {
        "Gazole": 0.002126,
        "E85": 0.000758,
        "E10": 0.001976,
        "SP98": 0.002052
      },
      "maj_gouv": {
        "Gazole": "2026-04-30 20:35:00",
        "E85": "2026-03-25 09:48:39",
        "E10": "2026-04-30 20:35:00",
        "SP98": "2026-04-30 20:35:00"
      }
    },
    {
      "id": "33920005",
      "lat": 45.18921876384199,
      "lon": -0.4908950744995,
      "cp": "33920",
      "ville": "SAUGON",
      "prix": {
        "Gazole": 0.002313,
        "E85": 0.000929,
        "GPLc": 0.001064,
        "E10": 0.002145,
        "SP98": 0.0022299999999999998
      },
      "maj_gouv": {
        "Gazole": "2026-04-28 16:48:07",
        "E85": "2026-04-16 18:45:57",
        "GPLc": "2026-04-16 18:45:57",
        "E10": "2026-04-28 16:48:07",
        "SP98": "2026-04-28 16:48:07"
      }
    },
    {
      "id": "33170010",
      "lat": 44.786,
      "lon": -0.595,
      "cp": "33170",
      "ville": "GRADIGNAN",
      "prix": {
        "Gazole": 0.002369,
        "E85": 0.000999,
        "GPLc": 0.001099,
        "E10": 0.002129,
        "SP98": 0.002229
      },
      "maj_gouv": {
        "Gazole": "2026-05-01 06:00:00",
        "E85": "2026-05-01 06:00:00",
        "GPLc": "2026-05-01 06:00:00",
        "E10": "2026-05-01 06:00:00",
        "SP98": "2026-05-01 06:00:00"
      }
    },
    {
      "id": "33127006",
      "lat": 44.81,
      "lon": -0.775,
      "cp": "33127",
      "ville": "Saint-Jean-d'Illac",
      "prix": {
        "Gazole": 0.002157,
        "E10": 0.001949,
        "SP98": 0.002057
      },
      "maj_gouv": {
        "Gazole": "2026-04-29 09:31:30",
        "E10": "2026-04-30 10:19:55",
        "SP98": "2026-04-30 10:19:55"
      }
    },
    {
      "id": "33480002",
      "lat": 45.033,
      "lon": -0.799,
      "cp": "33480",
      "ville": "CASTELNAU-DE-MéDOC",
      "prix": {
        "Gazole": 0.00209,
        "SP95": 0.00199
      },
      "maj_gouv": {
        "Gazole": "2026-04-30 18:38:29",
        "SP95": "2026-04-23 17:17:54"
      }
    },
    {
      "id": "33140006",
      "lat": 44.75214,
      "lon": -0.53211,
      "cp": "33140",
      "ville": "Cadaujac",
      "prix": {
        "Gazole": 0.002145,
        "E10": 0.001975,
        "SP98": 0.002085
      },
      "maj_gouv": {
        "Gazole": "2026-04-30 08:44:02",
        "E10": "2026-04-30 08:44:03",
        "SP98": "2026-04-30 08:44:03"
      }
    },
    {
      "id": "33167001",
      "lat": 44.884,
      "lon": -0.691,
      "cp": "33160",
      "ville": "Saint-Médard-en-Jalles",
      "prix": {
        "Gazole": 0.002139,
        "SP95": 0.002004,
        "E85": 0.000709,
        "GPLc": 0.001059,
        "E10": 0.001983,
        "SP98": 0.002045
      },
      "maj_gouv": {
        "Gazole": "2026-05-02 01:17:00",
        "SP95": "2026-05-02 01:17:00",
        "E85": "2026-05-02 01:17:00",
        "GPLc": "2026-05-02 01:17:00",
        "E10": "2026-05-02 01:17:00",
        "SP98": "2026-05-02 01:17:00"
      }
    },
    {
      "id": "33220001",
      "lat": 44.845,
      "lon": 0.181,
      "cp": "33220",
      "ville": "PORT-SAINTE-FOY-ET-PONCHAPT",
      "prix": {
        "Gazole": 0.002142,
        "SP95": 0.002029,
        "E10": 0.001999,
        "SP98": 0.0020459999999999996
      },
      "maj_gouv": {
        "Gazole": "2026-05-02 01:17:00",
        "SP95": "2026-05-02 01:17:00",
        "E10": "2026-05-02 01:17:00",
        "SP98": "2026-05-02 01:17:00"
      }
    },
    {
      "id": "33220007",
      "lat": 44.841,
      "lon": 0.23,
      "cp": "33220",
      "ville": "PINEUILH",
      "prix": {
        "Gazole": 0.002195,
        "SP95": 0.002029,
        "E10": 0.0019890000000000003
      },
      "maj_gouv": {
        "Gazole": "2026-04-28 15:43:19",
        "SP95": "2026-04-28 15:43:20",
        "E10": "2026-04-28 15:43:20"
      }
    },
    {
      "id": "33230001",
      "lat": 45.046,
      "lon": -0.121,
      "cp": "33230",
      "ville": "COUTRAS",
      "prix": {
        "Gazole": 0.002159,
        "SP95": 0.002059,
        "E85": 0.0008179999999999999,
        "E10": 0.001998,
        "SP98": 0.002069
      },
      "maj_gouv": {
        "Gazole": "2026-05-02 01:16:00",
        "SP95": "2026-05-02 01:16:00",
        "E85": "2026-05-02 01:16:00",
        "E10": "2026-05-02 01:16:00",
        "SP98": "2026-05-02 01:16:00"
      }
    },
    {
      "id": "33430002",
      "lat": 44.44,
      "lon": -0.231,
      "cp": "33430",
      "ville": "BAZAS",
      "prix": {
        "Gazole": 0.00222,
        "E10": 0.00199,
        "SP98": 0.00199
      },
      "maj_gouv": {
        "Gazole": "2026-04-24 07:32:50",
        "E10": "2026-04-24 07:32:50",
        "SP98": "2026-04-24 07:32:50"
      }
    },
    {
      "id": "33310008",
      "lat": 44.874,
      "lon": -0.506,
      "cp": "33310",
      "ville": "LORMONT",
      "prix": {
        "Gazole": 0.00209,
        "E85": 0.000841,
        "GPLc": 0.001059,
        "E10": 0.00199
      },
      "maj_gouv": {
        "Gazole": "2026-05-01 10:00:00",
        "E85": "2026-05-01 10:00:00",
        "GPLc": "2026-05-01 10:00:00",
        "E10": "2026-05-01 10:00:00"
      }
    },
    {
      "id": "33240010",
      "lat": 44.9790295481,
      "lon": -0.430828070241,
      "cp": "33240",
      "ville": "ST ANDRE DE CUBZAC",
      "prix": {
        "Gazole": 0.00209,
        "E85": 0.000999,
        "GPLc": 0.001049,
        "E10": 0.00199
      },
      "maj_gouv": {
        "Gazole": "2026-05-01 10:00:00",
        "E85": "2026-05-01 10:00:00",
        "GPLc": "2026-05-01 10:00:00",
        "E10": "2026-05-01 10:00:00"
      }
    },
    {
      "id": "33240013",
      "lat": 45.013,
      "lon": -0.425,
      "cp": "33240",
      "ville": "ST ANDRE DE CUBZAC",
      "prix": {
        "Gazole": 0.002159,
        "E85": 0.000708,
        "GPLc": 0.0009809999999999999,
        "E10": 0.001939
      },
      "maj_gouv": {
        "Gazole": "2026-04-29 16:41:46",
        "E85": "2026-04-24 09:08:10",
        "GPLc": "2026-04-07 16:53:53",
        "E10": "2026-04-29 16:41:46"
      }
    },
    {
      "id": "33600009",
      "lat": 44.781263681300004,
      "lon": -0.649891423468,
      "cp": "33600",
      "ville": "PESSAC",
      "prix": {
        "Gazole": 0.00209,
        "E85": 0.000841,
        "GPLc": 0.001063,
        "E10": 0.00199
      },
      "maj_gouv": {
        "Gazole": "2026-05-02 00:01:00",
        "E85": "2026-05-02 00:01:00",
        "GPLc": "2026-05-02 00:01:00",
        "E10": "2026-05-02 00:01:00"
      }
    },
    {
      "id": "33370016",
      "lat": 44.833,
      "lon": -0.405,
      "cp": "33370",
      "ville": "Sallebœuf",
      "prix": {
        "Gazole": 0.002193,
        "SP95": 0.002043,
        "SP98": 0.002099
      },
      "maj_gouv": {
        "Gazole": "2026-04-28 06:09:38",
        "SP95": "2026-04-28 06:09:38",
        "SP98": "2026-04-28 06:09:38"
      }
    },
    {
      "id": "33700021",
      "lat": 44.83265,
      "lon": -0.64392,
      "cp": "33700",
      "ville": "MERIGNAC",
      "prix": {
        "E10": 0.00199,
        "SP98": 0.00199
      },
      "maj_gouv": {
        "E10": "2026-05-02 00:01:00",
        "SP98": "2026-05-02 00:01:00"
      }
    },
    {
      "id": "33000010",
      "lat": 44.841,
      "lon": -0.626,
      "cp": "33200",
      "ville": "Bordeaux",
      "prix": {
        "Gazole": 0.002159,
        "E10": 0.001949,
        "SP98": 0.002059
      },
      "maj_gouv": {
        "Gazole": "2026-04-28 08:35:34",
        "E10": "2026-04-28 08:35:34",
        "SP98": "2026-04-28 08:35:34"
      }
    },
    {
      "id": "33187002",
      "lat": 44.861,
      "lon": -0.694,
      "cp": "33187",
      "ville": "LE HAILLAN",
      "prix": {
        "Gazole": 0.00209,
        "E10": 0.00199,
        "SP98": 0.00199
      },
      "maj_gouv": {
        "Gazole": "2026-05-02 00:01:00",
        "E10": "2026-05-02 00:01:00",
        "SP98": "2026-05-02 00:01:00"
      }
    },
    {
      "id": "33200001",
      "lat": 44.86,
      "lon": -0.634,
      "cp": "33200",
      "ville": "BORDEAUX CAUDERAN",
      "prix": {
        "Gazole": 0.002235,
        "E85": 0.000839,
        "E10": 0.001999
      },
      "maj_gouv": {
        "Gazole": "2026-04-29 08:48:16",
        "E85": "2026-04-29 08:48:16",
        "E10": "2026-04-29 08:48:16"
      }
    },
    {
      "id": "33540001",
      "lat": 44.698,
      "lon": -0.089,
      "cp": "33540",
      "ville": "SAUVETERRE-DE-GUYENNE",
      "prix": {
        "Gazole": 0.002149,
        "E85": 0.000759,
        "GPLc": 0.001099,
        "E10": 0.001999,
        "SP98": 0.002059
      },
      "maj_gouv": {
        "Gazole": "2026-04-28 10:43:55",
        "E85": "2026-04-16 11:01:34",
        "GPLc": "2026-04-09 10:55:28",
        "E10": "2026-04-28 10:43:56",
        "SP98": "2026-04-28 10:43:56"
      }
    },
    {
      "id": "33730003",
      "lat": 44.4812157,
      "lon": -0.3671431,
      "cp": "33730",
      "ville": "Noaillan",
      "prix": {
        "Gazole": 0.0021379999999999997,
        "E10": 0.001956,
        "SP98": 0.002081
      },
      "maj_gouv": {
        "Gazole": "2026-04-30 23:59:00",
        "E10": "2026-04-25 09:35:26",
        "SP98": "2026-04-25 09:35:26"
      }
    },
    {
      "id": "33480003",
      "lat": 45.023,
      "lon": -0.789,
      "cp": "33480",
      "ville": "Avensan",
      "prix": {
        "Gazole": 0.002139,
        "SP95": 0.0020150000000000003,
        "E85": 0.000819,
        "GPLc": 0.0011899999999999999,
        "E10": 0.0019790000000000003,
        "SP98": 0.002059
      },
      "maj_gouv": {
        "Gazole": "2026-04-30 04:00:00",
        "SP95": "2026-04-30 04:00:00",
        "E85": "2026-04-17 04:00:00",
        "GPLc": "2026-04-17 04:00:00",
        "E10": "2026-04-30 04:00:00",
        "SP98": "2026-04-30 04:00:00"
      }
    },
    {
      "id": "33600011",
      "lat": 44.792,
      "lon": -0.671,
      "cp": "33600",
      "ville": "PESSAC",
      "prix": {
        "Gazole": 0.00209,
        "E85": 0.000829,
        "E10": 0.00199,
        "SP98": 0.00199
      },
      "maj_gouv": {
        "Gazole": "2026-05-02 00:01:00",
        "E85": "2026-05-02 00:01:00",
        "E10": "2026-05-02 00:01:00",
        "SP98": "2026-05-02 00:01:00"
      }
    },
    {
      "id": "33450009",
      "lat": 44.921730791573005,
      "lon": -0.37072986137220004,
      "cp": "33450",
      "ville": "Izon",
      "prix": {
        "Gazole": 0.002159,
        "E85": 0.000819,
        "E10": 0.0019590000000000002
      },
      "maj_gouv": {
        "Gazole": "2026-04-28 12:17:24",
        "E85": "2026-04-21 12:33:47",
        "E10": "2026-04-28 12:17:24"
      }
    },
    {
      "id": "33380004",
      "lat": 44.617,
      "lon": -0.918,
      "cp": "33380",
      "ville": "MIOS",
      "prix": {
        "Gazole": 0.002149,
        "E85": 0.00079,
        "E10": 0.0019890000000000003,
        "SP98": 0.002059
      },
      "maj_gouv": {
        "Gazole": "2026-05-02 01:18:00",
        "E85": "2026-05-02 01:18:00",
        "E10": "2026-05-02 01:18:00",
        "SP98": "2026-05-02 01:18:00"
      }
    },
    {
      "id": "33150003",
      "lat": 44.854,
      "lon": -0.517,
      "cp": "33150",
      "ville": "CENON",
      "prix": {
        "Gazole": 0.0022589999999999997,
        "E10": 0.002049,
        "SP98": 0.002179
      },
      "maj_gouv": {
        "Gazole": "2026-04-30 11:23:01",
        "E10": "2026-04-30 11:23:01",
        "SP98": "2026-04-30 11:23:01"
      }
    },
    {
      "id": "33121002",
      "lat": 45.079,
      "lon": -1.037,
      "cp": "33121",
      "ville": "CARCANS",
      "prix": {
        "Gazole": 0.00232,
        "SP95": 0.00207,
        "SP98": 0.00213
      },
      "maj_gouv": {
        "Gazole": "2026-04-29 10:40:55",
        "SP95": "2026-04-29 10:40:55",
        "SP98": "2026-04-29 10:40:55"
      }
    },
    {
      "id": "33580002",
      "lat": 44.6499822,
      "lon": 0.08761100000000001,
      "cp": "33580",
      "ville": "Monségur",
      "prix": {
        "Gazole": 0.002199,
        "SP95": 0.0020099999999999996,
        "SP98": 0.002109
      },
      "maj_gouv": {
        "Gazole": "2026-05-02 05:19:10",
        "SP95": "2026-05-02 05:19:10",
        "SP98": "2026-05-02 05:19:10"
      }
    },
    {
      "id": "33700010",
      "lat": 44.84786797488,
      "lon": -0.65871498742554,
      "cp": "33700",
      "ville": "Mérignac",
      "prix": {
        "Gazole": 0.002156,
        "E10": 0.001952,
        "SP98": 0.002062
      },
      "maj_gouv": {
        "Gazole": "2026-04-28 15:26:40",
        "E10": "2026-04-28 15:26:40",
        "SP98": "2026-04-28 15:26:40"
      }
    },
    {
      "id": "33470001",
      "lat": 44.619,
      "lon": -1.074,
      "cp": "33470",
      "ville": "GUJAN-MESTRAS",
      "prix": {
        "Gazole": 0.002179,
        "GPLc": 0.0010500000000000002,
        "E10": 0.0020299999999999997,
        "SP98": 0.002108
      },
      "maj_gouv": {
        "Gazole": "2026-04-29 10:49:40",
        "GPLc": "2026-04-08 07:31:11",
        "E10": "2026-04-28 09:13:58",
        "SP98": "2026-04-29 07:43:08"
      }
    },
    {
      "id": "33480006",
      "lat": 44.967,
      "lon": -0.893,
      "cp": "33480",
      "ville": "SAINTE-HéLèNE",
      "prix": {
        "Gazole": 0.002169,
        "E85": 0.0008179999999999999,
        "E10": 0.001999,
        "SP98": 0.002079
      },
      "maj_gouv": {
        "Gazole": "2026-04-28 10:19:27",
        "E85": "2026-04-17 07:58:43",
        "E10": "2026-04-17 16:07:52",
        "SP98": "2026-04-28 10:19:27"
      }
    },
    {
      "id": "33460006",
      "lat": 45.069,
      "lon": -0.723,
      "cp": "33460",
      "ville": "Arcins",
      "prix": {
        "Gazole": 0.002195,
        "SP95": 0.00202,
        "SP98": 0.0021000000000000003
      },
      "maj_gouv": {
        "Gazole": "2026-04-29 10:55:12",
        "SP95": "2026-04-29 10:55:12",
        "SP98": "2026-04-29 10:55:12"
      }
    },
    {
      "id": "33210003",
      "lat": 44.542,
      "lon": -0.254,
      "cp": "33210",
      "ville": "Langon",
      "prix": {
        "Gazole": 0.002149,
        "SP95": 0.002019,
        "E85": 0.0008179999999999999,
        "GPLc": 0.001053,
        "E10": 0.0019850000000000002,
        "SP98": 0.002079
      },
      "maj_gouv": {
        "Gazole": "2026-05-02 01:17:00",
        "SP95": "2026-05-02 01:17:00",
        "E85": "2026-05-02 01:17:00",
        "GPLc": "2026-05-02 01:17:00",
        "E10": "2026-05-02 01:17:00",
        "SP98": "2026-05-02 01:17:00"
      }
    },
    {
      "id": "33620003",
      "lat": 45.107,
      "lon": -0.341,
      "cp": "33620",
      "ville": "Laruscade",
      "prix": {
        "Gazole": 0.002179,
        "SP95": 0.001999,
        "SP98": 0.002109
      },
      "maj_gouv": {
        "Gazole": "2026-04-22 15:56:05",
        "SP95": "2026-04-22 15:56:05",
        "SP98": "2026-04-22 15:56:05"
      }
    },
    {
      "id": "33700002",
      "lat": 44.834,
      "lon": -0.617,
      "cp": "33700",
      "ville": "MéRIGNAC",
      "prix": {
        "Gazole": 0.002169,
        "E85": 0.000911,
        "E10": 0.0019590000000000002,
        "SP98": 0.002069
      },
      "maj_gouv": {
        "Gazole": "2026-04-30 10:15:31",
        "E85": "2026-04-30 10:15:31",
        "E10": "2026-04-30 10:15:31",
        "SP98": "2026-04-30 10:15:31"
      }
    },
    {
      "id": "33140009",
      "lat": 44.77,
      "lon": -0.579,
      "cp": "33140",
      "ville": "VILLENAVE D'ORNON",
      "prix": {
        "Gazole": 0.002229,
        "E10": 0.002049
      },
      "maj_gouv": {
        "Gazole": "2026-04-30 11:20:41",
        "E10": "2026-04-30 11:20:41"
      }
    },
    {
      "id": "33340004",
      "lat": 45.312,
      "lon": -0.94,
      "cp": "33340",
      "ville": "Lesparre-Médoc",
      "prix": {
        "Gazole": 0.002166,
        "SP95": 0.0020729999999999998,
        "E85": 0.000766,
        "E10": 0.001997,
        "SP98": 0.002144
      },
      "maj_gouv": {
        "Gazole": "2026-05-01 00:40:00",
        "SP95": "2026-05-01 00:40:00",
        "E85": "2026-05-01 00:40:00",
        "E10": "2026-05-01 00:40:00",
        "SP98": "2026-05-01 00:40:00"
      }
    },
    {
      "id": "33450008",
      "lat": 44.874005618367995,
      "lon": -0.42921932214645,
      "cp": "33450",
      "ville": "Montussan",
      "prix": {
        "Gazole": 0.002159,
        "E85": 0.0008179999999999999,
        "E10": 0.001929
      },
      "maj_gouv": {
        "Gazole": "2026-04-17 09:38:59",
        "E85": "2026-04-17 09:43:06",
        "E10": "2026-04-24 08:51:12"
      }
    },
    {
      "id": "33000016",
      "lat": 44.819,
      "lon": -0.602,
      "cp": "33000",
      "ville": "BORDEAUX",
      "prix": {
        "Gazole": 0.002249,
        "E10": 0.002059,
        "SP98": 0.002209
      },
      "maj_gouv": {
        "Gazole": "2026-05-01 11:28:23",
        "E10": "2026-05-01 11:28:24",
        "SP98": "2026-05-01 11:28:24"
      }
    },
    {
      "id": "33500007",
      "lat": 44.9132001846,
      "lon": -0.25401935269000003,
      "cp": "33500",
      "ville": "ARVEYRES",
      "prix": {
        "Gazole": 0.00209,
        "E85": 0.000839,
        "E10": 0.00199,
        "SP98": 0.00199
      },
      "maj_gouv": {
        "Gazole": "2026-05-02 00:01:00",
        "E85": "2026-05-02 00:01:00",
        "E10": "2026-05-02 00:01:00",
        "SP98": "2026-05-02 00:01:00"
      }
    },
    {
      "id": "33210001",
      "lat": 44.551,
      "lon": -0.265,
      "cp": "33210",
      "ville": "LANGON",
      "prix": {
        "Gazole": 0.00209,
        "GPLc": 0.00107,
        "E10": 0.00199,
        "SP98": 0.00199
      },
      "maj_gouv": {
        "Gazole": "2026-05-01 09:42:25",
        "GPLc": "2026-04-29 07:54:10",
        "E10": "2026-04-29 07:54:10",
        "SP98": "2026-04-29 07:54:10"
      }
    },
    {
      "id": "33112001",
      "lat": 45.152,
      "lon": -0.81,
      "cp": "33112",
      "ville": "SAINT-LAURENT-MéDOC",
      "prix": {
        "Gazole": 0.002199,
        "E85": 0.000795,
        "E10": 0.0020499999999999997,
        "SP98": 0.002125
      },
      "maj_gouv": {
        "Gazole": "2026-04-28 07:00:00",
        "E85": "2026-04-28 07:00:00",
        "E10": "2026-04-28 07:00:00",
        "SP98": "2026-04-28 07:00:00"
      }
    },
    {
      "id": "33470003",
      "lat": 44.622,
      "lon": -1.018,
      "cp": "33470",
      "ville": "LE TEICH",
      "prix": {
        "Gazole": 0.0022660000000000002,
        "SP95": 0.002114,
        "SP98": 0.002155
      },
      "maj_gouv": {
        "Gazole": "2026-04-29 15:51:28",
        "SP95": "2026-04-29 15:51:28",
        "SP98": "2026-04-29 15:51:28"
      }
    },
    {
      "id": "33710002",
      "lat": 45.042117694116,
      "lon": -0.56017088552363,
      "cp": "33710",
      "ville": "Bourg",
      "prix": {
        "Gazole": 0.00215,
        "E85": 0.000809,
        "E10": 0.001939,
        "SP98": 0.002049
      },
      "maj_gouv": {
        "Gazole": "2026-04-22 18:32:56",
        "E85": "2026-03-27 06:43:16",
        "E10": "2026-04-17 13:22:26",
        "SP98": "2026-04-17 13:22:26"
      }
    },
    {
      "id": "33240011",
      "lat": 44.989,
      "lon": -0.449,
      "cp": "33240",
      "ville": "Saint-André-de-Cubzac",
      "prix": {
        "Gazole": 0.00209,
        "E85": 0.0008359999999999999,
        "E10": 0.00199
      },
      "maj_gouv": {
        "Gazole": "2026-05-02 00:01:00",
        "E85": "2026-05-02 00:01:00",
        "E10": "2026-05-02 00:01:00"
      }
    },
    {
      "id": "33750004",
      "lat": 44.86,
      "lon": -0.321,
      "cp": "33750",
      "ville": "Saint-Germain-du-Puch",
      "prix": {
        "Gazole": 0.002199,
        "SP95": 0.002079,
        "SP98": 0.002165
      },
      "maj_gouv": {
        "Gazole": "2026-04-30 05:58:08",
        "SP95": "2026-04-07 07:58:16",
        "SP98": "2026-04-09 06:50:33"
      }
    },
    {
      "id": "33000024",
      "lat": 44.861,
      "lon": -0.57,
      "cp": "33000",
      "ville": "BORDEAUX",
      "prix": {
        "Gazole": 0.00209,
        "E85": 0.000839,
        "E10": 0.00199,
        "SP98": 0.00199
      },
      "maj_gouv": {
        "Gazole": "2026-05-02 00:01:00",
        "E85": "2026-05-02 00:01:00",
        "E10": "2026-05-02 00:01:00",
        "SP98": "2026-05-02 00:01:00"
      }
    },
    {
      "id": "33260001",
      "lat": 44.641,
      "lon": -1.156,
      "cp": "33260",
      "ville": "LA TESTE-DE-BUCH",
      "prix": {
        "Gazole": 0.002149,
        "E85": 0.000819,
        "E10": 0.0019790000000000003,
        "SP98": 0.002099
      },
      "maj_gouv": {
        "Gazole": "2026-04-28 10:21:15",
        "E85": "2026-04-20 10:55:22",
        "E10": "2026-04-30 11:32:56",
        "SP98": "2026-04-30 11:32:56"
      }
    },
    {
      "id": "33910001",
      "lat": 44.99257,
      "lon": -0.20126,
      "cp": "33910",
      "ville": "Saint-Denis-de-Pile",
      "prix": {
        "Gazole": 0.002149,
        "E85": 0.000819,
        "E10": 0.001981,
        "SP98": 0.002089
      },
      "maj_gouv": {
        "Gazole": "2026-04-30 10:28:23",
        "E85": "2026-04-17 09:58:24",
        "E10": "2026-04-30 08:57:07",
        "SP98": "2026-04-30 08:57:07"
      }
    },
    {
      "id": "33500001",
      "lat": 44.901,
      "lon": -0.218,
      "cp": "33500",
      "ville": "LIBOURNE",
      "prix": {
        "Gazole": 0.002197,
        "SP95": 0.002111,
        "E85": 0.0008539999999999999,
        "E10": 0.002065,
        "SP98": 0.002199
      },
      "maj_gouv": {
        "Gazole": "2026-05-02 00:40:00",
        "SP95": "2026-05-02 00:40:00",
        "E85": "2026-05-02 00:40:00",
        "E10": "2026-05-02 00:40:00",
        "SP98": "2026-05-02 00:40:00"
      }
    },
    {
      "id": "33240012",
      "lat": 44.974102327888005,
      "lon": -0.38659220984961,
      "cp": "33240",
      "ville": "La Lande-de-Fronsac",
      "prix": {
        "Gazole": 0.002199,
        "E10": 0.002099,
        "SP98": 0.002155
      },
      "maj_gouv": {
        "Gazole": "2026-04-30 08:59:21",
        "E10": "2026-04-30 08:59:21",
        "SP98": "2026-04-30 08:59:21"
      }
    },
    {
      "id": "33670001",
      "lat": 44.772088427,
      "lon": -0.335077945189,
      "cp": "33670",
      "ville": "Créon",
      "prix": {
        "Gazole": 0.002179,
        "E85": 0.000809,
        "E10": 0.0019790000000000003,
        "SP98": 0.002079
      },
      "maj_gouv": {
        "Gazole": "2026-04-29 12:12:29",
        "E85": "2026-03-05 11:57:05",
        "E10": "2026-04-29 12:12:29",
        "SP98": "2026-04-29 12:12:29"
      }
    },
    {
      "id": "33680001",
      "lat": 44.97654,
      "lon": -1.06739,
      "cp": "33680",
      "ville": "Lacanau",
      "prix": {
        "Gazole": 0.00209,
        "E10": 0.00199
      },
      "maj_gouv": {
        "Gazole": "2026-05-01 00:08:58",
        "E10": "2026-05-01 00:08:58"
      }
    },
    {
      "id": "33680005",
      "lat": 44.97648,
      "lon": -1.06512,
      "cp": "33680",
      "ville": "LACANAU",
      "prix": {
        "Gazole": 0.0022029999999999997,
        "SP95": 0.0020310000000000003,
        "E85": 0.000737,
        "GPLc": 0.00109,
        "E10": 0.001999
      },
      "maj_gouv": {
        "Gazole": "2026-04-30 05:52:24",
        "SP95": "2026-04-25 05:58:45",
        "E85": "2026-04-22 06:44:23",
        "GPLc": "2026-04-22 06:44:24",
        "E10": "2026-04-28 05:52:33"
      }
    },
    {
      "id": "33700023",
      "lat": 44.849709502131,
      "lon": -0.66664775466915,
      "cp": "33700",
      "ville": "MERIGNAC",
      "prix": {
        "Gazole": 0.00209,
        "GPLc": 0.001039,
        "E10": 0.00199,
        "SP98": 0.00199
      },
      "maj_gouv": {
        "Gazole": "2026-05-01 10:00:00",
        "GPLc": "2026-05-01 10:00:00",
        "E10": "2026-05-01 10:00:00",
        "SP98": "2026-05-01 10:00:00"
      }
    },
    {
      "id": "33290001",
      "lat": 44.94839,
      "lon": -0.63068,
      "cp": "33290",
      "ville": "LE PIAN-MéDOC",
      "prix": {
        "Gazole": 0.00209,
        "E85": 0.000869,
        "E10": 0.00199,
        "SP98": 0.00199
      },
      "maj_gouv": {
        "Gazole": "2026-05-01 09:18:27",
        "E85": "2026-05-01 09:18:27",
        "E10": "2026-05-01 09:18:27",
        "SP98": "2026-05-01 09:18:27"
      }
    },
    {
      "id": "33260011",
      "lat": 44.618,
      "lon": -1.123,
      "cp": "33260",
      "ville": "LA TESTE-DE-BUCH",
      "prix": {
        "Gazole": 0.002149,
        "SP95": 0.002055,
        "E85": 0.00075,
        "GPLc": 0.001045,
        "E10": 0.001999,
        "SP98": 0.002083
      },
      "maj_gouv": {
        "Gazole": "2026-04-28 11:21:25",
        "SP95": "2026-04-30 14:42:53",
        "E85": "2026-04-15 08:11:17",
        "GPLc": "2026-04-24 12:58:04",
        "E10": "2026-04-28 11:32:57",
        "SP98": "2026-04-30 14:42:54"
      }
    },
    {
      "id": "33360003",
      "lat": 44.783,
      "lon": -0.496,
      "cp": "33360",
      "ville": "LATRESNE",
      "prix": {
        "Gazole": 0.00209,
        "E10": 0.00199,
        "SP98": 0.00199
      },
      "maj_gouv": {
        "Gazole": "2026-05-02 00:01:00",
        "E10": "2026-05-02 00:01:00",
        "SP98": "2026-05-02 00:01:00"
      }
    },
    {
      "id": "33650003",
      "lat": 44.684,
      "lon": -0.521,
      "cp": "33650",
      "ville": "La Brède",
      "prix": {
        "Gazole": 0.002209,
        "E85": 0.0008489999999999999,
        "E10": 0.002009,
        "SP98": 0.002139
      },
      "maj_gouv": {
        "Gazole": "2026-04-29 11:04:11",
        "E85": "2026-04-01 13:36:14",
        "E10": "2026-04-30 16:35:49",
        "SP98": "2026-04-30 10:21:21"
      }
    },
    {
      "id": "33310006",
      "lat": 44.879,
      "lon": -0.518,
      "cp": "33310",
      "ville": "LORMONT",
      "prix": {
        "Gazole": 0.002299,
        "E85": 0.000855,
        "GPLc": 0.001059,
        "E10": 0.002139,
        "SP98": 0.002199
      },
      "maj_gouv": {
        "Gazole": "2026-04-30 00:00:00",
        "E85": "2026-04-30 00:00:00",
        "GPLc": "2026-04-21 00:00:00",
        "E10": "2026-04-30 00:00:00",
        "SP98": "2026-04-30 00:00:00"
      }
    },
    {
      "id": "33720009",
      "lat": 44.562,
      "lon": -0.419,
      "cp": "33720",
      "ville": "LANDIRAS",
      "prix": {
        "Gazole": 0.002199,
        "E10": 0.0019790000000000003,
        "SP98": 0.002069
      },
      "maj_gouv": {
        "Gazole": "2026-05-01 11:50:36",
        "E10": "2026-05-01 11:50:36",
        "SP98": "2026-05-01 11:50:36"
      }
    },
    {
      "id": "33600010",
      "lat": 44.795279940609994,
      "lon": -0.6045088660429899,
      "cp": "33600",
      "ville": "PESSAC",
      "prix": {
        "Gazole": 0.00209,
        "E85": 0.000841,
        "E10": 0.00199,
        "SP98": 0.00199
      },
      "maj_gouv": {
        "Gazole": "2026-05-02 00:01:00",
        "E85": "2026-05-02 00:01:00",
        "E10": "2026-05-02 00:01:00",
        "SP98": "2026-05-02 00:01:00"
      }
    },
    {
      "id": "33190004",
      "lat": 44.58387,
      "lon": -0.06804,
      "cp": "33190",
      "ville": "La Réole",
      "prix": {
        "Gazole": 0.002179,
        "E85": 0.0008179999999999999,
        "GPLc": 0.001049,
        "E10": 0.0019850000000000002,
        "SP98": 0.002089
      },
      "maj_gouv": {
        "Gazole": "2026-04-30 04:59:04",
        "E85": "2026-04-23 06:54:26",
        "GPLc": "2026-04-23 06:54:26",
        "E10": "2026-04-30 04:59:04",
        "SP98": "2026-04-30 04:59:04"
      }
    },
    {
      "id": "33402001",
      "lat": 44.79956,
      "lon": -0.58415,
      "cp": "33400",
      "ville": "Talence",
      "prix": {
        "Gazole": 0.0021349999999999997,
        "SP95": 0.00202,
        "E10": 0.001974
      },
      "maj_gouv": {
        "Gazole": "2026-04-30 07:18:08",
        "SP95": "2026-04-30 07:18:08",
        "E10": "2026-04-30 07:18:08"
      }
    },
    {
      "id": "33980002",
      "lat": 44.696,
      "lon": -0.979,
      "cp": "33980",
      "ville": "AUDENGE",
      "prix": {
        "Gazole": 0.0022010000000000003,
        "SP95": 0.0020299999999999997,
        "E10": 0.0019890000000000003,
        "SP98": 0.002089
      },
      "maj_gouv": {
        "Gazole": "2026-04-28 08:46:21",
        "SP95": "2026-04-28 08:46:21",
        "E10": "2026-04-28 08:46:21",
        "SP98": "2026-04-28 08:46:21"
      }
    },
    {
      "id": "33130004",
      "lat": 44.79,
      "lon": -0.567,
      "cp": "33130",
      "ville": "BèGLES",
      "prix": {
        "Gazole": 0.002173,
        "E10": 0.001953,
        "SP98": 0.00211
      },
      "maj_gouv": {
        "Gazole": "2026-04-30 09:25:26",
        "E10": "2026-04-30 09:25:26",
        "SP98": "2026-04-30 09:25:26"
      }
    },
    {
      "id": "33930002",
      "lat": 45.35615,
      "lon": -1.06209,
      "cp": "33930",
      "ville": "VENDAYS-MONTALIVET",
      "prix": {
        "Gazole": 0.0022400000000000002,
        "E85": 0.00085,
        "E10": 0.00202,
        "SP98": 0.00211
      },
      "maj_gouv": {
        "Gazole": "2026-04-29 13:00:37",
        "E85": "2026-04-24 14:17:30",
        "E10": "2026-04-29 13:00:37",
        "SP98": "2026-04-29 13:00:37"
      }
    },
    {
      "id": "33080001",
      "lat": 44.884,
      "lon": -0.563,
      "cp": "33300",
      "ville": "BORDEAUX",
      "prix": {
        "Gazole": 0.002139,
        "E85": 0.000732,
        "GPLc": 0.001059,
        "E10": 0.001988,
        "SP98": 0.002048
      },
      "maj_gouv": {
        "Gazole": "2026-04-30 10:42:58",
        "E85": "2026-04-30 15:15:04",
        "GPLc": "2026-04-10 14:57:42",
        "E10": "2026-04-30 15:15:04",
        "SP98": "2026-04-30 15:15:04"
      }
    },
    {
      "id": "33390001",
      "lat": 45.19,
      "lon": -0.619,
      "cp": "33390",
      "ville": "EYRANS",
      "prix": {
        "Gazole": 0.00225,
        "E10": 0.00199,
        "SP98": 0.00199
      },
      "maj_gouv": {
        "Gazole": "2026-04-30 07:36:16",
        "E10": "2026-04-30 07:36:16",
        "SP98": "2026-04-30 07:36:16"
      }
    },
    {
      "id": "33610008",
      "lat": 44.746,
      "lon": -0.703,
      "cp": "33610",
      "ville": "Cestas",
      "prix": {
        "Gazole": 0.002534,
        "E10": 0.0024159999999999997,
        "SP98": 0.0025659999999999997
      },
      "maj_gouv": {
        "Gazole": "2026-05-01 09:30:00",
        "E10": "2026-05-01 09:30:00",
        "SP98": "2026-05-01 09:30:00"
      }
    },
    {
      "id": "33250006",
      "lat": 45.193589,
      "lon": -0.749764,
      "cp": "33250",
      "ville": "PAUILLAC",
      "prix": {
        "Gazole": 0.00219,
        "SP95": 0.002042,
        "SP98": 0.002106
      },
      "maj_gouv": {
        "Gazole": "2026-04-27 08:27:23",
        "SP95": "2026-04-27 08:27:24",
        "SP98": "2026-04-27 08:27:24"
      }
    },
    {
      "id": "33260012",
      "lat": 44.646,
      "lon": -1.157,
      "cp": "33260",
      "ville": "LA TESTE",
      "prix": {
        "Gazole": 0.00209,
        "E85": 0.0008349999999999999,
        "GPLc": 0.001046,
        "E10": 0.00199,
        "SP98": 0.00199
      },
      "maj_gouv": {
        "Gazole": "2026-05-02 00:01:00",
        "E85": "2026-05-02 00:01:00",
        "GPLc": "2026-05-02 00:01:00",
        "E10": "2026-05-02 00:01:00",
        "SP98": "2026-05-02 00:01:00"
      }
    },
    {
      "id": "33750003",
      "lat": 44.881,
      "lon": -0.356,
      "cp": "33750",
      "ville": "Beychac-et-Caillau",
      "prix": {
        "Gazole": 0.00209,
        "E85": 0.000829,
        "E10": 0.00199
      },
      "maj_gouv": {
        "Gazole": "2026-05-02 00:01:00",
        "E85": "2026-05-02 00:01:00",
        "E10": "2026-05-02 00:01:00"
      }
    },
    {
      "id": "33840003",
      "lat": 44.286238402129,
      "lon": -0.22900636350622,
      "cp": "33840",
      "ville": "CAPTIEUX",
      "prix": {
        "Gazole": 0.002549,
        "GPLc": 0.001149,
        "E10": 0.002299,
        "SP98": 0.002399
      },
      "maj_gouv": {
        "Gazole": "2026-05-02 00:01:00",
        "GPLc": "2026-05-02 00:01:00",
        "E10": "2026-05-02 00:01:00",
        "SP98": "2026-05-02 00:01:00"
      }
    },
    {
      "id": "33290003",
      "lat": 44.95436,
      "lon": -0.62917,
      "cp": "33290",
      "ville": "LE PIAN-MéDOC",
      "prix": {
        "Gazole": 0.00216,
        "E85": 0.0008179999999999999,
        "GPLc": 0.0010500000000000002,
        "E10": 0.0019890000000000003,
        "SP98": 0.002065
      },
      "maj_gouv": {
        "Gazole": "2026-04-30 08:22:17",
        "E85": "2026-04-22 08:21:48",
        "GPLc": "2026-04-24 08:50:44",
        "E10": "2026-04-30 08:22:17",
        "SP98": "2026-04-30 08:22:17"
      }
    },
    {
      "id": "33720008",
      "lat": 44.645,
      "lon": -0.436,
      "cp": "33720",
      "ville": "PODENSAC",
      "prix": {
        "Gazole": 0.00209,
        "E85": 0.000999,
        "GPLc": 0.001089,
        "E10": 0.00199,
        "SP98": 0.00199
      },
      "maj_gouv": {
        "Gazole": "2026-05-01 10:00:00",
        "E85": "2026-05-01 10:00:00",
        "GPLc": "2026-05-01 10:00:00",
        "E10": "2026-05-01 10:00:00",
        "SP98": "2026-05-01 10:00:00"
      }
    },
    {
      "id": "33520003",
      "lat": 44.888,
      "lon": -0.581,
      "cp": "33520",
      "ville": "Bruges",
      "prix": {
        "Gazole": 0.002294,
        "GPLc": 0.001039,
        "E10": 0.002056,
        "SP98": 0.002156
      },
      "maj_gouv": {
        "Gazole": "2026-05-01 07:46:00",
        "GPLc": "2026-05-01 07:46:00",
        "E10": "2026-05-01 07:46:00",
        "SP98": "2026-05-01 07:46:00"
      }
    },
    {
      "id": "33760001",
      "lat": 44.735,
      "lon": -0.26,
      "cp": "33760",
      "ville": "TARGON",
      "prix": {
        "Gazole": 0.00225,
        "SP95": 0.00199
      },
      "maj_gouv": {
        "Gazole": "2026-04-28 14:14:36",
        "SP95": "2026-04-22 13:33:23"
      }
    },
    {
      "id": "33310007",
      "lat": 44.871271371999995,
      "lon": -0.505591860198,
      "cp": "33310",
      "ville": "LORMONT",
      "prix": {
        "Gazole": 0.00209,
        "E85": 0.000841,
        "GPLc": 0.001059,
        "E10": 0.00199,
        "SP98": 0.00199
      },
      "maj_gouv": {
        "Gazole": "2026-05-01 10:00:00",
        "E85": "2026-05-01 10:00:00",
        "GPLc": "2026-05-01 10:00:00",
        "E10": "2026-05-01 10:00:00",
        "SP98": "2026-05-01 10:00:00"
      }
    },
    {
      "id": "33830005",
      "lat": 44.50865,
      "lon": -0.78425,
      "cp": "33830",
      "ville": "Belin-Béliet",
      "prix": {
        "Gazole": 0.002189,
        "E85": 0.0008179999999999999,
        "E10": 0.0019890000000000003,
        "SP98": 0.002109
      },
      "maj_gouv": {
        "Gazole": "2026-04-28 06:49:51",
        "E85": "2026-04-16 09:15:39",
        "E10": "2026-04-28 06:49:51",
        "SP98": "2026-04-28 06:49:51"
      }
    },
    {
      "id": "33220006",
      "lat": 44.826,
      "lon": 0.221,
      "cp": "33220",
      "ville": "PINEUILH",
      "prix": {
        "Gazole": 0.002142,
        "SP95": 0.002029,
        "E85": 0.000727,
        "GPLc": 0.001018,
        "E10": 0.0019790000000000003,
        "SP98": 0.0020459999999999996
      },
      "maj_gouv": {
        "Gazole": "2026-05-02 01:17:00",
        "SP95": "2026-05-02 01:17:00",
        "E85": "2026-05-02 01:17:00",
        "GPLc": "2026-05-02 01:17:00",
        "E10": "2026-05-02 01:17:00",
        "SP98": "2026-05-02 01:17:00"
      }
    },
    {
      "id": "33460004",
      "lat": 44.9994213,
      "lon": -0.618851,
      "cp": "33460",
      "ville": "MACAU",
      "prix": {
        "Gazole": 0.00216,
        "SP95": 0.002049,
        "E10": 0.0019890000000000003,
        "SP98": 0.002065
      },
      "maj_gouv": {
        "Gazole": "2026-04-30 09:51:01",
        "SP95": "2026-04-30 09:51:01",
        "E10": "2026-04-30 09:51:02",
        "SP98": "2026-04-30 09:51:02"
      }
    },
    {
      "id": "33920003",
      "lat": 45.139,
      "lon": -0.443,
      "cp": "33920",
      "ville": "Saint-Savin",
      "prix": {
        "Gazole": 0.002139,
        "SP95": 0.001999,
        "E10": 0.0019890000000000003
      },
      "maj_gouv": {
        "Gazole": "2026-04-29 10:09:17",
        "SP95": "2026-04-29 10:09:17",
        "E10": "2026-04-29 10:09:17"
      }
    },
    {
      "id": "33600013",
      "lat": 44.785,
      "lon": -0.636,
      "cp": "33600",
      "ville": "Pessac",
      "prix": {
        "Gazole": 0.0022010000000000003,
        "E85": 0.000829,
        "GPLc": 0.001063,
        "E10": 0.00199,
        "SP98": 0.002
      },
      "maj_gouv": {
        "Gazole": "2026-04-30 06:50:19",
        "E85": "2026-04-30 06:50:19",
        "GPLc": "2026-04-30 06:50:19",
        "E10": "2026-04-30 06:50:19",
        "SP98": "2026-04-30 06:50:20"
      }
    },
    {
      "id": "33620001",
      "lat": 45.095,
      "lon": -0.387,
      "cp": "33620",
      "ville": "CAVIGNAC",
      "prix": {
        "Gazole": 0.002149,
        "E85": 0.000759,
        "E10": 0.001999,
        "SP98": 0.002059
      },
      "maj_gouv": {
        "Gazole": "2026-04-28 10:53:40",
        "E85": "2026-04-28 10:53:40",
        "E10": "2026-04-28 10:53:40",
        "SP98": "2026-04-28 10:53:40"
      }
    },
    {
      "id": "33000021",
      "lat": 44.831,
      "lon": -0.558,
      "cp": "33800",
      "ville": "BORDEAUX",
      "prix": {
        "Gazole": 0.00209,
        "E85": 0.000839,
        "E10": 0.00199,
        "SP98": 0.00199
      },
      "maj_gouv": {
        "Gazole": "2026-05-02 00:01:00",
        "E85": "2026-05-02 00:01:00",
        "E10": "2026-05-02 00:01:00",
        "SP98": "2026-05-02 00:01:00"
      }
    },
    {
      "id": "33990002",
      "lat": 45.194,
      "lon": -1.051,
      "cp": "33990",
      "ville": "HOURTIN",
      "prix": {},
      "maj_gouv": {}
    },
    {
      "id": "33230002",
      "lat": 45.0483566606,
      "lon": -0.122292144133,
      "cp": "33230",
      "ville": "COUTRAS",
      "prix": {
        "Gazole": 0.002159,
        "E85": 0.0008179999999999999,
        "E10": 0.001988,
        "SP98": 0.002069
      },
      "maj_gouv": {
        "Gazole": "2026-04-29 08:33:11",
        "E85": "2026-04-29 08:33:11",
        "E10": "2026-04-29 08:33:11",
        "SP98": "2026-04-29 08:33:11"
      }
    },
    {
      "id": "33124001",
      "lat": 44.522291100000004,
      "lon": -0.0467252,
      "cp": "33124",
      "ville": "AILLAS",
      "prix": {
        "Gazole": 0.002249,
        "E10": 0.002039
      },
      "maj_gouv": {
        "Gazole": "2026-04-20 10:42:50",
        "E10": "2026-04-20 09:10:19"
      }
    },
    {
      "id": "33610007",
      "lat": 44.743,
      "lon": -0.706,
      "cp": "33610",
      "ville": "CESTAS",
      "prix": {
        "Gazole": 0.002534,
        "E10": 0.0024159999999999997,
        "SP98": 0.0025659999999999997
      },
      "maj_gouv": {
        "Gazole": "2026-05-01 09:30:00",
        "E10": "2026-05-01 09:30:00",
        "SP98": "2026-05-01 09:30:00"
      }
    },
    {
      "id": "33770001",
      "lat": 44.548,
      "lon": -0.877,
      "cp": "33770",
      "ville": "SALLES",
      "prix": {
        "Gazole": 0.002189,
        "E85": 0.000819,
        "E10": 0.0019890000000000003,
        "SP98": 0.002079
      },
      "maj_gouv": {
        "Gazole": "2026-04-28 08:21:38",
        "E85": "2026-04-24 08:22:10",
        "E10": "2026-04-28 08:21:38",
        "SP98": "2026-04-27 07:23:08"
      }
    },
    {
      "id": "33000023",
      "lat": 44.829,
      "lon": -0.541,
      "cp": "33100",
      "ville": "BORDEAUX",
      "prix": {
        "Gazole": 0.00209,
        "E85": 0.000829,
        "E10": 0.00199,
        "SP98": 0.00199
      },
      "maj_gouv": {
        "Gazole": "2026-05-02 00:01:00",
        "E85": "2026-05-02 00:01:00",
        "E10": "2026-05-02 00:01:00",
        "SP98": "2026-05-02 00:01:00"
      }
    },
    {
      "id": "33440004",
      "lat": 44.954,
      "lon": -0.534,
      "cp": "33440",
      "ville": "Saint-Louis-de-Montferrand",
      "prix": {
        "Gazole": 0.002299,
        "SP95": 0.002199,
        "SP98": 0.0022789999999999998
      },
      "maj_gouv": {
        "Gazole": "2026-04-30 14:34:56",
        "SP95": "2026-04-30 14:34:56",
        "SP98": "2026-04-30 14:34:56"
      }
    },
    {
      "id": "33380001",
      "lat": 44.637,
      "lon": -0.96,
      "cp": "33380",
      "ville": "BIGANOS",
      "prix": {
        "Gazole": 0.002149,
        "E85": 0.00079,
        "GPLc": 0.0009809999999999999,
        "E10": 0.0019890000000000003,
        "SP98": 0.002059
      },
      "maj_gouv": {
        "Gazole": "2026-04-30 09:52:22",
        "E85": "2026-04-30 09:52:22",
        "GPLc": "2026-04-30 09:52:22",
        "E10": "2026-04-30 09:52:22",
        "SP98": "2026-04-30 09:52:22"
      }
    },
    {
      "id": "33610001",
      "lat": 44.739698435813004,
      "lon": -0.6812641196847201,
      "cp": "33610",
      "ville": "CESTAS",
      "prix": {
        "Gazole": 0.002179,
        "E85": 0.000746,
        "E10": 0.002029,
        "SP98": 0.002099
      },
      "maj_gouv": {
        "Gazole": "2026-04-30 10:24:19",
        "E85": "2026-04-28 11:01:42",
        "E10": "2026-04-30 10:24:19",
        "SP98": "2026-04-30 10:24:19"
      }
    },
    {
      "id": "33680004",
      "lat": 45.005501818215,
      "lon": -1.1683849296802,
      "cp": "33680",
      "ville": "Lacanau",
      "prix": {
        "Gazole": 0.002348,
        "E10": 0.002114,
        "SP98": 0.002218
      },
      "maj_gouv": {
        "Gazole": "2026-04-07 20:22:23",
        "E10": "2026-04-07 20:22:23",
        "SP98": "2026-04-07 20:22:23"
      }
    },
    {
      "id": "33450007",
      "lat": 44.916,
      "lon": -0.422,
      "cp": "33450",
      "ville": "Saint-Loubès",
      "prix": {
        "Gazole": 0.002209,
        "SP95": 0.0019890000000000003,
        "SP98": 0.002079
      },
      "maj_gouv": {
        "Gazole": "2026-04-22 09:08:04",
        "SP95": "2026-04-08 16:13:31",
        "SP98": "2026-04-08 16:13:31"
      }
    },
    {
      "id": "33420003",
      "lat": 44.861,
      "lon": -0.256,
      "cp": "33420",
      "ville": "GENISSAC",
      "prix": {
        "Gazole": 0.0022400000000000002,
        "E10": 0.002054,
        "SP98": 0.002132
      },
      "maj_gouv": {
        "Gazole": "2026-04-28 20:11:06",
        "E10": "2026-04-28 20:11:06",
        "SP98": "2026-04-28 20:11:06"
      }
    },
    {
      "id": "33720006",
      "lat": 44.64717,
      "lon": -0.35066,
      "cp": "33720",
      "ville": "PODENSAC",
      "prix": {
        "Gazole": 0.0024,
        "SP95": 0.00225,
        "SP98": 0.00232
      },
      "maj_gouv": {
        "Gazole": "2026-04-28 17:35:16",
        "SP95": "2026-04-28 17:35:16",
        "SP98": "2026-04-28 17:35:16"
      }
    },
    {
      "id": "33127004",
      "lat": 44.842,
      "lon": -0.77,
      "cp": "33127",
      "ville": "MARTIGNAS-SUR-JALLE",
      "prix": {
        "Gazole": 0.002157,
        "E85": 0.000819,
        "E10": 0.001949,
        "SP98": 0.002057
      },
      "maj_gouv": {
        "Gazole": "2026-04-29 10:30:52",
        "E85": "2026-04-20 17:53:44",
        "E10": "2026-04-30 11:27:39",
        "SP98": "2026-04-30 11:27:40"
      }
    },
    {
      "id": "33720005",
      "lat": 44.633,
      "lon": -0.335,
      "cp": "33720",
      "ville": "Cérons",
      "prix": {
        "Gazole": 0.00218,
        "SP98": 0.00199
      },
      "maj_gouv": {
        "Gazole": "2026-04-23 09:59:21",
        "SP98": "2026-04-09 07:09:47"
      }
    },
    {
      "id": "33560002",
      "lat": 44.907,
      "lon": -0.489,
      "cp": "33560",
      "ville": "Sainte-Eulalie",
      "prix": {
        "Gazole": 0.002142,
        "E85": 0.000691,
        "GPLc": 0.000999,
        "E10": 0.001982,
        "SP98": 0.002058
      },
      "maj_gouv": {
        "Gazole": "2026-04-30 09:59:34",
        "E85": "2026-04-21 07:00:00",
        "GPLc": "2026-04-20 11:07:16",
        "E10": "2026-04-30 09:59:34",
        "SP98": "2026-04-30 09:59:34"
      }
    },
    {
      "id": "33730002",
      "lat": 44.443,
      "lon": -0.327,
      "cp": "33730",
      "ville": "PRECHAC",
      "prix": {
        "Gazole": 0.00228,
        "E10": 0.00207
      },
      "maj_gouv": {
        "Gazole": "2026-04-28 16:03:26",
        "E10": "2026-04-28 16:03:27"
      }
    },
    {
      "id": "33140010",
      "lat": 44.729,
      "lon": -0.53,
      "cp": "33140",
      "ville": "CADAUJAC",
      "prix": {
        "Gazole": 0.002299,
        "E85": 0.001075,
        "E10": 0.001999,
        "SP98": 0.0021520000000000003
      },
      "maj_gouv": {
        "Gazole": "2026-04-30 13:39:39",
        "E85": "2026-04-11 11:12:29",
        "E10": "2026-04-17 07:26:31",
        "SP98": "2026-04-17 07:26:31"
      }
    },
    {
      "id": "33700020",
      "lat": 44.842,
      "lon": -0.666,
      "cp": "33700",
      "ville": "MERIGNAC",
      "prix": {
        "Gazole": 0.00209,
        "GPLc": 0.001059,
        "E10": 0.00199,
        "SP98": 0.00199
      },
      "maj_gouv": {
        "Gazole": "2026-05-01 10:00:00",
        "GPLc": "2026-05-01 10:00:00",
        "E10": "2026-05-01 10:00:00",
        "SP98": "2026-05-01 10:00:00"
      }
    },
    {
      "id": "33440002",
      "lat": 44.919,
      "lon": -0.48,
      "cp": "33440",
      "ville": "AMBARèS-ET-LAGRAVE",
      "prix": {
        "Gazole": 0.002142,
        "E85": 0.000691,
        "E10": 0.001982,
        "SP98": 0.002058
      },
      "maj_gouv": {
        "Gazole": "2026-04-30 09:14:08",
        "E85": "2026-04-21 07:00:00",
        "E10": "2026-04-30 09:14:08",
        "SP98": "2026-04-30 09:14:09"
      }
    },
    {
      "id": "33350003",
      "lat": 44.852595022009,
      "lon": -0.046338847269563,
      "cp": "33350",
      "ville": "CASTILLON-LA-BATAILLE",
      "prix": {
        "Gazole": 0.0021190000000000002,
        "SP95": 0.001999,
        "E10": 0.002009
      },
      "maj_gouv": {
        "Gazole": "2026-05-01 07:55:33",
        "SP95": "2026-05-01 07:55:33",
        "E10": "2026-05-01 07:55:33"
      }
    },
    {
      "id": "33720001",
      "lat": 44.65647,
      "lon": -0.36582,
      "cp": "33720",
      "ville": "Podensac",
      "prix": {
        "Gazole": 0.002159,
        "SP95": 0.002029,
        "GPLc": 0.001049,
        "SP98": 0.002079
      },
      "maj_gouv": {
        "Gazole": "2026-04-30 09:06:09",
        "SP95": "2026-04-30 09:06:10",
        "GPLc": "2026-04-15 19:06:47",
        "SP98": "2026-04-30 09:06:10"
      }
    },
    {
      "id": "33370015",
      "lat": 44.867477485277995,
      "lon": -0.49283912227866994,
      "cp": "33370",
      "ville": "ARTIGUES",
      "prix": {
        "Gazole": 0.00209,
        "E10": 0.00199,
        "SP98": 0.00199
      },
      "maj_gouv": {
        "Gazole": "2026-05-02 00:01:00",
        "E10": "2026-05-02 00:01:00",
        "SP98": "2026-05-02 00:01:00"
      }
    },
    {
      "id": "33300005",
      "lat": 44.8619,
      "lon": -0.58571999999999,
      "cp": "33300",
      "ville": "BORDEAUX",
      "prix": {
        "Gazole": 0.00209,
        "SP98": 0.00199
      },
      "maj_gouv": {
        "Gazole": "2026-05-02 00:01:00",
        "SP98": "2026-05-02 00:01:00"
      }
    },
    {
      "id": "33410006",
      "lat": 44.646,
      "lon": -0.324,
      "cp": "33410",
      "ville": "Béguey",
      "prix": {
        "Gazole": 0.002159,
        "SP95": 0.002029,
        "E10": 0.001999,
        "SP98": 0.002079
      },
      "maj_gouv": {
        "Gazole": "2026-05-02 01:17:00",
        "SP95": "2026-05-02 01:17:00",
        "E10": "2026-05-02 01:17:00",
        "SP98": "2026-05-02 01:17:00"
      }
    },
    {
      "id": "33210011",
      "lat": 44.5700702602,
      "lon": -0.299294925695,
      "cp": "33210",
      "ville": "LANGON",
      "prix": {
        "Gazole": 0.00209,
        "E85": 0.000929,
        "E10": 0.00199,
        "SP98": 0.00199
      },
      "maj_gouv": {
        "Gazole": "2026-05-02 00:01:00",
        "E85": "2026-05-02 00:01:00",
        "E10": "2026-05-02 00:01:00",
        "SP98": "2026-05-02 00:01:00"
      }
    },
    {
      "id": "33523001",
      "lat": 44.874,
      "lon": -0.617,
      "cp": "33520",
      "ville": "Bruges",
      "prix": {
        "Gazole": 0.002164,
        "E85": 0.000709,
        "E10": 0.001999,
        "SP98": 0.002059
      },
      "maj_gouv": {
        "Gazole": "2026-04-30 00:01:00",
        "E85": "2026-04-29 13:05:41",
        "E10": "2026-04-30 00:01:00",
        "SP98": "2026-04-30 00:01:00"
      }
    },
    {
      "id": "33323001",
      "lat": 44.80581,
      "lon": -0.55642,
      "cp": "33130",
      "ville": "BèGLES",
      "prix": {
        "Gazole": 0.002129,
        "SP95": 0.002019,
        "SP98": 0.002059
      },
      "maj_gouv": {
        "Gazole": "2026-04-30 09:00:00",
        "SP95": "2026-04-30 09:00:00",
        "SP98": "2026-04-30 09:00:00"
      }
    },
    {
      "id": "33133002",
      "lat": 44.996,
      "lon": -0.275,
      "cp": "33133",
      "ville": "GALGON",
      "prix": {
        "Gazole": 0.002218,
        "E85": 0.000754,
        "E10": 0.002063
      },
      "maj_gouv": {
        "Gazole": "2026-04-29 11:27:11",
        "E85": "2026-04-27 07:35:54",
        "E10": "2026-04-27 14:18:28"
      }
    },
    {
      "id": "33410003",
      "lat": 44.653404892308004,
      "lon": -0.33569817467419,
      "cp": "33410",
      "ville": "Béguey",
      "prix": {
        "Gazole": 0.002159,
        "SP95": 0.002029,
        "E85": 0.0008179999999999999,
        "E10": 0.001999,
        "SP98": 0.002079
      },
      "maj_gouv": {
        "Gazole": "2026-04-30 08:18:16",
        "SP95": "2026-04-30 08:18:16",
        "E85": "2026-04-21 08:54:52",
        "E10": "2026-04-30 08:18:16",
        "SP98": "2026-04-30 08:18:16"
      }
    },
    {
      "id": "33480007",
      "lat": 45.029,
      "lon": -0.787,
      "cp": "33480",
      "ville": "Castelnau-de-Médoc",
      "prix": {
        "Gazole": 0.002148,
        "E10": 0.001988,
        "SP98": 0.002068
      },
      "maj_gouv": {
        "Gazole": "2026-04-29 07:46:00",
        "E10": "2026-04-29 07:46:00",
        "SP98": "2026-04-29 07:46:00"
      }
    },
    {
      "id": "33110003",
      "lat": 44.861,
      "lon": -0.588,
      "cp": "33110",
      "ville": "LE BOUSCAT",
      "prix": {
        "Gazole": 0.00248,
        "SP95": 0.00199,
        "SP98": 0.002036
      },
      "maj_gouv": {
        "Gazole": "2026-04-25 17:04:54",
        "SP95": "2026-04-25 17:04:54",
        "SP98": "2026-04-25 17:04:54"
      }
    },
    {
      "id": "33390004",
      "lat": 45.291,
      "lon": -0.607,
      "cp": "33820",
      "ville": "Saint-Ciers-sur-Gironde",
      "prix": {
        "Gazole": 0.002214,
        "E85": 0.000756,
        "E10": 0.001999,
        "SP98": 0.002081
      },
      "maj_gouv": {
        "Gazole": "2026-04-28 08:41:41",
        "E85": "2026-04-17 16:23:18",
        "E10": "2026-04-28 08:41:41",
        "SP98": "2026-04-28 08:41:41"
      }
    },
    {
      "id": "33138001",
      "lat": 44.703,
      "lon": -1.037,
      "cp": "33138",
      "ville": "Lanton",
      "prix": {
        "Gazole": 0.002149,
        "E10": 0.0019790000000000003,
        "SP98": 0.002099
      },
      "maj_gouv": {
        "Gazole": "2026-04-30 11:48:02",
        "E10": "2026-04-30 11:48:02",
        "SP98": "2026-04-30 11:48:02"
      }
    },
    {
      "id": "33350002",
      "lat": 44.854,
      "lon": -0.061,
      "cp": "33350",
      "ville": "Saint-Magne-de-Castillon",
      "prix": {
        "Gazole": 0.002145,
        "SP95": 0.002029,
        "E85": 0.000911,
        "E10": 0.001999,
        "SP98": 0.002058
      },
      "maj_gouv": {
        "Gazole": "2026-05-02 01:17:00",
        "SP95": "2026-05-02 01:17:00",
        "E85": "2026-05-02 01:17:00",
        "E10": "2026-05-02 01:17:00",
        "SP98": "2026-05-02 01:17:00"
      }
    },
    {
      "id": "23300008",
      "lat": 44.776,
      "lon": -0.595,
      "cp": "33170",
      "ville": "Gradignan",
      "prix": {
        "Gazole": 0.0022589999999999997,
        "E85": 0.0008449999999999999,
        "E10": 0.002039,
        "SP98": 0.002139
      },
      "maj_gouv": {
        "Gazole": "2026-04-27 07:06:15",
        "E85": "2026-04-27 07:06:15",
        "E10": "2026-04-27 07:06:15",
        "SP98": "2026-04-27 07:06:16"
      }
    },
    {
      "id": "33850001",
      "lat": 44.74793434,
      "lon": -0.59066386,
      "cp": "33850",
      "ville": "LéOGNAN",
      "prix": {
        "Gazole": 0.002144,
        "E85": 0.000699,
        "E10": 0.0019950000000000002,
        "SP98": 0.002099
      },
      "maj_gouv": {
        "Gazole": "2026-04-30 14:29:19",
        "E85": "2026-04-24 14:40:16",
        "E10": "2026-04-29 06:07:05",
        "SP98": "2026-04-30 14:29:19"
      }
    },
    {
      "id": "33360002",
      "lat": 44.76511,
      "lon": -0.4852,
      "cp": "33360",
      "ville": "Camblanes-et-Meynac",
      "prix": {
        "Gazole": 0.002162,
        "E85": 0.000748,
        "E10": 0.0019890000000000003,
        "SP98": 0.002069
      },
      "maj_gouv": {
        "Gazole": "2026-04-24 09:07:04",
        "E85": "2026-04-21 09:05:00",
        "E10": "2026-04-28 09:09:39",
        "SP98": "2026-04-28 09:09:39"
      }
    },
    {
      "id": "33130002",
      "lat": 44.792771609106,
      "lon": -0.53415800912901,
      "cp": "33130",
      "ville": "BEGLES",
      "prix": {
        "Gazole": 0.0021520000000000003,
        "SP95": 0.0020440000000000002,
        "GPLc": 0.000999,
        "E10": 0.001993,
        "SP98": 0.00211
      },
      "maj_gouv": {
        "Gazole": "2026-04-29 22:39:00",
        "SP95": "2026-04-29 22:39:00",
        "GPLc": "2026-04-24 22:42:00",
        "E10": "2026-04-29 22:39:00",
        "SP98": "2026-04-29 22:39:00"
      }
    },
    {
      "id": "33470002",
      "lat": 44.638,
      "lon": -1.067,
      "cp": "33470",
      "ville": "GUJAN-MESTRAS",
      "prix": {
        "Gazole": 0.002189,
        "SP95": 0.002072,
        "SP98": 0.002115
      },
      "maj_gouv": {
        "Gazole": "2026-04-29 09:47:14",
        "SP95": "2026-04-29 09:47:14",
        "SP98": "2026-04-29 09:47:14"
      }
    },
    {
      "id": "33410001",
      "lat": 44.636,
      "lon": -0.323,
      "cp": "33410",
      "ville": "CADILLAC",
      "prix": {
        "Gazole": 0.00225,
        "SP95": 0.00199
      },
      "maj_gouv": {
        "Gazole": "2026-04-16 13:05:43",
        "SP95": "2026-04-16 13:05:43"
      }
    },
    {
      "id": "33610005",
      "lat": 44.78,
      "lon": -0.69,
      "cp": "33610",
      "ville": "CESTAS",
      "prix": {
        "Gazole": 0.002199,
        "SP95": 0.001999,
        "GPLc": 0.001021,
        "E10": 0.00199,
        "SP98": 0.00206
      },
      "maj_gouv": {
        "Gazole": "2026-04-30 08:25:00",
        "SP95": "2026-04-30 08:25:00",
        "GPLc": "2026-04-18 08:30:00",
        "E10": "2026-04-30 08:25:00",
        "SP98": "2026-04-30 08:25:00"
      }
    },
    {
      "id": "33680006",
      "lat": 44.8753,
      "lon": -1.08692,
      "cp": "33680",
      "ville": "Le Porge",
      "prix": {
        "Gazole": 0.002199,
        "E10": 0.001999,
        "SP98": 0.002099
      },
      "maj_gouv": {
        "Gazole": "2026-04-30 18:54:07",
        "E10": "2026-04-30 18:54:07",
        "SP98": "2026-04-30 18:54:07"
      }
    },
    {
      "id": "33240007",
      "lat": 44.996,
      "lon": -0.44,
      "cp": "33240",
      "ville": "SAINT-ANDRé-DE-CUBZAC",
      "prix": {
        "Gazole": 0.002159,
        "E10": 0.001939,
        "SP98": 0.002029
      },
      "maj_gouv": {
        "Gazole": "2026-04-29 08:18:53",
        "E10": "2026-04-29 08:18:53",
        "SP98": "2026-04-14 10:15:40"
      }
    },
    {
      "id": "33300003",
      "lat": 44.863,
      "lon": -0.567,
      "cp": "33300",
      "ville": "BORDEAUX",
      "prix": {
        "Gazole": 0.00249,
        "SP95": 0.002095,
        "E10": 0.001971
      },
      "maj_gouv": {
        "Gazole": "2026-04-23 10:32:00",
        "SP95": "2026-04-23 10:32:00",
        "E10": "2026-04-24 11:19:33"
      }
    },
    {
      "id": "33640003",
      "lat": 44.7,
      "lon": -0.464,
      "cp": "33640",
      "ville": "BEAUTIRAN",
      "prix": {
        "Gazole": 0.002199,
        "E85": 0.0008489999999999999,
        "E10": 0.001999,
        "SP98": 0.002129
      },
      "maj_gouv": {
        "Gazole": "2026-04-20 09:11:46",
        "E85": "2026-04-15 11:26:31",
        "E10": "2026-04-30 09:53:12",
        "SP98": "2026-04-29 14:33:52"
      }
    },
    {
      "id": "33340003",
      "lat": 45.289,
      "lon": -0.924,
      "cp": "33340",
      "ville": "LESPARRE-MéDOC",
      "prix": {
        "Gazole": 0.002149,
        "E85": 0.000766,
        "E10": 0.0019850000000000002,
        "SP98": 0.002069
      },
      "maj_gouv": {
        "Gazole": "2026-04-30 08:30:00",
        "E85": "2026-04-30 08:30:00",
        "E10": "2026-04-30 08:30:00",
        "SP98": "2026-04-30 08:30:00"
      }
    },
    {
      "id": "33660003",
      "lat": 45.015,
      "lon": -0.013,
      "cp": "33660",
      "ville": "SAINT SEURIN SUR L ISLE",
      "prix": {
        "Gazole": 0.002219,
        "SP95": 0.002099,
        "E85": 0.0008990000000000001,
        "GPLc": 0.0010789999999999999,
        "SP98": 0.002149
      },
      "maj_gouv": {
        "Gazole": "2026-04-30 10:07:10",
        "SP95": "2026-04-30 10:07:10",
        "E85": "2026-04-25 11:06:13",
        "GPLc": "2026-04-30 10:07:10",
        "SP98": "2026-04-30 10:07:10"
      }
    },
    {
      "id": "33830001",
      "lat": 44.50065716,
      "lon": -0.79000976,
      "cp": "33830",
      "ville": "BELIN-BELIET",
      "prix": {
        "Gazole": 0.002189,
        "E10": 0.0019890000000000003
      },
      "maj_gouv": {
        "Gazole": "2026-04-28 07:25:02",
        "E10": "2026-04-28 07:25:02"
      }
    },
    {
      "id": "33210010",
      "lat": 44.54883,
      "lon": -0.25317,
      "cp": "33210",
      "ville": "LANGON",
      "prix": {
        "Gazole": 0.002149,
        "SP95": 0.002019,
        "E10": 0.0019890000000000003
      },
      "maj_gouv": {
        "Gazole": "2026-04-28 08:45:02",
        "SP95": "2026-04-28 08:45:03",
        "E10": "2026-04-28 08:45:03"
      }
    },
    {
      "id": "33650004",
      "lat": 44.66,
      "lon": -0.597,
      "cp": "33650",
      "ville": "SAUCATS",
      "prix": {
        "Gazole": 0.002199,
        "SP95": 0.002089,
        "E10": 0.001999
      },
      "maj_gouv": {
        "Gazole": "2026-04-30 09:36:06",
        "SP95": "2026-04-30 09:36:06",
        "E10": "2026-04-30 09:36:06"
      }
    },
    {
      "id": "33380002",
      "lat": 44.691,
      "lon": -0.858,
      "cp": "33380",
      "ville": "MARCHEPRIME",
      "prix": {
        "Gazole": 0.002199,
        "E85": 0.000819,
        "E10": 0.001999,
        "SP98": 0.002097
      },
      "maj_gouv": {
        "Gazole": "2026-04-29 06:18:10",
        "E85": "2026-04-15 06:48:20",
        "E10": "2026-04-30 10:52:13",
        "SP98": "2026-04-29 06:18:10"
      }
    },
    {
      "id": "33270001",
      "lat": 44.814200912622994,
      "lon": -0.5242757748,
      "cp": "33270",
      "ville": "Bouliac",
      "prix": {
        "Gazole": 0.0021469999999999996,
        "E85": 0.000732,
        "GPLc": 0.000999,
        "E10": 0.001987,
        "SP98": 0.002059
      },
      "maj_gouv": {
        "Gazole": "2026-04-30 14:57:18",
        "E85": "2026-04-30 14:57:19",
        "GPLc": "2026-04-07 09:23:21",
        "E10": "2026-04-30 14:57:19",
        "SP98": "2026-04-30 14:57:19"
      }
    },
    {
      "id": "33780001",
      "lat": 45.514,
      "lon": -1.113,
      "cp": "33780",
      "ville": "Soulac-sur-Mer",
      "prix": {
        "Gazole": 0.001966,
        "E85": 0.000766,
        "E10": 0.00199,
        "SP98": 0.00211
      },
      "maj_gouv": {
        "Gazole": "2026-04-30 18:27:14",
        "E85": "2026-04-30 18:27:14",
        "E10": "2026-04-30 18:27:14",
        "SP98": "2026-04-30 18:27:14"
      }
    },
    {
      "id": "33490004",
      "lat": 44.574980414883996,
      "lon": -0.25492902257619,
      "cp": "33490",
      "ville": "Saint-Maixant",
      "prix": {
        "Gazole": 0.00229,
        "SP95": 0.002039,
        "SP98": 0.00215
      },
      "maj_gouv": {
        "Gazole": "2026-04-27 06:43:47",
        "SP95": "2026-04-27 11:16:55",
        "SP98": "2026-04-27 11:16:55"
      }
    },
    {
      "id": "33190005",
      "lat": 44.585,
      "lon": -0.081,
      "cp": "33190",
      "ville": "Gironde-sur-Dropt",
      "prix": {
        "Gazole": 0.00225,
        "E10": 0.00199,
        "SP98": 0.00199
      },
      "maj_gouv": {
        "Gazole": "2026-04-27 20:00:48",
        "E10": "2026-04-27 20:00:48",
        "SP98": "2026-04-27 20:00:48"
      }
    },
    {
      "id": "33000022",
      "lat": 44.837,
      "lon": -0.599,
      "cp": "33000",
      "ville": "BORDEAUX",
      "prix": {
        "Gazole": 0.00209,
        "E85": 0.000843,
        "E10": 0.00199,
        "SP98": 0.00199
      },
      "maj_gouv": {
        "Gazole": "2026-05-02 00:01:00",
        "E85": "2026-05-02 00:01:00",
        "E10": "2026-05-02 00:01:00",
        "SP98": "2026-05-02 00:01:00"
      }
    },
    {
      "id": "33500005",
      "lat": 44.90603,
      "lon": -0.23355,
      "cp": "33500",
      "ville": "LIBOURNE",
      "prix": {
        "Gazole": 0.002163,
        "E10": 0.0020099999999999996,
        "SP98": 0.002099
      },
      "maj_gouv": {
        "Gazole": "2026-04-30 08:45:00",
        "E10": "2026-04-30 08:45:00",
        "SP98": "2026-04-30 08:45:00"
      }
    },
    {
      "id": "33700025",
      "lat": 44.828,
      "lon": -0.621,
      "cp": "33700",
      "ville": "Mérignac",
      "prix": {
        "Gazole": 0.002169,
        "E85": 0.000759,
        "E10": 0.0019590000000000002,
        "SP98": 0.002069
      },
      "maj_gouv": {
        "Gazole": "2026-04-29 09:38:43",
        "E85": "2026-04-29 09:38:43",
        "E10": "2026-04-29 09:38:44",
        "SP98": "2026-04-29 09:38:44"
      }
    },
    {
      "id": "33240003",
      "lat": 44.969,
      "lon": -0.377,
      "cp": "33240",
      "ville": "CADILLAC-EN-FRONSADAIS",
      "prix": {
        "Gazole": 0.00225,
        "SP95": 0.00199
      },
      "maj_gouv": {
        "Gazole": "2026-04-30 07:46:29",
        "SP95": "2026-04-30 07:46:29"
      }
    },
    {
      "id": "33820001",
      "lat": 45.227,
      "lon": -0.573,
      "cp": "33820",
      "ville": "Étauliers",
      "prix": {
        "Gazole": 0.002149,
        "SP95": 0.002029,
        "E10": 0.0019790000000000003
      },
      "maj_gouv": {
        "Gazole": "2026-04-30 08:22:00",
        "SP95": "2026-04-30 08:22:00",
        "E10": "2026-04-30 08:22:00"
      }
    },
    {
      "id": "33140012",
      "lat": 44.774,
      "lon": -0.563,
      "cp": "33140",
      "ville": "VILLENAVE D'ORNON",
      "prix": {
        "Gazole": 0.002159,
        "GPLc": 0.001009,
        "E10": 0.002005,
        "SP98": 0.002114
      },
      "maj_gouv": {
        "Gazole": "2026-04-29 09:30:55",
        "GPLc": "2026-04-28 09:36:35",
        "E10": "2026-04-29 09:30:55",
        "SP98": "2026-04-29 09:30:55"
      }
    },
    {
      "id": "33400005",
      "lat": 44.807,
      "lon": -0.573,
      "cp": "33400",
      "ville": "TALENCE",
      "prix": {
        "Gazole": 0.002133,
        "SP95": 0.002019,
        "E85": 0.0008179999999999999,
        "E10": 0.001965
      },
      "maj_gouv": {
        "Gazole": "2026-04-30 13:52:21",
        "SP95": "2026-04-30 13:52:21",
        "E85": "2026-04-24 10:22:23",
        "E10": "2026-04-30 13:52:21"
      }
    },
    {
      "id": "33510003",
      "lat": 44.745,
      "lon": -1.093,
      "cp": "33510",
      "ville": "Andernos-les-Bains",
      "prix": {
        "Gazole": 0.002145,
        "SP95": 0.002039,
        "E10": 0.001949,
        "SP98": 0.002056
      },
      "maj_gouv": {
        "Gazole": "2026-04-30 10:06:32",
        "SP95": "2026-04-28 22:00:00",
        "E10": "2026-04-30 10:06:32",
        "SP98": "2026-04-30 10:06:32"
      }
    },
    {
      "id": "33950003",
      "lat": 44.790339898736,
      "lon": -1.1460824064777,
      "cp": "33950",
      "ville": "LEGE-CAP-FERRET",
      "prix": {
        "Gazole": 0.002189,
        "SP95": 0.002059,
        "SP98": 0.002169
      },
      "maj_gouv": {
        "Gazole": "2026-04-18 06:08:54",
        "SP95": "2026-04-18 06:12:36",
        "SP98": "2026-04-08 07:58:07"
      }
    },
    {
      "id": "33310009",
      "lat": 44.865,
      "lon": -0.52,
      "cp": "33310",
      "ville": "Lormont",
      "prix": {
        "Gazole": 0.00222,
        "SP95": 0.0020369999999999997,
        "E85": 0.0008209999999999999,
        "E10": 0.002007,
        "SP98": 0.0021190000000000002
      },
      "maj_gouv": {
        "Gazole": "2026-04-30 10:10:08",
        "SP95": "2026-04-30 10:10:08",
        "E85": "2026-04-30 10:10:08",
        "E10": "2026-04-30 10:10:09",
        "SP98": "2026-04-30 10:10:09"
      }
    },
    {
      "id": "33113002",
      "lat": 44.429,
      "lon": -0.491,
      "cp": "33113",
      "ville": "SAINT-SYMPHORIEN",
      "prix": {
        "Gazole": 0.002149,
        "E10": 0.001977,
        "SP98": 0.002088
      },
      "maj_gouv": {
        "Gazole": "2026-04-30 16:20:05",
        "E10": "2026-04-30 16:20:05",
        "SP98": "2026-04-30 16:20:05"
      }
    },
    {
      "id": "33850002",
      "lat": 44.734,
      "lon": -0.599,
      "cp": "33850",
      "ville": "LéOGNAN",
      "prix": {
        "Gazole": 0.002199,
        "E85": 0.000746,
        "E10": 0.002048,
        "SP98": 0.0021219999999999998
      },
      "maj_gouv": {
        "Gazole": "2026-04-27 18:11:02",
        "E85": "2026-04-22 09:06:46",
        "E10": "2026-04-27 18:11:03",
        "SP98": "2026-04-27 18:11:03"
      }
    },
    {
      "id": "33740001",
      "lat": 44.769,
      "lon": -1.111,
      "cp": "33740",
      "ville": "Arès",
      "prix": {
        "Gazole": 0.002145,
        "SP95": 0.002048,
        "E85": 0.0008990000000000001,
        "E10": 0.001999,
        "SP98": 0.002069
      },
      "maj_gouv": {
        "Gazole": "2026-05-02 01:18:00",
        "SP95": "2026-05-02 01:18:00",
        "E85": "2026-05-02 01:18:00",
        "E10": "2026-05-02 01:18:00",
        "SP98": "2026-05-02 01:18:00"
      }
    },
    {
      "id": "33600006",
      "lat": 44.799,
      "lon": -0.664,
      "cp": "33600",
      "ville": "Pessac",
      "prix": {
        "Gazole": 0.00222,
        "E10": 0.00199,
        "SP98": 0.00207
      },
      "maj_gouv": {
        "Gazole": "2026-05-01 06:31:00",
        "E10": "2026-05-01 06:31:00",
        "SP98": "2026-05-01 06:31:00"
      }
    },
    {
      "id": "33260010",
      "lat": 44.549,
      "lon": -1.158,
      "cp": "33260",
      "ville": "La Teste-de-Buch",
      "prix": {
        "Gazole": 0.00219,
        "E10": 0.001999,
        "SP98": 0.00209
      },
      "maj_gouv": {
        "Gazole": "2026-04-22 15:21:40",
        "E10": "2026-04-22 15:21:40",
        "SP98": "2026-04-22 15:21:40"
      }
    },
    {
      "id": "33240005",
      "lat": 44.975,
      "lon": -0.433,
      "cp": "33240",
      "ville": "Cubzac-les-Ponts",
      "prix": {
        "Gazole": 0.0023090000000000003,
        "E85": 0.000999,
        "GPLc": 0.001206,
        "E10": 0.00212,
        "SP98": 0.002175
      },
      "maj_gouv": {
        "Gazole": "2026-04-28 12:05:19",
        "E85": "2026-04-28 12:05:20",
        "GPLc": "2026-04-28 12:05:20",
        "E10": "2026-04-28 12:05:19",
        "SP98": "2026-04-28 12:05:19"
      }
    },
    {
      "id": "33400011",
      "lat": 44.807,
      "lon": -0.591,
      "cp": "33400",
      "ville": "BORDEAUX TALENCE",
      "prix": {
        "Gazole": 0.002177,
        "SP98": 0.002169
      },
      "maj_gouv": {
        "Gazole": "2026-04-24 15:25:06",
        "SP98": "2026-04-27 09:33:25"
      }
    },
    {
      "id": "33220004",
      "lat": 44.8428524219,
      "lon": 0.205146156449,
      "cp": "33220",
      "ville": "PORT-SAINTE-FOY-ET-PONCHAPT",
      "prix": {
        "Gazole": 0.002231,
        "E10": 0.001999,
        "SP98": 0.002104
      },
      "maj_gouv": {
        "Gazole": "2026-04-13 09:09:27",
        "E10": "2026-04-13 09:09:27",
        "SP98": "2026-04-13 09:09:28"
      }
    },
    {
      "id": "33370002",
      "lat": 44.838,
      "lon": -0.486,
      "cp": "33370",
      "ville": "TRESSES",
      "prix": {
        "Gazole": 0.00209,
        "E10": 0.00199,
        "SP98": 0.00199
      },
      "maj_gouv": {
        "Gazole": "2026-05-01 09:22:32",
        "E10": "2026-05-01 09:22:32",
        "SP98": "2026-05-01 09:22:32"
      }
    },
    {
      "id": "33320009",
      "lat": 44.912,
      "lon": -0.668,
      "cp": "33320",
      "ville": "LE TAILLAN-MEDOC",
      "prix": {
        "Gazole": 0.002199,
        "SP95": 0.002039,
        "SP98": 0.002099
      },
      "maj_gouv": {
        "Gazole": "2026-04-29 14:13:11",
        "SP95": "2026-04-29 14:13:11",
        "SP98": "2026-04-29 14:13:11"
      }
    },
    {
      "id": "33490002",
      "lat": 44.57218746814,
      "lon": -0.18357356360874,
      "cp": "33490",
      "ville": "Saint-Pierre-d'Aurillac",
      "prix": {
        "Gazole": 0.00209
      },
      "maj_gouv": {
        "Gazole": "2026-05-01 09:41:22"
      }
    },
    {
      "id": "33000015",
      "lat": 44.835,
      "lon": -0.599,
      "cp": "33000",
      "ville": "BORDEAUX",
      "prix": {
        "Gazole": 0.002229,
        "SP98": 0.002149
      },
      "maj_gouv": {
        "Gazole": "2026-04-30 11:15:41",
        "SP98": "2026-04-30 11:15:41"
      }
    },
    {
      "id": "33400009",
      "lat": 44.789,
      "lon": -0.587,
      "cp": "33400",
      "ville": "TALENCE",
      "prix": {
        "Gazole": 0.002209,
        "E10": 0.002039,
        "SP98": 0.002209
      },
      "maj_gouv": {
        "Gazole": "2026-05-01 11:26:31",
        "E10": "2026-05-01 11:26:32",
        "SP98": "2026-05-01 11:26:32"
      }
    },
    {
      "id": "33450005",
      "lat": 44.921,
      "lon": -0.45,
      "cp": "33450",
      "ville": "Saint-Loubès",
      "prix": {
        "Gazole": 0.00209,
        "E10": 0.00199
      },
      "maj_gouv": {
        "Gazole": "2026-05-01 08:11:16",
        "E10": "2026-05-01 08:11:16"
      }
    },
    {
      "id": "33370008",
      "lat": 44.868,
      "lon": -0.497,
      "cp": "33370",
      "ville": "Artigues-près-Bordeaux",
      "prix": {
        "Gazole": 0.002191,
        "SP95": 0.002027,
        "E10": 0.001991,
        "SP98": 0.002093
      },
      "maj_gouv": {
        "Gazole": "2026-04-30 19:08:08",
        "SP95": "2026-04-30 19:08:08",
        "E10": "2026-04-30 19:08:08",
        "SP98": "2026-04-30 19:08:09"
      }
    },
    {
      "id": "33370014",
      "lat": 44.84,
      "lon": -0.492,
      "cp": "33370",
      "ville": "TRESSES",
      "prix": {
        "Gazole": 0.00209,
        "E85": 0.000829,
        "GPLc": 0.001029,
        "E10": 0.00199
      },
      "maj_gouv": {
        "Gazole": "2026-05-02 00:01:00",
        "E85": "2026-05-02 00:01:00",
        "GPLc": "2026-05-02 00:01:00",
        "E10": "2026-05-02 00:01:00"
      }
    },
    {
      "id": "33290009",
      "lat": 44.911,
      "lon": -0.624,
      "cp": "33290",
      "ville": "BLANQUEFORT",
      "prix": {
        "Gazole": 0.00209,
        "E85": 0.000869,
        "E10": 0.00199,
        "SP98": 0.00199
      },
      "maj_gouv": {
        "Gazole": "2026-05-02 00:01:00",
        "E85": "2026-05-02 00:01:00",
        "E10": "2026-05-02 00:01:00",
        "SP98": "2026-05-02 00:01:00"
      }
    },
    {
      "id": "33950001",
      "lat": 44.750968603,
      "lon": -1.18038073853,
      "cp": "33950",
      "ville": "LEGE-CAP-FERRET",
      "prix": {
        "Gazole": 0.002145,
        "E85": 0.0008990000000000001,
        "GPLc": 0.0011,
        "E10": 0.001999,
        "SP98": 0.002069
      },
      "maj_gouv": {
        "Gazole": "2026-04-30 20:17:31",
        "E85": "2026-04-30 20:17:31",
        "GPLc": "2026-04-30 20:17:31",
        "E10": "2026-04-30 20:17:31",
        "SP98": "2026-04-30 20:17:31"
      }
    },
    {
      "id": "33660004",
      "lat": 45.001,
      "lon": 0.037,
      "cp": "33660",
      "ville": "Gours",
      "prix": {
        "Gazole": 0.00209,
        "E85": 0.0009519999999999999,
        "GPLc": 0.0010689999999999999,
        "E10": 0.00199,
        "SP98": 0.00199
      },
      "maj_gouv": {
        "Gazole": "2026-05-01 10:00:00",
        "E85": "2026-05-01 10:00:00",
        "GPLc": "2026-05-01 10:00:00",
        "E10": "2026-05-01 10:00:00",
        "SP98": "2026-05-01 10:00:00"
      }
    },
    {
      "id": "33290004",
      "lat": 44.94765,
      "lon": -0.60351,
      "cp": "33290",
      "ville": "PAREMPUYRE",
      "prix": {
        "Gazole": 0.00216,
        "SP95": 0.002039,
        "E85": 0.0008179999999999999,
        "E10": 0.0019890000000000003
      },
      "maj_gouv": {
        "Gazole": "2026-04-30 09:41:06",
        "SP95": "2026-04-30 09:48:51",
        "E85": "2026-04-30 09:48:51",
        "E10": "2026-04-30 09:41:07"
      }
    },
    {
      "id": "33700001",
      "lat": 44.83,
      "lon": -0.654,
      "cp": "33700",
      "ville": "MERIGNAC",
      "prix": {
        "Gazole": 0.002178,
        "SP95": 0.002091,
        "E85": 0.00083,
        "GPLc": 0.001059,
        "E10": 0.002022,
        "SP98": 0.002156
      },
      "maj_gouv": {
        "Gazole": "2026-05-01 22:52:00",
        "SP95": "2026-05-01 22:52:00",
        "E85": "2026-05-01 22:52:00",
        "GPLc": "2026-04-25 14:28:00",
        "E10": "2026-05-01 22:52:00",
        "SP98": "2026-05-01 22:52:00"
      }
    },
    {
      "id": "33120007",
      "lat": 44.65,
      "lon": -1.187,
      "cp": "33120",
      "ville": "ARCACHON",
      "prix": {
        "Gazole": 0.00209,
        "E10": 0.00199,
        "SP98": 0.00199
      },
      "maj_gouv": {
        "Gazole": "2026-05-02 00:01:00",
        "E10": "2026-05-02 00:01:00",
        "SP98": "2026-05-02 00:01:00"
      }
    },
    {
      "id": "33450002",
      "lat": 44.912,
      "lon": -0.391,
      "cp": "33450",
      "ville": "Saint-Sulpice-et-Cameyrac",
      "prix": {
        "Gazole": 0.0021579999999999998,
        "E85": 0.00082,
        "E10": 0.001999,
        "SP98": 0.002069
      },
      "maj_gouv": {
        "Gazole": "2026-04-28 15:59:13",
        "E85": "2026-04-28 18:51:56",
        "E10": "2026-04-28 15:59:13",
        "SP98": "2026-04-28 15:59:13"
      }
    },
    {
      "id": "33560004",
      "lat": 44.888,
      "lon": -0.517,
      "cp": "33560",
      "ville": "Carbon-Blanc",
      "prix": {
        "Gazole": 0.00209,
        "E10": 0.00199
      },
      "maj_gouv": {
        "Gazole": "2026-05-02 00:01:00",
        "E10": "2026-05-02 00:01:00"
      }
    },
    {
      "id": "33420002",
      "lat": 44.8297056195,
      "lon": -0.190388244327,
      "cp": "33420",
      "ville": "GRéZILLAC",
      "prix": {
        "Gazole": 0.002189,
        "E85": 0.0008489999999999999,
        "E10": 0.001999,
        "SP98": 0.002099
      },
      "maj_gouv": {
        "Gazole": "2026-04-30 08:58:57",
        "E85": "2026-04-23 11:29:27",
        "E10": "2026-04-29 11:10:07",
        "SP98": "2026-04-23 11:29:28"
      }
    },
    {
      "id": "33170005",
      "lat": 44.785863382799995,
      "lon": -0.603423825687,
      "cp": "33170",
      "ville": "GRADIGNAN",
      "prix": {
        "Gazole": 0.0022010000000000003,
        "E10": 0.00199,
        "SP98": 0.002036
      },
      "maj_gouv": {
        "Gazole": "2026-04-30 08:50:30",
        "E10": "2026-04-30 08:50:30",
        "SP98": "2026-04-30 08:50:30"
      }
    },
    {
      "id": "33170008",
      "lat": 44.777,
      "lon": -0.61,
      "cp": "33170",
      "ville": "GRADIGNAN",
      "prix": {
        "Gazole": 0.00209,
        "E85": 0.000829,
        "E10": 0.00199,
        "SP98": 0.00199
      },
      "maj_gouv": {
        "Gazole": "2026-05-02 00:01:00",
        "E85": "2026-05-02 00:01:00",
        "E10": "2026-05-02 00:01:00",
        "SP98": "2026-05-02 00:01:00"
      }
    },
    {
      "id": "33133003",
      "lat": 44.989,
      "lon": -0.27,
      "cp": "33133",
      "ville": "GALGON",
      "prix": {
        "Gazole": 0.00225,
        "SP95": 0.00199,
        "SP98": 0.00199
      },
      "maj_gouv": {
        "Gazole": "2026-04-14 08:49:55",
        "SP95": "2026-04-20 09:22:38",
        "SP98": "2026-04-30 08:55:43"
      }
    },
    {
      "id": "33160003",
      "lat": 44.905,
      "lon": -0.746,
      "cp": "33160",
      "ville": "SAINT-MéDARD-EN-JALLES",
      "prix": {
        "Gazole": 0.002175,
        "SP95": 0.002019,
        "E85": 0.000819,
        "SP98": 0.0020729999999999998
      },
      "maj_gouv": {
        "Gazole": "2026-04-30 09:00:00",
        "SP95": "2026-04-30 09:00:00",
        "E85": "2026-04-20 09:00:00",
        "SP98": "2026-04-30 09:00:00"
      }
    },
    {
      "id": "33320008",
      "lat": 44.893,
      "lon": -0.666,
      "cp": "33320",
      "ville": "EYSINES",
      "prix": {
        "Gazole": 0.00209,
        "E85": 0.000869,
        "GPLc": 0.001059,
        "E10": 0.00199,
        "SP98": 0.00199
      },
      "maj_gouv": {
        "Gazole": "2026-05-02 00:01:00",
        "E85": "2026-05-02 00:01:00",
        "GPLc": "2026-05-02 00:01:00",
        "E10": "2026-05-02 00:01:00",
        "SP98": "2026-05-02 00:01:00"
      }
    },
    {
      "id": "24400001",
      "lat": 44.902,
      "lon": -0.508,
      "cp": "33530",
      "ville": "BASSENS",
      "prix": {
        "Gazole": 0.002145,
        "E85": 0.00079,
        "E10": 0.001999,
        "SP98": 0.002059
      },
      "maj_gouv": {
        "Gazole": "2026-04-27 10:04:21",
        "E85": "2026-04-23 13:50:48",
        "E10": "2026-04-23 13:50:48",
        "SP98": "2026-04-23 13:50:48"
      }
    },
    {
      "id": "33260005",
      "lat": 44.61039,
      "lon": -1.146,
      "cp": "33260",
      "ville": "LA TESTE-DE-BUCH",
      "prix": {
        "Gazole": 0.002149,
        "SP95": 0.002059,
        "E85": 0.0008179999999999999,
        "E10": 0.0019790000000000003
      },
      "maj_gouv": {
        "Gazole": "2026-04-30 07:27:00",
        "SP95": "2026-04-29 09:48:59",
        "E85": "2026-04-25 10:07:19",
        "E10": "2026-04-30 07:27:00"
      }
    },
    {
      "id": "33110009",
      "lat": 44.868255999999995,
      "lon": -0.607723,
      "cp": "33110",
      "ville": "LE BOUSCAT",
      "prix": {
        "Gazole": 0.0022789999999999998,
        "E85": 0.0008449999999999999,
        "E10": 0.002069,
        "SP98": 0.002149
      },
      "maj_gouv": {
        "Gazole": "2026-05-01 23:50:00",
        "E85": "2026-05-01 23:50:00",
        "E10": "2026-05-01 23:50:00",
        "SP98": "2026-05-01 23:50:00"
      }
    },
    {
      "id": "33120003",
      "lat": 44.652,
      "lon": -1.147,
      "cp": "33120",
      "ville": "ARCACHON",
      "prix": {
        "Gazole": 0.002299,
        "E85": 0.000855,
        "GPLc": 0.001059,
        "E10": 0.002089,
        "SP98": 0.002169
      },
      "maj_gouv": {
        "Gazole": "2026-05-01 07:30:00",
        "E85": "2026-05-01 07:30:00",
        "GPLc": "2026-05-01 16:30:00",
        "E10": "2026-05-01 07:30:00",
        "SP98": "2026-05-01 07:30:00"
      }
    },
    {
      "id": "33170003",
      "lat": 44.786,
      "lon": -0.596,
      "cp": "33170",
      "ville": "GRADIGNAN",
      "prix": {
        "Gazole": 0.0022389999999999997,
        "E85": 0.0008449999999999999,
        "GPLc": 0.001059,
        "E10": 0.002029,
        "SP98": 0.002129
      },
      "maj_gouv": {
        "Gazole": "2026-04-28 18:04:45",
        "E85": "2026-04-28 18:04:46",
        "GPLc": "2026-04-28 18:04:46",
        "E10": "2026-04-28 18:04:46",
        "SP98": "2026-04-28 18:04:46"
      }
    },
    {
      "id": "33920006",
      "lat": 45.188854000000006,
      "lon": -0.492614,
      "cp": "33920",
      "ville": "SAUGON",
      "prix": {
        "Gazole": 0.0023599999999999997,
        "GPLc": 0.00106,
        "E10": 0.00217,
        "SP98": 0.00227
      },
      "maj_gouv": {
        "Gazole": "2026-04-24 06:00:00",
        "GPLc": "2026-01-23 10:40:39",
        "E10": "2026-04-22 14:36:30",
        "SP98": "2026-04-22 14:36:31"
      }
    },
    {
      "id": "33700022",
      "lat": 44.85,
      "lon": -0.667,
      "cp": "33700",
      "ville": "MERIGNAC",
      "prix": {
        "Gazole": 0.00209,
        "E85": 0.000829,
        "GPLc": 0.001039,
        "E10": 0.00199
      },
      "maj_gouv": {
        "Gazole": "2026-05-01 10:00:00",
        "E85": "2026-05-01 10:00:00",
        "GPLc": "2026-05-01 10:00:00",
        "E10": "2026-05-01 10:00:00"
      }
    },
    {
      "id": "33380005",
      "lat": 44.66,
      "lon": -0.829,
      "cp": "33380",
      "ville": "MIOS",
      "prix": {
        "Gazole": 0.00209,
        "E85": 0.000864,
        "E10": 0.00199,
        "SP98": 0.00199
      },
      "maj_gouv": {
        "Gazole": "2026-05-02 00:01:00",
        "E85": "2026-05-02 00:01:00",
        "E10": "2026-05-02 00:01:00",
        "SP98": "2026-05-02 00:01:00"
      }
    },
    {
      "id": "33720010",
      "lat": 44.647490999999995,
      "lon": -0.43686300000000006,
      "cp": "33720",
      "ville": "SAINT MICHEL DE RIEUFRET",
      "prix": {
        "Gazole": 0.002617,
        "GPLc": 0.001108,
        "E10": 0.002499,
        "SP98": 0.002649
      },
      "maj_gouv": {
        "Gazole": "2026-05-01 09:30:00",
        "GPLc": "2026-05-01 09:30:00",
        "E10": "2026-05-01 09:30:00",
        "SP98": "2026-05-01 09:30:00"
      }
    },
    {
      "id": "33750007",
      "lat": 44.820943081885,
      "lon": -0.2837606139632,
      "cp": "33750",
      "ville": "Saint-Quentin-de-Baron",
      "prix": {
        "Gazole": 0.0022
      },
      "maj_gouv": {
        "Gazole": "2026-04-24 08:19:46"
      }
    },
    {
      "id": "33680003",
      "lat": 45.001960010000005,
      "lon": -1.20044403,
      "cp": "33680",
      "ville": "Lacanau-Océan",
      "prix": {
        "Gazole": 0.0023,
        "E10": 0.00202,
        "SP98": 0.0020499999999999997
      },
      "maj_gouv": {
        "Gazole": "2026-04-22 10:10:33",
        "E10": "2026-04-29 09:23:29",
        "SP98": "2026-04-22 10:10:33"
      }
    },
    {
      "id": "33480008",
      "lat": 45.067462953669995,
      "lon": -0.7945346539476199,
      "cp": "33480",
      "ville": "LISTRAC MEDOC",
      "prix": {
        "Gazole": 0.002229,
        "SP95": 0.0020800000000000003
      },
      "maj_gouv": {
        "Gazole": "2026-04-28 09:23:05",
        "SP95": "2026-04-28 09:23:05"
      }
    },
    {
      "id": "33700012",
      "lat": 44.856,
      "lon": -0.654,
      "cp": "33700",
      "ville": "Mérignac",
      "prix": {
        "Gazole": 0.002145,
        "E85": 0.000819,
        "E10": 0.001971,
        "SP98": 0.002061
      },
      "maj_gouv": {
        "Gazole": "2026-04-30 10:00:52",
        "E85": "2026-04-16 07:31:22",
        "E10": "2026-05-01 08:00:00",
        "SP98": "2026-04-30 10:21:07"
      }
    },
    {
      "id": "33220009",
      "lat": 44.842,
      "lon": 0.228,
      "cp": "33220",
      "ville": "PINEUILH",
      "prix": {
        "Gazole": 0.0022,
        "E10": 0.00199,
        "SP98": 0.00199
      },
      "maj_gouv": {
        "Gazole": "2026-04-21 09:59:02",
        "E10": "2026-04-21 09:59:03",
        "SP98": "2026-04-21 09:59:03"
      }
    }
  ]
}