{
  "departement": "86",
  "date": "2026-05-02",
  "stations": [
    {
      "id": "86310002",
      "lat": 46.567,
      "lon": 0.86,
      "cp": "86310",
      "ville": "Saint-Savin",
      "prix": {
        "Gazole": 0.002189,
        "SP95": 0.002079,
        "E10": 0.002019
      },
      "maj_gouv": {
        "Gazole": "2026-04-30 11:09:26",
        "SP95": "2026-04-30 11:09:26",
        "E10": "2026-04-30 11:09:26"
      }
    },
    {
      "id": "86000021",
      "lat": 46.589,
      "lon": 0.36,
      "cp": "86000",
      "ville": "Poitiers",
      "prix": {
        "Gazole": 0.0022890000000000002,
        "E85": 0.0008349999999999999,
        "E10": 0.002099,
        "SP98": 0.002199
      },
      "maj_gouv": {
        "Gazole": "2026-05-01 07:05:25",
        "E85": "2026-05-01 07:05:25",
        "E10": "2026-05-01 07:05:26",
        "SP98": "2026-05-01 07:05:26"
      }
    },
    {
      "id": "86000025",
      "lat": 46.575843819083005,
      "lon": 0.37463651274124,
      "cp": "86000",
      "ville": "Poitiers",
      "prix": {
        "Gazole": 0.002144,
        "E85": 0.000819,
        "GPLc": 0.001049,
        "E10": 0.001975,
        "SP98": 0.0020870000000000003
      },
      "maj_gouv": {
        "Gazole": "2026-04-30 08:12:34",
        "E85": "2026-04-16 07:48:37",
        "GPLc": "2026-04-15 12:06:27",
        "E10": "2026-04-30 08:12:34",
        "SP98": "2026-04-30 08:12:35"
      }
    },
    {
      "id": "86100015",
      "lat": 46.818426785453994,
      "lon": 0.52557115196228,
      "cp": "86100",
      "ville": "CHATELLERAULT",
      "prix": {
        "Gazole": 0.002179,
        "E85": 0.0008179999999999999,
        "E10": 0.0019790000000000003,
        "SP98": 0.002079
      },
      "maj_gouv": {
        "Gazole": "2026-04-30 19:29:18",
        "E85": "2026-04-30 19:29:18",
        "E10": "2026-04-30 19:29:18",
        "SP98": "2026-04-30 19:29:18"
      }
    },
    {
      "id": "86100001",
      "lat": 46.797,
      "lon": 0.531,
      "cp": "86100",
      "ville": "CHâTELLERAULT",
      "prix": {
        "Gazole": 0.002139,
        "E85": 0.000745,
        "GPLc": 0.001039,
        "E10": 0.0019790000000000003,
        "SP98": 0.002069
      },
      "maj_gouv": {
        "Gazole": "2026-04-29 09:34:32",
        "E85": "2026-04-30 08:35:00",
        "GPLc": "2026-04-02 10:26:58",
        "E10": "2026-04-30 08:35:00",
        "SP98": "2026-04-30 08:35:01"
      }
    },
    {
      "id": "86450001",
      "lat": 46.727797,
      "lon": 0.655036,
      "cp": "86450",
      "ville": "Chenevelles",
      "prix": {
        "Gazole": 0.00209,
        "SP95": 0.00199
      },
      "maj_gouv": {
        "Gazole": "2026-05-01 09:38:16",
        "SP95": "2026-04-30 17:15:47"
      }
    },
    {
      "id": "86130011",
      "lat": 46.699583649986,
      "lon": 0.37858668957919,
      "cp": "86130",
      "ville": "Jaunay-Marigny",
      "prix": {
        "Gazole": 0.002149,
        "E85": 0.000732,
        "E10": 0.0019890000000000003
      },
      "maj_gouv": {
        "Gazole": "2026-04-30 09:27:25",
        "E85": "2026-04-29 14:25:26",
        "E10": "2026-04-30 09:27:25"
      }
    },
    {
      "id": "86380002",
      "lat": 46.7305146,
      "lon": 0.3067372,
      "cp": "86380",
      "ville": "Vendeuvre-du-Poitou",
      "prix": {
        "Gazole": 0.002179,
        "E10": 0.002059,
        "SP98": 0.002229
      },
      "maj_gouv": {
        "Gazole": "2026-04-29 10:23:22",
        "E10": "2026-04-29 10:23:22",
        "SP98": "2026-04-29 10:23:22"
      }
    },
    {
      "id": "86100003",
      "lat": 46.79896,
      "lon": 0.54931,
      "cp": "86100",
      "ville": "CHâTELLERAULT",
      "prix": {
        "Gazole": 0.002189,
        "E10": 0.001999,
        "SP98": 0.002079
      },
      "maj_gouv": {
        "Gazole": "2026-04-17 16:05:22",
        "E10": "2026-04-27 15:53:36",
        "SP98": "2026-04-10 15:49:33"
      }
    },
    {
      "id": "86190001",
      "lat": 46.642,
      "lon": 0.172,
      "cp": "86190",
      "ville": "Vouillé",
      "prix": {
        "Gazole": 0.002139,
        "E10": 0.002019,
        "SP98": 0.002099
      },
      "maj_gouv": {
        "Gazole": "2026-04-30 09:03:56",
        "E10": "2026-04-30 09:03:56",
        "SP98": "2026-04-30 09:03:56"
      }
    },
    {
      "id": "86580002",
      "lat": 46.5710972,
      "lon": 0.2720873,
      "cp": "86580",
      "ville": "Vouneuil-sous-Biard",
      "prix": {
        "Gazole": 0.0022589999999999997,
        "SP95": 0.001999,
        "SP98": 0.002065
      },
      "maj_gouv": {
        "Gazole": "2026-04-15 11:58:25",
        "SP95": "2026-04-15 11:58:25",
        "SP98": "2026-04-15 11:58:25"
      }
    },
    {
      "id": "86000013",
      "lat": 46.56141,
      "lon": 0.31494,
      "cp": "86000",
      "ville": "POITIERS",
      "prix": {
        "Gazole": 0.0021469999999999996,
        "SP95": 0.002075,
        "SP98": 0.002114
      },
      "maj_gouv": {
        "Gazole": "2026-04-30 09:44:58",
        "SP95": "2026-04-30 09:44:59",
        "SP98": "2026-04-30 09:44:59"
      }
    },
    {
      "id": "86400001",
      "lat": 46.14157,
      "lon": 0.30294,
      "cp": "86400",
      "ville": "CIVRAY",
      "prix": {
        "Gazole": 0.002149,
        "E10": 0.0019790000000000003,
        "SP98": 0.002064
      },
      "maj_gouv": {
        "Gazole": "2026-04-28 12:06:49",
        "E10": "2026-04-24 15:10:39",
        "SP98": "2026-04-24 15:10:39"
      }
    },
    {
      "id": "86320002",
      "lat": 46.402,
      "lon": 0.722,
      "cp": "86320",
      "ville": "Lussac-les-Châteaux",
      "prix": {
        "Gazole": 0.002179,
        "E85": 0.0008179999999999999,
        "E10": 0.001999,
        "SP98": 0.002105
      },
      "maj_gouv": {
        "Gazole": "2026-04-30 10:54:43",
        "E85": "2026-04-30 10:54:43",
        "E10": "2026-04-30 10:54:43",
        "SP98": "2026-04-30 10:54:43"
      }
    },
    {
      "id": "86200004",
      "lat": 46.997,
      "lon": 0.092,
      "cp": "86200",
      "ville": "LOUDUN",
      "prix": {
        "Gazole": 0.002139,
        "SP95": 0.002039,
        "E85": 0.000859,
        "E10": 0.001999,
        "SP98": 0.002079
      },
      "maj_gouv": {
        "Gazole": "2026-04-27 10:57:50",
        "SP95": "2026-04-27 10:57:50",
        "E85": "2026-04-18 07:00:40",
        "E10": "2026-04-27 10:57:50",
        "SP98": "2026-04-27 10:57:50"
      }
    },
    {
      "id": "86600001",
      "lat": 46.42874,
      "lon": 0.11532,
      "cp": "86600",
      "ville": "Lusignan",
      "prix": {
        "Gazole": 0.00216,
        "E85": 0.0008179999999999999,
        "E10": 0.00199,
        "SP98": 0.0021019999999999997
      },
      "maj_gouv": {
        "Gazole": "2026-04-30 09:00:00",
        "E85": "2026-04-17 09:00:00",
        "E10": "2026-04-30 09:00:00",
        "SP98": "2026-04-30 09:00:00"
      }
    },
    {
      "id": "86130010",
      "lat": 46.691,
      "lon": 0.355,
      "cp": "86130",
      "ville": "Jaunay-Clan",
      "prix": {
        "Gazole": 0.00229,
        "GPLc": 0.00106,
        "E10": 0.00211,
        "SP98": 0.00221
      },
      "maj_gouv": {
        "Gazole": "2026-04-24 00:00:00",
        "GPLc": "2026-04-15 15:37:37",
        "E10": "2026-04-24 00:00:00",
        "SP98": "2026-04-23 18:35:11"
      }
    },
    {
      "id": "86530001",
      "lat": 46.756,
      "lon": 0.484,
      "cp": "86530",
      "ville": "NAINTRé",
      "prix": {
        "Gazole": 0.002149,
        "E10": 0.001999,
        "SP98": 0.002079
      },
      "maj_gouv": {
        "Gazole": "2026-04-30 09:41:01",
        "E10": "2026-04-30 14:58:44",
        "SP98": "2026-04-30 09:41:02"
      }
    },
    {
      "id": "86370008",
      "lat": 46.377,
      "lon": 0.211,
      "cp": "86370",
      "ville": "VIVONNE",
      "prix": {
        "Gazole": 0.0022589999999999997,
        "SP98": 0.002209
      },
      "maj_gouv": {
        "Gazole": "2026-05-01 11:27:05",
        "SP98": "2026-05-01 11:27:05"
      }
    },
    {
      "id": "86000024",
      "lat": 46.604,
      "lon": 0.332,
      "cp": "86000",
      "ville": "POITIERS",
      "prix": {
        "Gazole": 0.00209,
        "E85": 0.0009040000000000001,
        "GPLc": 0.001035,
        "E10": 0.00199,
        "SP98": 0.00199
      },
      "maj_gouv": {
        "Gazole": "2026-05-02 00:01:00",
        "E85": "2026-05-02 00:01:00",
        "GPLc": "2026-05-02 00:01:00",
        "E10": "2026-05-02 00:01:00",
        "SP98": "2026-05-02 00:01:00"
      }
    },
    {
      "id": "86440001",
      "lat": 46.614,
      "lon": 0.316,
      "cp": "86440",
      "ville": "Migné-Auxances",
      "prix": {
        "Gazole": 0.00225,
        "E10": 0.00199
      },
      "maj_gouv": {
        "Gazole": "2026-04-30 08:02:39",
        "E10": "2026-04-24 08:39:37"
      }
    },
    {
      "id": "86130008",
      "lat": 46.701,
      "lon": 0.371,
      "cp": "86130",
      "ville": "Jaunay-Marigny",
      "prix": {
        "Gazole": 0.002564,
        "E10": 0.002294,
        "SP98": 0.0023940000000000003
      },
      "maj_gouv": {
        "Gazole": "2026-05-01 06:00:00",
        "E10": "2026-05-01 06:00:00",
        "SP98": "2026-05-01 06:00:00"
      }
    },
    {
      "id": "86350001",
      "lat": 46.283,
      "lon": 0.535,
      "cp": "86350",
      "ville": "Usson-du-Poitou",
      "prix": {
        "Gazole": 0.00225,
        "SP95": 0.00199
      },
      "maj_gouv": {
        "Gazole": "2026-04-28 10:16:53",
        "SP95": "2026-04-28 10:16:53"
      }
    },
    {
      "id": "86400003",
      "lat": 46.16,
      "lon": 0.311,
      "cp": "86400",
      "ville": "SAVIGNé",
      "prix": {
        "Gazole": 0.002149,
        "SP95": 0.002019,
        "E85": 0.0008179999999999999,
        "E10": 0.0019690000000000003
      },
      "maj_gouv": {
        "Gazole": "2026-04-28 11:14:26",
        "SP95": "2026-04-28 11:14:26",
        "E85": "2026-04-17 09:41:47",
        "E10": "2026-04-28 11:14:26"
      }
    },
    {
      "id": "86190004",
      "lat": 46.64619029816,
      "lon": 0.17216845653458,
      "cp": "86190",
      "ville": "VOUILLE",
      "prix": {
        "Gazole": 0.00209,
        "E10": 0.00199,
        "SP98": 0.00199
      },
      "maj_gouv": {
        "Gazole": "2026-05-01 10:11:15",
        "E10": "2026-05-01 10:11:15",
        "SP98": "2026-05-01 10:11:15"
      }
    },
    {
      "id": "86200003",
      "lat": 47.0,
      "lon": 0.069,
      "cp": "86200",
      "ville": "Loudun",
      "prix": {
        "Gazole": 0.002149,
        "E10": 0.0019690000000000003,
        "SP98": 0.0020670000000000003
      },
      "maj_gouv": {
        "Gazole": "2026-04-27 10:30:27",
        "E10": "2026-04-27 10:30:27",
        "SP98": "2026-04-27 10:30:27"
      }
    },
    {
      "id": "86310003",
      "lat": 46.563706917392,
      "lon": 0.87017519193499,
      "cp": "86310",
      "ville": "Saint-Germain",
      "prix": {
        "Gazole": 0.00209,
        "SP95": 0.00199
      },
      "maj_gouv": {
        "Gazole": "2026-04-30 23:59:00",
        "SP95": "2026-03-10 23:59:00"
      }
    },
    {
      "id": "86220001",
      "lat": 46.93511,
      "lon": 0.60576,
      "cp": "86220",
      "ville": "DANGE-SAINT-ROMAIN",
      "prix": {
        "Gazole": 0.002229,
        "SP95": 0.002059,
        "SP98": 0.002139
      },
      "maj_gouv": {
        "Gazole": "2026-04-28 12:04:02",
        "SP95": "2026-04-28 16:38:29",
        "SP98": "2026-04-28 12:04:02"
      }
    },
    {
      "id": "86300002",
      "lat": 46.558,
      "lon": 0.625,
      "cp": "86300",
      "ville": "Chauvigny",
      "prix": {
        "Gazole": 0.002276,
        "E10": 0.0021070000000000004,
        "SP98": 0.002211
      },
      "maj_gouv": {
        "Gazole": "2026-04-29 09:34:37",
        "E10": "2026-04-29 09:34:37",
        "SP98": "2026-04-29 09:34:37"
      }
    },
    {
      "id": "86550001",
      "lat": 46.54,
      "lon": 0.403,
      "cp": "86550",
      "ville": "MIGNALOUX-BEAUVOIR",
      "prix": {
        "Gazole": 0.002211,
        "SP95": 0.00206,
        "SP98": 0.002144
      },
      "maj_gouv": {
        "Gazole": "2026-04-28 09:08:50",
        "SP95": "2026-04-29 12:47:30",
        "SP98": "2026-04-29 12:47:30"
      }
    },
    {
      "id": "86140002",
      "lat": 46.816,
      "lon": 0.337,
      "cp": "86140",
      "ville": "Saint-Genest-d'Ambière",
      "prix": {
        "Gazole": 0.002159,
        "E10": 0.0019790000000000003,
        "SP98": 0.002099
      },
      "maj_gouv": {
        "Gazole": "2026-04-28 11:15:08",
        "E10": "2026-04-28 11:15:08",
        "SP98": "2026-04-28 11:15:09"
      }
    },
    {
      "id": "86700003",
      "lat": 46.305,
      "lon": 0.183,
      "cp": "86700",
      "ville": "Couhé",
      "prix": {
        "Gazole": 0.002219,
        "SP95": 0.002049,
        "E85": 0.000819,
        "E10": 0.0019890000000000003,
        "SP98": 0.002079
      },
      "maj_gouv": {
        "Gazole": "2026-04-29 23:50:00",
        "SP95": "2026-04-29 23:50:00",
        "E85": "2026-04-17 08:55:41",
        "E10": "2026-04-29 23:50:00",
        "SP98": "2026-04-29 23:50:00"
      }
    },
    {
      "id": "86370005",
      "lat": 46.7942009905,
      "lon": 0.797828862365,
      "cp": "86270",
      "ville": "LA ROCHE-POSAY",
      "prix": {
        "Gazole": 0.002199,
        "E85": 0.0008179999999999999,
        "E10": 0.001999,
        "SP98": 0.002099
      },
      "maj_gouv": {
        "Gazole": "2026-04-30 10:15:36",
        "E85": "2026-04-30 10:15:36",
        "E10": "2026-04-30 10:15:36",
        "SP98": "2026-04-30 10:15:36"
      }
    },
    {
      "id": "86140001",
      "lat": 46.817,
      "lon": 0.332,
      "cp": "86140",
      "ville": "LENCLOîTRE",
      "prix": {
        "Gazole": 0.00209,
        "SP95": 0.00199
      },
      "maj_gouv": {
        "Gazole": "2026-05-01 07:43:21",
        "SP95": "2026-04-29 08:15:45"
      }
    },
    {
      "id": "86380001",
      "lat": 46.729,
      "lon": 0.304,
      "cp": "86380",
      "ville": "SAINT MARTIN LA PALLU",
      "prix": {
        "Gazole": 0.00225,
        "SP95": 0.00199
      },
      "maj_gouv": {
        "Gazole": "2026-04-29 08:44:26",
        "SP95": "2026-04-08 17:52:23"
      }
    },
    {
      "id": "86150002",
      "lat": 46.233,
      "lon": 0.688,
      "cp": "86150",
      "ville": "L'ISLE-JOURDAIN",
      "prix": {
        "Gazole": 0.002179,
        "SP95": 0.002029,
        "E10": 0.0019790000000000003,
        "SP98": 0.002089
      },
      "maj_gouv": {
        "Gazole": "2026-04-29 05:00:00",
        "SP95": "2026-04-29 05:00:00",
        "E10": "2026-04-29 05:00:00",
        "SP98": "2026-04-29 05:00:00"
      }
    },
    {
      "id": "86170002",
      "lat": 46.678634849341,
      "lon": 0.26579980945895,
      "cp": "86170",
      "ville": "Neuville-de-Poitou",
      "prix": {
        "Gazole": 0.002145,
        "E10": 0.002009,
        "SP98": 0.002089
      },
      "maj_gouv": {
        "Gazole": "2026-04-30 09:20:52",
        "E10": "2026-04-29 09:04:15",
        "SP98": "2026-04-29 09:04:16"
      }
    },
    {
      "id": "86800003",
      "lat": 46.567,
      "lon": 0.564,
      "cp": "86800",
      "ville": "Jardres",
      "prix": {
        "SP95": 0.0020710000000000004,
        "E10": 0.001986
      },
      "maj_gouv": {
        "SP95": "2026-04-27 10:19:12",
        "E10": "2026-04-15 07:00:00"
      }
    },
    {
      "id": "86370001",
      "lat": 46.431,
      "lon": 0.262,
      "cp": "86370",
      "ville": "VIVONNE",
      "prix": {
        "Gazole": 0.002148,
        "E85": 0.00073,
        "E10": 0.002008,
        "SP98": 0.0020729999999999998
      },
      "maj_gouv": {
        "Gazole": "2026-04-30 08:40:00",
        "E85": "2026-04-30 08:40:00",
        "E10": "2026-04-30 08:40:00",
        "SP98": "2026-04-30 08:40:00"
      }
    },
    {
      "id": "86100010",
      "lat": 46.8401124663,
      "lon": 0.54742251739,
      "cp": "86100",
      "ville": "CHATELLERAULT",
      "prix": {
        "Gazole": 0.002149,
        "E85": 0.0008179999999999999,
        "E10": 0.001999,
        "SP98": 0.002079
      },
      "maj_gouv": {
        "Gazole": "2026-04-29 05:33:24",
        "E85": "2026-04-22 10:14:27",
        "E10": "2026-04-27 06:31:11",
        "SP98": "2026-04-27 06:31:11"
      }
    },
    {
      "id": "86102001",
      "lat": 46.792,
      "lon": 0.526,
      "cp": "86100",
      "ville": "CHâTELLERAULT",
      "prix": {
        "Gazole": 0.0022029999999999997,
        "E10": 0.00199
      },
      "maj_gouv": {
        "Gazole": "2026-04-30 00:01:00",
        "E10": "2026-04-30 00:01:00"
      }
    },
    {
      "id": "86300001",
      "lat": 46.571,
      "lon": 0.637,
      "cp": "86300",
      "ville": "Chauvigny",
      "prix": {
        "Gazole": 0.002089,
        "E85": 0.000745,
        "E10": 0.0019590000000000002,
        "SP98": 0.002069
      },
      "maj_gouv": {
        "Gazole": "2026-04-24 13:01:29",
        "E85": "2026-04-21 15:28:26",
        "E10": "2026-04-24 13:01:29",
        "SP98": "2026-04-24 13:01:29"
      }
    },
    {
      "id": "86036001",
      "lat": 46.56606713088,
      "lon": 0.35440526256445004,
      "cp": "86000",
      "ville": "Poitiers",
      "prix": {
        "Gazole": 0.002127,
        "E85": 0.000718,
        "GPLc": 0.000987,
        "E10": 0.001986,
        "SP98": 0.002062
      },
      "maj_gouv": {
        "Gazole": "2026-04-30 09:07:42",
        "E85": "2026-04-30 09:07:42",
        "GPLc": "2026-04-30 09:07:42",
        "E10": "2026-04-30 09:07:42",
        "SP98": "2026-04-30 09:07:43"
      }
    },
    {
      "id": "86180002",
      "lat": 46.59076,
      "lon": 0.36886,
      "cp": "86180",
      "ville": "BUXEROLLES",
      "prix": {
        "Gazole": 0.0021469999999999996,
        "E10": 0.001999,
        "SP98": 0.0020710000000000004
      },
      "maj_gouv": {
        "Gazole": "2026-04-29 10:50:58",
        "E10": "2026-04-29 10:50:59",
        "SP98": "2026-04-29 10:50:59"
      }
    },
    {
      "id": "86370006",
      "lat": 46.386460845681995,
      "lon": 0.22097741127015,
      "cp": "86370",
      "ville": "VIVONNE",
      "prix": {
        "Gazole": 0.002299,
        "GPLc": 0.001059,
        "E10": 0.002099,
        "SP98": 0.002159
      },
      "maj_gouv": {
        "Gazole": "2026-04-30 22:00:00",
        "GPLc": "2026-04-23 22:00:00",
        "E10": "2026-04-30 22:00:00",
        "SP98": "2026-04-02 22:00:00"
      }
    },
    {
      "id": "86100009",
      "lat": 46.825,
      "lon": 0.56,
      "cp": "86100",
      "ville": "Châtellerault",
      "prix": {
        "Gazole": 0.002179,
        "GPLc": 0.0010689999999999999,
        "E10": 0.002039,
        "SP98": 0.002129
      },
      "maj_gouv": {
        "Gazole": "2026-05-02 05:00:00",
        "GPLc": "2026-04-15 10:32:39",
        "E10": "2026-05-02 05:00:00",
        "SP98": "2026-05-02 05:00:00"
      }
    },
    {
      "id": "86390002",
      "lat": 46.3605613,
      "lon": 0.9724554,
      "cp": "86390",
      "ville": "Lathus-Saint-Rémy",
      "prix": {
        "Gazole": 0.002229,
        "E85": 0.0008990000000000001,
        "E10": 0.002039
      },
      "maj_gouv": {
        "Gazole": "2026-04-17 09:32:54",
        "E85": "2026-04-10 10:26:37",
        "E10": "2026-04-28 10:12:33"
      }
    },
    {
      "id": "86200005",
      "lat": 47.006,
      "lon": 0.081,
      "cp": "86200",
      "ville": "LOUDUN",
      "prix": {
        "Gazole": 0.002139,
        "E10": 0.001999,
        "SP98": 0.002079
      },
      "maj_gouv": {
        "Gazole": "2026-04-27 10:58:15",
        "E10": "2026-04-27 10:58:16",
        "SP98": "2026-04-27 10:58:16"
      }
    },
    {
      "id": "86700004",
      "lat": 46.3356584205,
      "lon": 0.18620323995399998,
      "cp": "86700",
      "ville": "PAYRE",
      "prix": {
        "Gazole": 0.00209,
        "SP95": 0.00199
      },
      "maj_gouv": {
        "Gazole": "2026-04-30 21:56:48",
        "SP95": "2026-04-07 15:27:52"
      }
    },
    {
      "id": "86000014",
      "lat": 46.551,
      "lon": 0.299,
      "cp": "86000",
      "ville": "POITIERS",
      "prix": {
        "Gazole": 0.002149,
        "E85": 0.000732,
        "GPLc": 0.0011200000000000001,
        "E10": 0.0019890000000000003,
        "SP98": 0.002065
      },
      "maj_gouv": {
        "Gazole": "2026-04-27 09:07:05",
        "E85": "2026-04-27 09:07:05",
        "GPLc": "2026-04-29 09:20:00",
        "E10": "2026-04-30 13:14:18",
        "SP98": "2026-04-30 13:14:18"
      }
    },
    {
      "id": "86200006",
      "lat": 47.010507000000004,
      "lon": 0.081227230093267,
      "cp": "86200",
      "ville": "LOUDUN",
      "prix": {
        "Gazole": 0.00225,
        "E10": 0.00199,
        "SP98": 0.00199
      },
      "maj_gouv": {
        "Gazole": "2026-04-28 08:29:00",
        "E10": "2026-04-22 08:13:36",
        "SP98": "2026-04-22 08:13:36"
      }
    },
    {
      "id": "86000026",
      "lat": 46.575918,
      "lon": 0.345352,
      "cp": "86000",
      "ville": "POITIERS",
      "prix": {
        "Gazole": 0.002219,
        "E85": 0.000855,
        "E10": 0.002069
      },
      "maj_gouv": {
        "Gazole": "2026-05-01 23:50:00",
        "E85": "2026-05-01 23:50:00",
        "E10": "2026-05-01 23:50:00"
      }
    },
    {
      "id": "86130002",
      "lat": 46.719,
      "lon": 0.42,
      "cp": "86130",
      "ville": "Dissay",
      "prix": {
        "Gazole": 0.00209,
        "SP98": 0.00199
      },
      "maj_gouv": {
        "Gazole": "2026-05-01 08:52:31",
        "SP98": "2026-05-01 08:52:31"
      }
    },
    {
      "id": "86100014",
      "lat": 46.905,
      "lon": 0.523,
      "cp": "86100",
      "ville": "Antran",
      "prix": {
        "Gazole": 0.0024790000000000003,
        "E85": 0.000999,
        "GPLc": 0.001064,
        "E10": 0.002189,
        "SP98": 0.0022890000000000002
      },
      "maj_gouv": {
        "Gazole": "2026-04-30 08:18:07",
        "E85": "2026-04-03 00:05:00",
        "GPLc": "2026-03-10 09:36:07",
        "E10": "2026-04-24 09:43:31",
        "SP98": "2026-04-24 09:43:31"
      }
    },
    {
      "id": "86180001",
      "lat": 46.597390880917004,
      "lon": 0.35110607183029,
      "cp": "86180",
      "ville": "BUXEROLLES",
      "prix": {
        "Gazole": 0.002127,
        "SP95": 0.002045,
        "E85": 0.000718,
        "E10": 0.001986
      },
      "maj_gouv": {
        "Gazole": "2026-04-27 07:50:18",
        "SP95": "2026-04-30 09:00:55",
        "E85": "2026-04-28 09:57:50",
        "E10": "2026-04-30 09:00:55"
      }
    },
    {
      "id": "86500001",
      "lat": 46.431,
      "lon": 0.884,
      "cp": "86500",
      "ville": "MONTMORILLON",
      "prix": {
        "Gazole": 0.002139,
        "E10": 0.001999,
        "SP98": 0.002089
      },
      "maj_gouv": {
        "Gazole": "2026-04-21 09:26:11",
        "E10": "2026-04-28 08:24:29",
        "SP98": "2026-04-28 08:24:29"
      }
    },
    {
      "id": "86500002",
      "lat": 46.419,
      "lon": 0.855,
      "cp": "86500",
      "ville": "MONTMORILLON",
      "prix": {
        "Gazole": 0.002139,
        "SP95": 0.002059,
        "E85": 0.000799,
        "GPLc": 0.001059,
        "E10": 0.001999,
        "SP98": 0.002089
      },
      "maj_gouv": {
        "Gazole": "2026-04-21 09:22:39",
        "SP95": "2026-04-28 08:44:11",
        "E85": "2026-04-16 08:27:28",
        "GPLc": "2026-04-04 08:33:14",
        "E10": "2026-04-28 08:44:11",
        "SP98": "2026-04-28 08:44:11"
      }
    },
    {
      "id": "86700005",
      "lat": 46.296876920527,
      "lon": 0.1795793399406,
      "cp": "86700",
      "ville": "Couhe valence en poitou",
      "prix": {
        "Gazole": 0.002179,
        "SP95": 0.002039,
        "SP98": 0.002099
      },
      "maj_gouv": {
        "Gazole": "2026-04-23 14:10:11",
        "SP95": "2026-03-25 08:38:38",
        "SP98": "2026-03-25 08:34:08"
      }
    },
    {
      "id": "86100013",
      "lat": 46.906,
      "lon": 0.524,
      "cp": "86100",
      "ville": "Antran",
      "prix": {
        "Gazole": 0.0022789999999999998,
        "GPLc": 0.001139,
        "E10": 0.002097,
        "SP98": 0.002197
      },
      "maj_gouv": {
        "Gazole": "2026-05-01 07:46:00",
        "GPLc": "2026-05-01 07:46:00",
        "E10": "2026-05-01 07:46:00",
        "SP98": "2026-05-01 07:46:00"
      }
    },
    {
      "id": "86160002",
      "lat": 46.374,
      "lon": 0.407,
      "cp": "86160",
      "ville": "Gençay",
      "prix": {
        "Gazole": 0.00217,
        "E10": 0.001965,
        "SP98": 0.002074
      },
      "maj_gouv": {
        "Gazole": "2026-04-30 05:05:42",
        "E10": "2026-04-30 05:05:43",
        "SP98": "2026-04-30 05:05:43"
      }
    },
    {
      "id": "86400004",
      "lat": 46.152,
      "lon": 0.294,
      "cp": "86400",
      "ville": "CIVRAY",
      "prix": {
        "Gazole": 0.00225,
        "SP95": 0.00199
      },
      "maj_gouv": {
        "Gazole": "2026-04-30 08:08:27",
        "SP95": "2026-04-30 08:08:27"
      }
    },
    {
      "id": "86220003",
      "lat": 46.948,
      "lon": 0.608,
      "cp": "86220",
      "ville": "Les Ormes",
      "prix": {
        "Gazole": 0.00225,
        "SP95": 0.00199
      },
      "maj_gouv": {
        "Gazole": "2026-04-08 06:25:15",
        "SP95": "2026-04-08 06:25:15"
      }
    },
    {
      "id": "86360004",
      "lat": 46.632,
      "lon": 0.356,
      "cp": "86360",
      "ville": "CHASSENEUIL DU POITOU",
      "prix": {
        "Gazole": 0.00209,
        "E85": 0.00087,
        "E10": 0.00199,
        "SP98": 0.00199
      },
      "maj_gouv": {
        "Gazole": "2026-04-30 19:49:47",
        "E85": "2026-04-22 07:17:27",
        "E10": "2026-04-30 07:19:33",
        "SP98": "2026-04-30 07:19:33"
      }
    },
    {
      "id": "86800004",
      "lat": 46.55889,
      "lon": 0.49816,
      "cp": "86800",
      "ville": "Saint-Julien-l'Ars",
      "prix": {
        "Gazole": 0.00226,
        "SP95": 0.002094,
        "SP98": 0.002189
      },
      "maj_gouv": {
        "Gazole": "2026-04-22 09:03:58",
        "SP95": "2026-04-30 19:22:32",
        "SP98": "2026-04-30 19:22:32"
      }
    },
    {
      "id": "86360001",
      "lat": 46.667,
      "lon": 0.371,
      "cp": "86360",
      "ville": "Chasseneuil-du-Poitou",
      "prix": {
        "Gazole": 0.002149,
        "E85": 0.000744,
        "GPLc": 0.00113,
        "E10": 0.002009,
        "SP98": 0.002079
      },
      "maj_gouv": {
        "Gazole": "2026-04-30 15:57:00",
        "E85": "2026-04-30 15:57:00",
        "GPLc": "2026-04-30 15:57:00",
        "E10": "2026-04-30 15:57:00",
        "SP98": "2026-04-30 15:57:00"
      }
    },
    {
      "id": "86120001",
      "lat": 47.063,
      "lon": 0.017,
      "cp": "86120",
      "ville": "LES TROIS-MOUTIERS",
      "prix": {
        "Gazole": 0.00225,
        "E10": 0.00199,
        "SP98": 0.00199
      },
      "maj_gouv": {
        "Gazole": "2026-04-13 16:12:45",
        "E10": "2026-04-23 18:03:28",
        "SP98": "2026-04-13 16:12:45"
      }
    },
    {
      "id": "86000023",
      "lat": 46.589,
      "lon": 0.34,
      "cp": "86000",
      "ville": "Poitiers",
      "prix": {
        "Gazole": 0.0022890000000000002,
        "E10": 0.002099,
        "SP98": 0.002199
      },
      "maj_gouv": {
        "Gazole": "2026-05-01 07:05:50",
        "E10": "2026-05-01 07:05:50",
        "SP98": "2026-05-01 07:05:50"
      }
    },
    {
      "id": "86170005",
      "lat": 46.685,
      "lon": 0.255,
      "cp": "86170",
      "ville": "Neuville-de-Poitou",
      "prix": {
        "Gazole": 0.00209,
        "GPLc": 0.00107,
        "E10": 0.00199,
        "SP98": 0.00199
      },
      "maj_gouv": {
        "Gazole": "2026-05-01 07:36:17",
        "GPLc": "2026-04-02 16:44:25",
        "E10": "2026-04-23 08:55:53",
        "SP98": "2026-04-23 08:55:53"
      }
    },
    {
      "id": "86360003",
      "lat": 46.633,
      "lon": 0.358,
      "cp": "86360",
      "ville": "CHASSENEUIL-DU-POITOU",
      "prix": {
        "Gazole": 0.00209,
        "GPLc": 0.001072,
        "E10": 0.00199,
        "SP98": 0.00199
      },
      "maj_gouv": {
        "Gazole": "2026-04-30 19:50:04",
        "GPLc": "2026-04-20 12:55:55",
        "E10": "2026-04-30 07:19:57",
        "SP98": "2026-04-30 07:19:57"
      }
    },
    {
      "id": "86000012",
      "lat": 46.597,
      "lon": 0.322,
      "cp": "86000",
      "ville": "POITIERS",
      "prix": {
        "Gazole": 0.002129,
        "E85": 0.000719,
        "GPLc": 0.0011200000000000001,
        "E10": 0.002009,
        "SP98": 0.002089
      },
      "maj_gouv": {
        "Gazole": "2026-04-30 10:07:02",
        "E85": "2026-04-30 10:07:02",
        "GPLc": "2026-04-30 10:07:02",
        "E10": "2026-04-30 10:07:02",
        "SP98": "2026-04-30 10:07:02"
      }
    },
    {
      "id": "86130006",
      "lat": 46.666,
      "lon": 0.444,
      "cp": "86130",
      "ville": "Saint-Georges-lès-Baillargeaux",
      "prix": {
        "Gazole": 0.002139,
        "E10": 0.001999,
        "SP98": 0.002069
      },
      "maj_gouv": {
        "Gazole": "2026-04-30 08:40:30",
        "E10": "2026-04-30 09:42:44",
        "SP98": "2026-04-30 09:42:44"
      }
    },
    {
      "id": "86440004",
      "lat": 46.618,
      "lon": 0.316,
      "cp": "86440",
      "ville": "Migné-Auxances",
      "prix": {
        "Gazole": 0.002169,
        "E10": 0.0019790000000000003,
        "SP98": 0.002059
      },
      "maj_gouv": {
        "Gazole": "2026-04-29 10:49:42",
        "E10": "2026-04-29 10:55:32",
        "SP98": "2026-04-29 10:49:43"
      }
    },
    {
      "id": "86110004",
      "lat": 46.778462878174,
      "lon": 0.18710544363848,
      "cp": "86110",
      "ville": "Mirebeau",
      "prix": {
        "Gazole": 0.002191,
        "E10": 0.002012,
        "SP98": 0.002134
      },
      "maj_gouv": {
        "Gazole": "2026-04-28 08:49:19",
        "E10": "2026-04-28 08:49:19",
        "SP98": "2026-04-28 08:49:20"
      }
    }
  ]
}