{
  "departement": "46",
  "date": "2026-05-02",
  "stations": [
    {
      "id": "46300004",
      "lat": 44.726,
      "lon": 1.373,
      "cp": "46300",
      "ville": "GOURDON",
      "prix": {
        "Gazole": 0.002149,
        "E85": 0.000819,
        "E10": 0.0019850000000000002,
        "SP98": 0.002069
      },
      "maj_gouv": {
        "Gazole": "2026-04-29 14:54:08",
        "E85": "2026-04-20 12:44:15",
        "E10": "2026-04-29 19:00:00",
        "SP98": "2026-04-29 14:54:08"
      }
    },
    {
      "id": "46200003",
      "lat": 44.898,
      "lon": 1.463,
      "cp": "46200",
      "ville": "SOUILLAC",
      "prix": {
        "Gazole": 0.002159,
        "E85": 0.0008169999999999999,
        "E10": 0.001999,
        "SP98": 0.002076
      },
      "maj_gouv": {
        "Gazole": "2026-05-02 01:16:00",
        "E85": "2026-05-02 01:16:00",
        "E10": "2026-05-02 01:16:00",
        "SP98": "2026-05-02 01:16:00"
      }
    },
    {
      "id": "46000014",
      "lat": 44.474264768930006,
      "lon": 1.4287303311282,
      "cp": "46000",
      "ville": "Cahors",
      "prix": {
        "Gazole": 0.002245,
        "E10": 0.00199,
        "SP98": 0.00199
      },
      "maj_gouv": {
        "Gazole": "2026-04-29 13:15:38",
        "E10": "2026-04-29 13:15:39",
        "SP98": "2026-04-29 13:15:39"
      }
    },
    {
      "id": "46140002",
      "lat": 44.478,
      "lon": 1.294,
      "cp": "46140",
      "ville": "LUZECH",
      "prix": {
        "SP95": 0.0021880000000000003,
        "E10": 0.002144
      },
      "maj_gouv": {
        "SP95": "2026-03-28 08:15:00",
        "E10": "2026-03-28 08:15:00"
      }
    },
    {
      "id": "46600002",
      "lat": 44.93612,
      "lon": 1.60076,
      "cp": "46600",
      "ville": "Martel",
      "prix": {
        "Gazole": 0.002159,
        "E10": 0.0019890000000000003,
        "SP98": 0.002059
      },
      "maj_gouv": {
        "Gazole": "2026-04-28 08:40:22",
        "E10": "2026-04-28 08:40:22",
        "SP98": "2026-04-28 08:40:22"
      }
    },
    {
      "id": "46000006",
      "lat": 44.436,
      "lon": 1.552,
      "cp": "46000",
      "ville": "CAHORS",
      "prix": {
        "Gazole": 0.002176,
        "E85": 0.000819,
        "E10": 0.001992,
        "SP98": 0.002075
      },
      "maj_gouv": {
        "Gazole": "2026-04-29 05:15:48",
        "E85": "2026-04-29 05:15:48",
        "E10": "2026-04-29 05:15:48",
        "SP98": "2026-04-29 05:15:48"
      }
    },
    {
      "id": "46160001",
      "lat": 44.48692,
      "lon": 1.84248,
      "cp": "46160",
      "ville": "Cajarc",
      "prix": {
        "Gazole": 0.0022,
        "E10": 0.00199,
        "SP98": 0.00199
      },
      "maj_gouv": {
        "Gazole": "2026-04-24 19:09:03",
        "E10": "2026-04-24 19:09:03",
        "SP98": "2026-04-24 19:09:03"
      }
    },
    {
      "id": "46330001",
      "lat": 44.471,
      "lon": 1.687,
      "cp": "46330",
      "ville": "Tour-de-Faure",
      "prix": {
        "Gazole": 0.0024980000000000002,
        "E10": 0.002101,
        "SP98": 0.002198
      },
      "maj_gouv": {
        "Gazole": "2026-04-26 23:59:00",
        "E10": "2026-04-26 23:59:00",
        "SP98": "2026-04-26 23:59:00"
      }
    },
    {
      "id": "46100005",
      "lat": 44.606,
      "lon": 2.013,
      "cp": "46100",
      "ville": "Figeac",
      "prix": {
        "Gazole": 0.002195,
        "E10": 0.001993,
        "SP98": 0.002109
      },
      "maj_gouv": {
        "Gazole": "2026-04-24 07:13:31",
        "E10": "2026-04-24 07:14:07",
        "SP98": "2026-04-24 07:14:07"
      }
    },
    {
      "id": "46600003",
      "lat": 45.021,
      "lon": 1.52,
      "cp": "46600",
      "ville": "CRESSENSAC",
      "prix": {
        "E10": 0.00199
      },
      "maj_gouv": {
        "E10": "2026-04-07 08:56:21"
      }
    },
    {
      "id": "46090004",
      "lat": 44.51,
      "lon": 1.373,
      "cp": "46090",
      "ville": "ESPERE",
      "prix": {
        "Gazole": 0.002176,
        "E85": 0.0008179999999999999,
        "E10": 0.001992,
        "SP98": 0.002057
      },
      "maj_gouv": {
        "Gazole": "2026-04-28 16:27:02",
        "E85": "2026-04-18 19:14:49",
        "E10": "2026-04-28 16:27:02",
        "SP98": "2026-04-27 16:40:39"
      }
    },
    {
      "id": "46220002",
      "lat": 44.505,
      "lon": 1.175,
      "cp": "46220",
      "ville": "PRAYSSAC",
      "prix": {
        "Gazole": 0.002199,
        "E85": 0.00085,
        "GPLc": 0.001123,
        "E10": 0.0019590000000000002,
        "SP98": 0.002059
      },
      "maj_gouv": {
        "Gazole": "2026-04-25 09:34:57",
        "E85": "2026-04-25 09:34:57",
        "GPLc": "2026-04-23 09:35:51",
        "E10": "2026-04-25 09:34:58",
        "SP98": "2026-04-25 09:34:58"
      }
    },
    {
      "id": "46170001",
      "lat": 44.282,
      "lon": 1.358,
      "cp": "46170",
      "ville": "CASTELNAU MONTRATIER",
      "prix": {
        "Gazole": 0.002249,
        "E10": 0.001999,
        "SP98": 0.002099
      },
      "maj_gouv": {
        "Gazole": "2026-04-21 10:33:03",
        "E10": "2026-04-14 10:59:36",
        "SP98": "2026-04-14 10:59:36"
      }
    },
    {
      "id": "46800002",
      "lat": 44.342,
      "lon": 1.204,
      "cp": "46800",
      "ville": "Montcuq",
      "prix": {
        "Gazole": 0.00222,
        "SP95": 0.002129,
        "SP98": 0.002209
      },
      "maj_gouv": {
        "Gazole": "2026-04-17 07:24:10",
        "SP95": "2026-04-17 07:24:10",
        "SP98": "2026-04-17 07:24:10"
      }
    },
    {
      "id": "46220005",
      "lat": 44.50144384934,
      "lon": 1.1936775425425,
      "cp": "46220",
      "ville": "Prayssac",
      "prix": {
        "Gazole": 0.00225,
        "E85": 0.0008489999999999999,
        "E10": 0.00199
      },
      "maj_gouv": {
        "Gazole": "2026-04-26 19:14:01",
        "E85": "2026-04-26 19:14:01",
        "E10": "2026-04-26 19:14:01"
      }
    },
    {
      "id": "46300013",
      "lat": 44.721,
      "lon": 1.37,
      "cp": "46300",
      "ville": "Gourdon",
      "prix": {
        "Gazole": 0.002129,
        "E85": 0.000775,
        "E10": 0.001975,
        "SP98": 0.002154
      },
      "maj_gouv": {
        "Gazole": "2026-04-24 09:43:00",
        "E85": "2026-04-24 09:43:01",
        "E10": "2026-04-24 09:43:01",
        "SP98": "2026-04-24 09:43:01"
      }
    },
    {
      "id": "46240001",
      "lat": 44.65,
      "lon": 1.571,
      "cp": "46240",
      "ville": "LABASTIDE-MURAT",
      "prix": {
        "Gazole": 0.002199,
        "SP95": 0.002115,
        "SP98": 0.002159
      },
      "maj_gouv": {
        "Gazole": "2026-05-01 08:29:40",
        "SP95": "2026-05-01 08:29:40",
        "SP98": "2026-05-01 08:29:41"
      }
    },
    {
      "id": "46300005",
      "lat": 44.739,
      "lon": 1.389,
      "cp": "46300",
      "ville": "Gourdon",
      "prix": {
        "Gazole": 0.0022389999999999997,
        "E10": 0.002085,
        "SP98": 0.002159
      },
      "maj_gouv": {
        "Gazole": "2026-04-16 12:13:40",
        "E10": "2026-04-26 09:18:33",
        "SP98": "2026-04-26 09:18:33"
      }
    },
    {
      "id": "46000012",
      "lat": 44.421,
      "lon": 1.439,
      "cp": "46000",
      "ville": "CAHORS",
      "prix": {
        "Gazole": 0.00209,
        "E85": 0.0008449999999999999,
        "GPLc": 0.001099,
        "E10": 0.00199,
        "SP98": 0.00199
      },
      "maj_gouv": {
        "Gazole": "2026-05-02 00:01:00",
        "E85": "2026-05-02 00:01:00",
        "GPLc": "2026-05-02 00:01:00",
        "E10": "2026-05-02 00:01:00",
        "SP98": "2026-05-02 00:01:00"
      }
    },
    {
      "id": "46270001",
      "lat": 44.6701019718,
      "lon": 2.16554057775,
      "cp": "46270",
      "ville": "BAGNAC-SUR-CéLé",
      "prix": {
        "Gazole": 0.002249,
        "E10": 0.001998,
        "SP98": 0.002169
      },
      "maj_gouv": {
        "Gazole": "2026-04-29 10:45:33",
        "E10": "2026-04-18 08:03:42",
        "SP98": "2026-04-22 07:29:03"
      }
    },
    {
      "id": "46130001",
      "lat": 44.909,
      "lon": 1.821,
      "cp": "46130",
      "ville": "BIARS-SUR-CERE",
      "prix": {
        "Gazole": 0.002159,
        "E85": 0.0008070000000000001,
        "E10": 0.002008,
        "SP98": 0.0020859999999999997
      },
      "maj_gouv": {
        "Gazole": "2026-05-02 01:17:00",
        "E85": "2026-05-02 01:17:00",
        "E10": "2026-05-02 01:17:00",
        "SP98": "2026-05-02 01:17:00"
      }
    },
    {
      "id": "46000001",
      "lat": 44.42,
      "lon": 1.439,
      "cp": "46000",
      "ville": "Cahors",
      "prix": {
        "Gazole": 0.0021739999999999997,
        "E10": 0.00199,
        "SP98": 0.002049
      },
      "maj_gouv": {
        "Gazole": "2026-04-30 08:34:18",
        "E10": "2026-04-30 08:34:19",
        "SP98": "2026-04-30 08:34:19"
      }
    },
    {
      "id": "46200004",
      "lat": 44.899,
      "lon": 1.475,
      "cp": "46200",
      "ville": "SOUILLAC",
      "prix": {
        "Gazole": 0.002159,
        "E85": 0.000819,
        "E10": 0.0019450000000000001
      },
      "maj_gouv": {
        "Gazole": "2026-04-21 09:05:50",
        "E85": "2026-04-17 17:23:30",
        "E10": "2026-04-17 17:23:30"
      }
    },
    {
      "id": "46420001",
      "lat": 44.724,
      "lon": 1.917,
      "cp": "46120",
      "ville": "Lacapelle-Marival",
      "prix": {
        "Gazole": 0.002198,
        "SP95": 0.002069,
        "SP98": 0.002176
      },
      "maj_gouv": {
        "Gazole": "2026-04-30 13:57:28",
        "SP95": "2026-04-30 13:57:28",
        "SP98": "2026-04-30 13:57:28"
      }
    },
    {
      "id": "46120001",
      "lat": 44.728,
      "lon": 1.921,
      "cp": "46120",
      "ville": "LACAPELLE-MARIVAL",
      "prix": {
        "Gazole": 0.00209,
        "E85": 0.000874,
        "E10": 0.00199
      },
      "maj_gouv": {
        "Gazole": "2026-05-01 01:57:20",
        "E85": "2026-04-22 14:58:49",
        "E10": "2026-04-22 14:58:49"
      }
    },
    {
      "id": "46100006",
      "lat": 44.61,
      "lon": 2.028,
      "cp": "46100",
      "ville": "Figeac",
      "prix": {
        "Gazole": 0.00209,
        "SP95": 0.00199
      },
      "maj_gouv": {
        "Gazole": "2026-05-01 09:38:21",
        "SP95": "2026-04-16 09:42:12"
      }
    },
    {
      "id": "46140003",
      "lat": 44.478,
      "lon": 1.305,
      "cp": "46140",
      "ville": "Parnac",
      "prix": {
        "Gazole": 0.002199,
        "E10": 0.001994,
        "SP98": 0.00213
      },
      "maj_gouv": {
        "Gazole": "2026-04-29 07:03:52",
        "E10": "2026-04-29 07:40:38",
        "SP98": "2026-03-25 09:00:00"
      }
    },
    {
      "id": "46110001",
      "lat": 45.0,
      "lon": 1.64,
      "cp": "46110",
      "ville": "LES QUATRE ROUTES DU LOT",
      "prix": {
        "Gazole": 0.002199,
        "E10": 0.002019,
        "SP98": 0.002149
      },
      "maj_gouv": {
        "Gazole": "2026-04-29 09:15:41",
        "E10": "2026-04-29 09:15:41",
        "SP98": "2026-04-29 09:15:41"
      }
    },
    {
      "id": "46600005",
      "lat": 45.032461104245996,
      "lon": 1.5248918369564999,
      "cp": "46600",
      "ville": "CRESSENSAC",
      "prix": {
        "Gazole": 0.0025440000000000003,
        "GPLc": 0.001149,
        "E10": 0.002294,
        "SP98": 0.0023940000000000003
      },
      "maj_gouv": {
        "Gazole": "2026-05-01 22:00:00",
        "GPLc": "2026-05-01 22:00:00",
        "E10": "2026-05-01 22:00:00",
        "SP98": "2026-05-01 22:00:00"
      }
    },
    {
      "id": "46240003",
      "lat": 44.659,
      "lon": 1.569,
      "cp": "46240",
      "ville": "LABASTIDE-MURAT",
      "prix": {
        "Gazole": 0.002419,
        "E85": 0.001159,
        "GPLc": 0.001064,
        "E10": 0.002149,
        "SP98": 0.002185
      },
      "maj_gouv": {
        "Gazole": "2026-04-28 00:05:00",
        "E85": "2026-04-17 00:02:00",
        "GPLc": "2026-04-08 00:02:00",
        "E10": "2026-04-28 00:05:00",
        "SP98": "2026-04-22 00:02:00"
      }
    },
    {
      "id": "46320001",
      "lat": 44.655314565001994,
      "lon": 1.8508449975826,
      "cp": "46320",
      "ville": "LIVERNON",
      "prix": {
        "Gazole": 0.002198,
        "E85": 0.0008179999999999999,
        "E10": 0.002069,
        "SP98": 0.002176
      },
      "maj_gouv": {
        "Gazole": "2026-04-30 13:55:23",
        "E85": "2026-04-16 16:44:55",
        "E10": "2026-04-30 13:55:23",
        "SP98": "2026-04-30 13:55:23"
      }
    },
    {
      "id": "46230004",
      "lat": 44.341103768778,
      "lon": 1.5422035789824,
      "cp": "46230",
      "ville": "lalbenque",
      "prix": {
        "Gazole": 0.00225,
        "SP95": 0.00199
      },
      "maj_gouv": {
        "Gazole": "2026-04-30 10:06:20",
        "SP95": "2026-04-30 10:06:20"
      }
    },
    {
      "id": "46000008",
      "lat": 44.469,
      "lon": 1.43,
      "cp": "46000",
      "ville": "Cahors",
      "prix": {
        "Gazole": 0.002176,
        "E85": 0.000819,
        "E10": 0.001999,
        "SP98": 0.0020670000000000003
      },
      "maj_gouv": {
        "Gazole": "2026-04-29 06:12:02",
        "E85": "2026-04-16 06:24:43",
        "E10": "2026-04-30 21:56:42",
        "SP98": "2026-04-29 06:12:02"
      }
    },
    {
      "id": "46500001",
      "lat": 44.78723,
      "lon": 1.74089,
      "cp": "46500",
      "ville": "Gramat",
      "prix": {
        "Gazole": 0.00209,
        "SP95": 0.00199
      },
      "maj_gouv": {
        "Gazole": "2026-05-01 10:34:54",
        "SP95": "2026-03-06 08:33:33"
      }
    },
    {
      "id": "46000013",
      "lat": 44.449286900000004,
      "lon": 1.4372362050987,
      "cp": "46000",
      "ville": "CAHORS",
      "prix": {
        "Gazole": 0.0022890000000000002,
        "E85": 0.000865,
        "GPLc": 0.001059,
        "E10": 0.002099,
        "SP98": 0.002199
      },
      "maj_gouv": {
        "Gazole": "2026-04-30 08:30:00",
        "E85": "2026-04-30 08:30:00",
        "GPLc": "2026-04-20 19:00:00",
        "E10": "2026-04-30 08:30:00",
        "SP98": "2026-04-01 08:30:00"
      }
    },
    {
      "id": "46300007",
      "lat": 44.74,
      "lon": 1.391,
      "cp": "46300",
      "ville": "GOURDON",
      "prix": {
        "Gazole": 0.00225,
        "E10": 0.0020299999999999997,
        "SP98": 0.0020800000000000003
      },
      "maj_gouv": {
        "Gazole": "2026-04-22 08:38:36",
        "E10": "2026-04-22 08:38:36",
        "SP98": "2026-04-22 08:38:36"
      }
    },
    {
      "id": "46340001",
      "lat": 44.679844320529,
      "lon": 1.2609330195636,
      "cp": "46340",
      "ville": "Salviac",
      "prix": {
        "Gazole": 0.002199,
        "E85": 0.000819,
        "E10": 0.002019,
        "SP98": 0.002095
      },
      "maj_gouv": {
        "Gazole": "2026-04-29 15:25:34",
        "E85": "2026-04-29 15:25:34",
        "E10": "2026-04-29 15:25:34",
        "SP98": "2026-04-29 15:25:34"
      }
    },
    {
      "id": "46150001",
      "lat": 44.554,
      "lon": 1.338,
      "cp": "46150",
      "ville": "Catus",
      "prix": {
        "Gazole": 0.002404,
        "E10": 0.002053,
        "SP98": 0.0021360000000000003
      },
      "maj_gouv": {
        "Gazole": "2026-03-31 07:26:47",
        "E10": "2026-03-31 07:26:47",
        "SP98": "2026-03-31 07:26:47"
      }
    },
    {
      "id": "46230005",
      "lat": 44.343512136314,
      "lon": 1.5414736828542,
      "cp": "46230",
      "ville": "LALBENQUE",
      "prix": {
        "Gazole": 0.002199,
        "E10": 0.002009,
        "SP98": 0.002109
      },
      "maj_gouv": {
        "Gazole": "2026-04-29 08:03:06",
        "E10": "2026-04-29 08:03:06",
        "SP98": "2026-04-29 08:03:06"
      }
    },
    {
      "id": "46400004",
      "lat": 44.86,
      "lon": 1.882,
      "cp": "46400",
      "ville": "Saint-Céré",
      "prix": {
        "Gazole": 0.00225,
        "E85": 0.000905,
        "E10": 0.00199,
        "SP98": 0.00199
      },
      "maj_gouv": {
        "Gazole": "2026-04-17 09:24:37",
        "E85": "2026-04-17 09:24:37",
        "E10": "2026-04-17 09:24:38",
        "SP98": "2026-04-17 09:24:38"
      }
    },
    {
      "id": "46700001",
      "lat": 44.501,
      "lon": 1.143,
      "cp": "46700",
      "ville": "Puy-l'Évêque",
      "prix": {
        "Gazole": 0.002154,
        "E10": 0.001955,
        "SP98": 0.002045
      },
      "maj_gouv": {
        "Gazole": "2026-04-29 09:32:14",
        "E10": "2026-04-29 09:32:14",
        "SP98": "2026-04-24 15:52:57"
      }
    },
    {
      "id": "46300009",
      "lat": 44.7422129,
      "lon": 1.4355697,
      "cp": "46300",
      "ville": "LE VIGAN",
      "prix": {
        "Gazole": 0.00225,
        "E10": 0.0020299999999999997
      },
      "maj_gouv": {
        "Gazole": "2026-04-22 08:39:34",
        "E10": "2026-04-22 08:39:34"
      }
    },
    {
      "id": "46300006",
      "lat": 44.72,
      "lon": 1.368,
      "cp": "46300",
      "ville": "GOURDON",
      "prix": {
        "Gazole": 0.00225,
        "E85": 0.000971,
        "GPLc": 0.00113,
        "E10": 0.00199,
        "SP98": 0.00199
      },
      "maj_gouv": {
        "Gazole": "2026-04-08 08:00:00",
        "E85": "2026-04-24 08:06:21",
        "GPLc": "2026-04-24 08:06:21",
        "E10": "2026-03-24 09:39:21",
        "SP98": "2026-03-24 09:39:21"
      }
    },
    {
      "id": "46350002",
      "lat": 44.798,
      "lon": 1.473,
      "cp": "46350",
      "ville": "PAYRAC",
      "prix": {
        "Gazole": 0.00225,
        "E10": 0.00199,
        "SP98": 0.00199
      },
      "maj_gouv": {
        "Gazole": "2026-04-16 16:07:17",
        "E10": "2026-04-08 17:36:00",
        "SP98": "2026-04-08 17:36:00"
      }
    },
    {
      "id": "46100002",
      "lat": 44.595,
      "lon": 2.062,
      "cp": "46100",
      "ville": "FIGEAC",
      "prix": {
        "Gazole": 0.002169,
        "E85": 0.000798,
        "E10": 0.002028,
        "SP98": 0.002108
      },
      "maj_gouv": {
        "Gazole": "2026-05-02 01:17:00",
        "E85": "2026-05-02 01:17:00",
        "E10": "2026-05-02 01:17:00",
        "SP98": "2026-05-02 01:17:00"
      }
    },
    {
      "id": "46500003",
      "lat": 44.787,
      "lon": 1.72,
      "cp": "46500",
      "ville": "Gramat",
      "prix": {
        "Gazole": 0.002159,
        "SP95": 0.002093,
        "E85": 0.0008169999999999999,
        "E10": 0.001999,
        "SP98": 0.002076
      },
      "maj_gouv": {
        "Gazole": "2026-05-02 01:16:00",
        "SP95": "2026-05-02 01:16:00",
        "E85": "2026-05-02 01:16:00",
        "E10": "2026-05-02 01:16:00",
        "SP98": "2026-05-02 01:16:00"
      }
    },
    {
      "id": "46400002",
      "lat": 44.867,
      "lon": 1.887,
      "cp": "46400",
      "ville": "SAINT-LAURENT-LES-TOURS",
      "prix": {
        "Gazole": 0.002159,
        "SP95": 0.002093,
        "E10": 0.002008,
        "SP98": 0.0020859999999999997
      },
      "maj_gouv": {
        "Gazole": "2026-05-02 01:17:00",
        "SP95": "2026-05-02 01:17:00",
        "E10": "2026-05-02 01:17:00",
        "SP98": "2026-05-02 01:17:00"
      }
    },
    {
      "id": "46100007",
      "lat": 44.607,
      "lon": 2.024,
      "cp": "46100",
      "ville": "FIGEAC",
      "prix": {
        "Gazole": 0.002195,
        "SP95": 0.002049,
        "SP98": 0.002109
      },
      "maj_gouv": {
        "Gazole": "2026-04-23 14:17:21",
        "SP95": "2026-04-23 14:17:21",
        "SP98": "2026-04-23 14:17:21"
      }
    },
    {
      "id": "46000007",
      "lat": 44.461,
      "lon": 1.423,
      "cp": "46000",
      "ville": "Cahors",
      "prix": {
        "Gazole": 0.002176,
        "E85": 0.000819,
        "E10": 0.001996,
        "SP98": 0.0020670000000000003
      },
      "maj_gouv": {
        "Gazole": "2026-04-29 11:27:31",
        "E85": "2026-04-29 11:27:31",
        "E10": "2026-04-29 11:27:31",
        "SP98": "2026-04-29 11:27:32"
      }
    },
    {
      "id": "46090003",
      "lat": 44.469,
      "lon": 1.483,
      "cp": "46090",
      "ville": "LAMAGDELAINE",
      "prix": {
        "Gazole": 0.00209,
        "E10": 0.00199,
        "SP98": 0.00199
      },
      "maj_gouv": {
        "Gazole": "2026-05-01 08:38:34",
        "E10": "2026-04-28 18:59:39",
        "SP98": "2026-04-28 18:59:39"
      }
    },
    {
      "id": "46140004",
      "lat": 44.407817,
      "lon": 1.257638,
      "cp": "46140",
      "ville": "Sauzet",
      "prix": {
        "Gazole": 0.0023,
        "E10": 0.0020800000000000003,
        "SP98": 0.00221
      },
      "maj_gouv": {
        "Gazole": "2026-04-28 11:06:34",
        "E10": "2026-04-28 11:06:13",
        "SP98": "2026-04-28 11:06:13"
      }
    },
    {
      "id": "46300011",
      "lat": 44.74,
      "lon": 1.391,
      "cp": "46300",
      "ville": "GOURDON",
      "prix": {
        "Gazole": 0.00209,
        "E10": 0.00199
      },
      "maj_gouv": {
        "Gazole": "2026-05-01 07:26:56",
        "E10": "2026-05-01 07:26:56"
      }
    },
    {
      "id": "46320002",
      "lat": 44.670720514542005,
      "lon": 1.7887545871555,
      "cp": "46320",
      "ville": "Durbans",
      "prix": {
        "Gazole": 0.00209,
        "E10": 0.00199,
        "SP98": 0.00199
      },
      "maj_gouv": {
        "Gazole": "2026-05-01 12:19:11",
        "E10": "2026-05-01 12:19:11",
        "SP98": "2026-05-01 12:19:11"
      }
    },
    {
      "id": "46800003",
      "lat": 44.339,
      "lon": 1.201,
      "cp": "46800",
      "ville": "Montcuq",
      "prix": {
        "Gazole": 0.00225,
        "E10": 0.00199,
        "SP98": 0.00199
      },
      "maj_gouv": {
        "Gazole": "2026-04-16 11:17:54",
        "E10": "2026-04-16 11:17:54",
        "SP98": "2026-04-16 11:17:54"
      }
    },
    {
      "id": "46160002",
      "lat": 44.489,
      "lon": 1.846,
      "cp": "46160",
      "ville": "CAJARC",
      "prix": {
        "Gazole": 0.002249,
        "E10": 0.002009,
        "SP98": 0.002139
      },
      "maj_gouv": {
        "Gazole": "2026-04-24 14:16:49",
        "E10": "2026-04-24 14:16:16",
        "SP98": "2026-04-24 14:16:16"
      }
    },
    {
      "id": "46220003",
      "lat": 44.502,
      "lon": 1.186,
      "cp": "46220",
      "ville": "PRAYSSAC",
      "prix": {
        "Gazole": 0.002154,
        "E85": 0.0008179999999999999,
        "E10": 0.001955,
        "SP98": 0.002062
      },
      "maj_gouv": {
        "Gazole": "2026-04-28 13:17:59",
        "E85": "2026-04-22 08:25:34",
        "E10": "2026-04-28 13:17:59",
        "SP98": "2026-04-28 13:17:59"
      }
    },
    {
      "id": "46500006",
      "lat": 44.781,
      "lon": 1.727,
      "cp": "46500",
      "ville": "Gramat",
      "prix": {
        "Gazole": 0.002155,
        "E10": 0.0019950000000000002,
        "SP98": 0.002075
      },
      "maj_gouv": {
        "Gazole": "2026-04-30 08:17:25",
        "E10": "2026-04-30 08:17:26",
        "SP98": "2026-04-30 08:17:26"
      }
    },
    {
      "id": "46200001",
      "lat": 44.899,
      "lon": 1.477,
      "cp": "46200",
      "ville": "Souillac",
      "prix": {
        "Gazole": 0.00209,
        "E85": 0.000929,
        "E10": 0.00199,
        "SP98": 0.00199
      },
      "maj_gouv": {
        "Gazole": "2026-05-01 23:49:08",
        "E85": "2026-04-15 10:27:44",
        "E10": "2026-04-15 10:27:44",
        "SP98": "2026-04-15 10:27:44"
      }
    },
    {
      "id": "46260002",
      "lat": 44.396,
      "lon": 1.768,
      "cp": "46260",
      "ville": "LIMOGNE EN QUERCY",
      "prix": {
        "Gazole": 0.00209,
        "E10": 0.00199,
        "SP98": 0.00199
      },
      "maj_gouv": {
        "Gazole": "2026-04-30 23:59:00",
        "E10": "2026-04-17 20:53:47",
        "SP98": "2026-04-17 20:53:47"
      }
    },
    {
      "id": "46090002",
      "lat": 44.464,
      "lon": 1.421,
      "cp": "46000",
      "ville": "CAHORS",
      "prix": {
        "Gazole": 0.002176,
        "E85": 0.000739,
        "GPLc": 0.00111,
        "E10": 0.001999,
        "SP98": 0.002045
      },
      "maj_gouv": {
        "Gazole": "2026-04-28 10:15:39",
        "E85": "2026-04-20 09:44:29",
        "GPLc": "2026-04-20 09:44:29",
        "E10": "2026-04-30 08:47:48",
        "SP98": "2026-04-20 09:44:29"
      }
    },
    {
      "id": "46500007",
      "lat": 44.774421178160004,
      "lon": 1.7214745853624,
      "cp": "46500",
      "ville": "GRAMAT",
      "prix": {
        "Gazole": 0.00225,
        "SP95": 0.00199
      },
      "maj_gouv": {
        "Gazole": "2026-04-09 18:51:58",
        "SP95": "2026-03-26 15:11:00"
      }
    },
    {
      "id": "46110003",
      "lat": 44.953,
      "lon": 1.703,
      "cp": "46110",
      "ville": "VAYRAC",
      "prix": {
        "Gazole": 0.00225,
        "E10": 0.0020299999999999997,
        "SP98": 0.002089
      },
      "maj_gouv": {
        "Gazole": "2026-04-21 17:29:03",
        "E10": "2026-04-21 17:29:03",
        "SP98": "2026-04-21 17:29:03"
      }
    },
    {
      "id": "46130003",
      "lat": 44.912,
      "lon": 1.842,
      "cp": "46130",
      "ville": "Bretenoux",
      "prix": {
        "Gazole": 0.00225,
        "SP95": 0.00199,
        "SP98": 0.00199
      },
      "maj_gouv": {
        "Gazole": "2026-04-30 18:58:03",
        "SP95": "2026-04-30 18:58:04",
        "SP98": "2026-04-30 18:58:04"
      }
    }
  ]
}