{
  "departement": "93",
  "date": "2026-05-02",
  "stations": [
    {
      "id": "93380009",
      "lat": 48.9660970452,
      "lon": 2.36413094302,
      "cp": "93380",
      "ville": "Pierrefitte-sur-Seine",
      "prix": {
        "Gazole": 0.00209,
        "E85": 0.000839,
        "E10": 0.00199,
        "SP98": 0.00199
      },
      "maj_gouv": {
        "Gazole": "2026-05-02 00:01:00",
        "E85": "2026-05-02 00:01:00",
        "E10": "2026-05-02 00:01:00",
        "SP98": "2026-05-02 00:01:00"
      }
    },
    {
      "id": "93150009",
      "lat": 48.935,
      "lon": 2.473,
      "cp": "93150",
      "ville": "Le Blanc-Mesnil",
      "prix": {
        "Gazole": 0.00209,
        "E85": 0.000884,
        "E10": 0.00199,
        "SP98": 0.00199
      },
      "maj_gouv": {
        "Gazole": "2026-05-02 00:01:00",
        "E85": "2026-05-02 00:01:00",
        "E10": "2026-05-02 00:01:00",
        "SP98": "2026-05-02 00:01:00"
      }
    },
    {
      "id": "93160006",
      "lat": 48.845,
      "lon": 2.528,
      "cp": "93160",
      "ville": "Noisy-le-Grand",
      "prix": {
        "Gazole": 0.002206,
        "SP95": 0.002053,
        "E10": 0.00199,
        "SP98": 0.002099
      },
      "maj_gouv": {
        "Gazole": "2026-04-29 16:18:58",
        "SP95": "2026-04-27 06:39:59",
        "E10": "2026-04-27 06:39:59",
        "SP98": "2026-04-27 06:39:59"
      }
    },
    {
      "id": "93160004",
      "lat": 48.843,
      "lon": 2.577,
      "cp": "93160",
      "ville": "Noisy-le-Grand",
      "prix": {
        "Gazole": 0.00225,
        "E10": 0.001993,
        "SP98": 0.002078
      },
      "maj_gouv": {
        "Gazole": "2026-05-01 06:31:00",
        "E10": "2026-05-01 06:31:00",
        "SP98": "2026-05-01 06:31:00"
      }
    },
    {
      "id": "93140003",
      "lat": 48.907,
      "lon": 2.489,
      "cp": "93140",
      "ville": "Bondy",
      "prix": {
        "Gazole": 0.0022010000000000003,
        "E10": 0.0020009999999999997,
        "SP98": 0.002101
      },
      "maj_gouv": {
        "Gazole": "2026-05-01 14:10:00",
        "E10": "2026-05-01 14:10:00",
        "SP98": "2026-05-01 14:10:00"
      }
    },
    {
      "id": "93160005",
      "lat": 48.851,
      "lon": 2.535,
      "cp": "93160",
      "ville": "Noisy-le-Grand",
      "prix": {
        "Gazole": 0.002205,
        "E10": 0.001993,
        "SP98": 0.002092
      },
      "maj_gouv": {
        "Gazole": "2026-05-01 07:45:00",
        "E10": "2026-05-01 07:45:00",
        "SP98": "2026-05-01 07:45:00"
      }
    },
    {
      "id": "93800003",
      "lat": 48.96,
      "lon": 2.304,
      "cp": "93800",
      "ville": "Épinay-sur-Seine",
      "prix": {
        "Gazole": 0.0021880000000000003,
        "E10": 0.00199,
        "SP98": 0.002075
      },
      "maj_gouv": {
        "Gazole": "2026-05-01 07:46:00",
        "E10": "2026-05-01 07:46:00",
        "SP98": "2026-05-01 07:46:00"
      }
    },
    {
      "id": "93410002",
      "lat": 48.935,
      "lon": 2.567,
      "cp": "93410",
      "ville": "Vaujours",
      "prix": {
        "Gazole": 0.002269,
        "GPLc": 0.0012490000000000001,
        "E10": 0.002099,
        "SP98": 0.002249
      },
      "maj_gouv": {
        "Gazole": "2026-04-30 11:27:21",
        "GPLc": "2026-04-30 11:27:21",
        "E10": "2026-04-30 11:27:21",
        "SP98": "2026-04-30 11:27:20"
      }
    },
    {
      "id": "93300001",
      "lat": 48.918,
      "lon": 2.379,
      "cp": "93300",
      "ville": "Aubervilliers",
      "prix": {
        "Gazole": 0.0022789999999999998,
        "E10": 0.002109,
        "SP98": 0.0022589999999999997
      },
      "maj_gouv": {
        "Gazole": "2026-05-01 22:07:04",
        "E10": "2026-05-01 22:07:04",
        "SP98": "2026-05-01 22:07:04"
      }
    },
    {
      "id": "93140002",
      "lat": 48.905736767977004,
      "lon": 2.4814502497433,
      "cp": "93140",
      "ville": "Bondy",
      "prix": {
        "Gazole": 0.0022010000000000003,
        "E10": 0.00199,
        "SP98": 0.002088
      },
      "maj_gouv": {
        "Gazole": "2026-05-01 14:10:00",
        "E10": "2026-05-01 14:10:00",
        "SP98": "2026-05-01 14:10:00"
      }
    },
    {
      "id": "93290003",
      "lat": 48.9467460327,
      "lon": 2.57048818541,
      "cp": "93290",
      "ville": "TREMBLAY-EN-FRANCE",
      "prix": {
        "Gazole": 0.00216,
        "SP95": 0.0020369999999999997,
        "E10": 0.00199
      },
      "maj_gouv": {
        "Gazole": "2026-04-24 11:19:40",
        "SP95": "2026-04-24 11:19:40",
        "E10": "2026-04-24 11:19:40"
      }
    },
    {
      "id": "93210003",
      "lat": 48.912,
      "lon": 2.358,
      "cp": "93210",
      "ville": "La plaine-saint-denis",
      "prix": {
        "Gazole": 0.00209,
        "E10": 0.00199
      },
      "maj_gouv": {
        "Gazole": "2026-05-02 00:01:00",
        "E10": "2026-05-02 00:01:00"
      }
    },
    {
      "id": "93150012",
      "lat": 48.928,
      "lon": 2.474,
      "cp": "93150",
      "ville": "Le Blanc-Mesnil",
      "prix": {
        "Gazole": 0.002319,
        "GPLc": 0.0011690000000000001,
        "E10": 0.002149,
        "SP98": 0.002299
      },
      "maj_gouv": {
        "Gazole": "2026-05-01 11:47:20",
        "GPLc": "2026-05-01 11:47:21",
        "E10": "2026-05-01 11:47:21",
        "SP98": "2026-05-01 11:47:20"
      }
    },
    {
      "id": "93110005",
      "lat": 48.878,
      "lon": 2.482,
      "cp": "93110",
      "ville": "Rosny-sous-Bois",
      "prix": {
        "Gazole": 0.00209,
        "E85": 0.000929,
        "GPLc": 0.001149,
        "E10": 0.00199,
        "SP98": 0.00199
      },
      "maj_gouv": {
        "Gazole": "2026-05-02 00:01:00",
        "E85": "2026-05-02 00:01:00",
        "GPLc": "2026-05-02 00:01:00",
        "E10": "2026-05-02 00:01:00",
        "SP98": "2026-05-02 00:01:00"
      }
    },
    {
      "id": "93290005",
      "lat": 48.984,
      "lon": 2.55,
      "cp": "93290",
      "ville": "Tremblay-en-France",
      "prix": {
        "Gazole": 0.00209,
        "E10": 0.001908,
        "SP98": 0.00199
      },
      "maj_gouv": {
        "Gazole": "2026-05-01 10:35:00",
        "E10": "2026-04-18 08:46:00",
        "SP98": "2026-05-01 10:35:00"
      }
    },
    {
      "id": "93360002",
      "lat": 48.862,
      "lon": 2.51,
      "cp": "93360",
      "ville": "Neuilly-Plaisance",
      "prix": {
        "Gazole": 0.00225,
        "SP98": 0.00199
      },
      "maj_gouv": {
        "Gazole": "2026-04-08 15:47:12",
        "SP98": "2026-04-23 17:44:52"
      }
    },
    {
      "id": "93190006",
      "lat": 48.912,
      "lon": 2.519,
      "cp": "93190",
      "ville": "LIVRY GARGAN",
      "prix": {
        "Gazole": 0.0022389999999999997,
        "GPLc": 0.0011690000000000001,
        "E10": 0.002079,
        "SP98": 0.002229
      },
      "maj_gouv": {
        "Gazole": "2026-05-01 11:26:29",
        "GPLc": "2026-05-01 11:26:29",
        "E10": "2026-05-01 11:26:29",
        "SP98": "2026-05-01 11:26:29"
      }
    },
    {
      "id": "93300003",
      "lat": 48.919,
      "lon": 2.394,
      "cp": "93300",
      "ville": "AUBERVILLIERS",
      "prix": {
        "Gazole": 0.0023090000000000003,
        "E10": 0.002139,
        "SP98": 0.002339
      },
      "maj_gouv": {
        "Gazole": "2026-04-30 11:27:41",
        "E10": "2026-04-30 11:27:41",
        "SP98": "2026-04-30 11:27:41"
      }
    },
    {
      "id": "93140004",
      "lat": 48.907,
      "lon": 2.485,
      "cp": "93140",
      "ville": "BONDY",
      "prix": {
        "Gazole": 0.002269,
        "E10": 0.002109,
        "SP98": 0.0022589999999999997
      },
      "maj_gouv": {
        "Gazole": "2026-05-01 22:08:45",
        "E10": "2026-05-01 22:08:46",
        "SP98": "2026-05-01 22:08:46"
      }
    },
    {
      "id": "93800005",
      "lat": 48.954,
      "lon": 2.335,
      "cp": "93800",
      "ville": "EPINAY SUR SEINE",
      "prix": {
        "Gazole": 0.002175,
        "E85": 0.000719,
        "E10": 0.001987,
        "SP98": 0.002032
      },
      "maj_gouv": {
        "Gazole": "2026-05-02 01:16:00",
        "E85": "2026-05-02 01:16:00",
        "E10": "2026-05-02 01:16:00",
        "SP98": "2026-05-02 01:16:00"
      }
    },
    {
      "id": "93600016",
      "lat": 48.953,
      "lon": 2.497,
      "cp": "93600",
      "ville": "Aulnay-sous-Bois",
      "prix": {
        "Gazole": 0.00209,
        "E10": 0.00199
      },
      "maj_gouv": {
        "Gazole": "2026-05-01 10:00:00",
        "E10": "2026-05-01 10:00:00"
      }
    },
    {
      "id": "93120004",
      "lat": 48.934,
      "lon": 2.39,
      "cp": "93120",
      "ville": "LA COURNEUVE",
      "prix": {
        "Gazole": 0.00209,
        "E85": 0.000969,
        "GPLc": 0.001089
      },
      "maj_gouv": {
        "Gazole": "2026-05-01 10:00:00",
        "E85": "2026-05-01 10:00:00",
        "GPLc": "2026-05-01 10:00:00"
      }
    },
    {
      "id": "93200008",
      "lat": 48.935,
      "lon": 2.368,
      "cp": "93200",
      "ville": "Saint-Denis",
      "prix": {
        "E85": 0.001139,
        "E10": 0.002219,
        "SP98": 0.0023889999999999996
      },
      "maj_gouv": {
        "E85": "2026-05-01 22:08:21",
        "E10": "2026-05-01 22:08:21",
        "SP98": "2026-05-01 22:08:21"
      }
    },
    {
      "id": "93420004",
      "lat": 48.975,
      "lon": 2.496,
      "cp": "93420",
      "ville": "Villepinte",
      "prix": {
        "Gazole": 0.002219,
        "E10": 0.002059,
        "SP98": 0.002229
      },
      "maj_gouv": {
        "Gazole": "2026-05-01 22:12:39",
        "E10": "2026-05-01 22:12:39",
        "SP98": "2026-05-01 22:12:39"
      }
    },
    {
      "id": "93260007",
      "lat": 48.88021,
      "lon": 2.41759,
      "cp": "93260",
      "ville": "LES LILAS",
      "prix": {},
      "maj_gouv": {}
    },
    {
      "id": "93270006",
      "lat": 48.939,
      "lon": 2.527,
      "cp": "93270",
      "ville": "SEVRAN",
      "prix": {
        "Gazole": 0.0023490000000000004,
        "E10": 0.002189,
        "SP98": 0.002339
      },
      "maj_gouv": {
        "Gazole": "2026-05-01 11:46:41",
        "E10": "2026-05-01 11:46:40",
        "SP98": "2026-05-01 11:46:41"
      }
    },
    {
      "id": "93800006",
      "lat": 48.949,
      "lon": 2.343,
      "cp": "93800",
      "ville": "Épinay-sur-Seine",
      "prix": {
        "Gazole": 0.00209,
        "E85": 0.0008539999999999999,
        "GPLc": 0.001099,
        "E10": 0.00199
      },
      "maj_gouv": {
        "Gazole": "2026-05-02 00:01:00",
        "E85": "2026-05-02 00:01:00",
        "GPLc": "2026-05-02 00:01:00",
        "E10": "2026-05-02 00:01:00"
      }
    },
    {
      "id": "93290006",
      "lat": 48.964,
      "lon": 2.564,
      "cp": "93290",
      "ville": "Tremblay-en-France",
      "prix": {
        "Gazole": 0.00209,
        "E85": 0.000879,
        "E10": 0.00199,
        "SP98": 0.00199
      },
      "maj_gouv": {
        "Gazole": "2026-05-02 00:01:00",
        "E85": "2026-05-02 00:01:00",
        "E10": "2026-05-02 00:01:00",
        "SP98": "2026-05-02 00:01:00"
      }
    },
    {
      "id": "93000011",
      "lat": 48.906,
      "lon": 2.445,
      "cp": "93000",
      "ville": "BOBIGNY",
      "prix": {
        "Gazole": 0.0022789999999999998,
        "E85": 0.001129,
        "E10": 0.002079,
        "SP98": 0.002229
      },
      "maj_gouv": {
        "Gazole": "2026-05-01 22:10:19",
        "E85": "2026-05-01 22:10:20",
        "E10": "2026-05-01 22:10:20",
        "SP98": "2026-05-01 22:10:19"
      }
    },
    {
      "id": "93130011",
      "lat": 48.888,
      "lon": 2.46,
      "cp": "93130",
      "ville": "Noisy-le-Sec",
      "prix": {
        "Gazole": 0.002269,
        "E85": 0.001109,
        "E10": 0.002109,
        "SP98": 0.0022589999999999997
      },
      "maj_gouv": {
        "Gazole": "2026-05-01 11:27:02",
        "E85": "2026-05-01 11:27:02",
        "E10": "2026-05-01 11:27:02",
        "SP98": "2026-05-01 11:27:02"
      }
    },
    {
      "id": "93190004",
      "lat": 48.914,
      "lon": 2.526,
      "cp": "93190",
      "ville": "LIVRY-GARGAN",
      "prix": {
        "Gazole": 0.002269,
        "E85": 0.001119,
        "E10": 0.002109,
        "SP98": 0.0022789999999999998
      },
      "maj_gouv": {
        "Gazole": "2026-05-01 22:12:19",
        "E85": "2026-05-01 22:12:19",
        "E10": "2026-05-01 22:12:19",
        "SP98": "2026-05-01 22:12:20"
      }
    },
    {
      "id": "93130007",
      "lat": 48.88,
      "lon": 2.457,
      "cp": "93130",
      "ville": "Noisy-le-Sec",
      "prix": {
        "Gazole": 0.002319,
        "SP95": 0.001849,
        "GPLc": 0.001369,
        "E10": 0.002149,
        "SP98": 0.002299
      },
      "maj_gouv": {
        "Gazole": "2026-05-01 22:09:21",
        "SP95": "2025-07-28 16:12:00",
        "GPLc": "2026-05-01 22:09:21",
        "E10": "2026-05-01 22:09:21",
        "SP98": "2026-05-01 22:09:21"
      }
    },
    {
      "id": "93600018",
      "lat": 48.953,
      "lon": 2.486,
      "cp": "93600",
      "ville": "AULNAY SOUS BOIS",
      "prix": {
        "Gazole": 0.0022890000000000002,
        "GPLc": 0.001189,
        "E10": 0.0021190000000000002,
        "SP98": 0.002319
      },
      "maj_gouv": {
        "Gazole": "2026-05-01 22:24:39",
        "GPLc": "2026-05-01 22:24:39",
        "E10": "2026-05-01 22:24:39",
        "SP98": "2026-05-01 22:24:40"
      }
    },
    {
      "id": "93270008",
      "lat": 48.936,
      "lon": 2.515,
      "cp": "93270",
      "ville": "SEVRAN",
      "prix": {
        "Gazole": 0.002299,
        "SP95": 0.002149,
        "E10": 0.002149,
        "SP98": 0.0022789999999999998
      },
      "maj_gouv": {
        "Gazole": "2026-04-27 16:00:00",
        "SP95": "2026-04-27 16:00:00",
        "E10": "2026-04-27 16:00:00",
        "SP98": "2026-04-27 16:00:00"
      }
    },
    {
      "id": "93390001",
      "lat": 48.907,
      "lon": 2.532,
      "cp": "93390",
      "ville": "CLICHY-SOUS-BOIS",
      "prix": {
        "Gazole": 0.002156,
        "SP95": 0.002047,
        "E10": 0.001988,
        "SP98": 0.002064
      },
      "maj_gouv": {
        "Gazole": "2026-05-02 01:15:00",
        "SP95": "2026-05-02 01:15:00",
        "E10": "2026-05-02 01:15:00",
        "SP98": "2026-05-02 01:15:00"
      }
    },
    {
      "id": "93500008",
      "lat": 48.9,
      "lon": 2.411,
      "cp": "93500",
      "ville": "PANTIN",
      "prix": {},
      "maj_gouv": {}
    },
    {
      "id": "93420008",
      "lat": 48.957,
      "lon": 2.56,
      "cp": "93420",
      "ville": "VILLEPINTE",
      "prix": {
        "Gazole": 0.002249,
        "GPLc": 0.001199,
        "E10": 0.002089,
        "SP98": 0.0022389999999999997
      },
      "maj_gouv": {
        "Gazole": "2026-05-01 22:10:04",
        "GPLc": "2026-05-01 22:10:04",
        "E10": "2026-05-01 22:10:04",
        "SP98": "2026-05-01 22:10:05"
      }
    },
    {
      "id": "93160008",
      "lat": 48.838125330120995,
      "lon": 2.547563329687,
      "cp": "93160",
      "ville": "Noisy-le-Grand",
      "prix": {
        "Gazole": 0.00209,
        "E85": 0.000884,
        "E10": 0.00199
      },
      "maj_gouv": {
        "Gazole": "2026-05-02 00:01:00",
        "E85": "2026-05-02 00:01:00",
        "E10": "2026-05-02 00:01:00"
      }
    },
    {
      "id": "93320002",
      "lat": 48.91,
      "lon": 2.51,
      "cp": "93320",
      "ville": "Les Pavillons-sous-Bois",
      "prix": {
        "Gazole": 0.00209,
        "E85": 0.000879,
        "E10": 0.00199
      },
      "maj_gouv": {
        "Gazole": "2026-05-02 00:01:00",
        "E85": "2026-05-02 00:01:00",
        "E10": "2026-05-02 00:01:00"
      }
    },
    {
      "id": "93170002",
      "lat": 48.86205,
      "lon": 2.4165,
      "cp": "93170",
      "ville": "BAGNOLET",
      "prix": {
        "Gazole": 0.00209,
        "E10": 0.00199,
        "SP98": 0.00199
      },
      "maj_gouv": {
        "Gazole": "2026-05-02 00:01:00",
        "E10": "2026-05-02 00:01:00",
        "SP98": "2026-05-02 00:01:00"
      }
    },
    {
      "id": "93350003",
      "lat": 48.942,
      "lon": 2.432,
      "cp": "93350",
      "ville": "LE BOURGET",
      "prix": {
        "Gazole": 0.00209,
        "E85": 0.0008990000000000001,
        "E10": 0.00199,
        "SP98": 0.00199
      },
      "maj_gouv": {
        "Gazole": "2026-05-02 00:01:00",
        "E85": "2026-05-02 00:01:00",
        "E10": "2026-05-02 00:01:00",
        "SP98": "2026-05-02 00:01:00"
      }
    },
    {
      "id": "93380010",
      "lat": 48.973,
      "lon": 2.366,
      "cp": "93380",
      "ville": "Pierrefitte-sur-Seine",
      "prix": {
        "Gazole": 0.00209,
        "E85": 0.000839,
        "GPLc": 0.0010689999999999999,
        "E10": 0.00199
      },
      "maj_gouv": {
        "Gazole": "2026-05-02 00:01:00",
        "E85": "2026-05-02 00:01:00",
        "GPLc": "2026-05-02 00:01:00",
        "E10": "2026-05-02 00:01:00"
      }
    },
    {
      "id": "93400010",
      "lat": 48.908,
      "lon": 2.344,
      "cp": "93400",
      "ville": "Saint-Ouen",
      "prix": {
        "Gazole": 0.00209,
        "E10": 0.00199,
        "SP98": 0.00199
      },
      "maj_gouv": {
        "Gazole": "2026-05-02 00:01:00",
        "E10": "2026-05-02 00:01:00",
        "SP98": "2026-05-02 00:01:00"
      }
    },
    {
      "id": "93100015",
      "lat": 48.857,
      "lon": 2.43,
      "cp": "93100",
      "ville": "MONTREUIL",
      "prix": {
        "Gazole": 0.00209,
        "E85": 0.000929,
        "E10": 0.00199,
        "SP98": 0.00199
      },
      "maj_gouv": {
        "Gazole": "2026-05-02 00:01:00",
        "E85": "2026-05-02 00:01:00",
        "E10": "2026-05-02 00:01:00",
        "SP98": "2026-05-02 00:01:00"
      }
    },
    {
      "id": "93160001",
      "lat": 48.83,
      "lon": 2.561,
      "cp": "93160",
      "ville": "Noisy-le-Grand",
      "prix": {
        "Gazole": 0.00225,
        "E10": 0.00199,
        "SP98": 0.00199
      },
      "maj_gouv": {
        "Gazole": "2026-04-23 08:33:57",
        "E10": "2026-04-20 08:38:22",
        "SP98": "2026-04-20 08:38:22"
      }
    },
    {
      "id": "93000010",
      "lat": 48.914,
      "lon": 2.441,
      "cp": "93000",
      "ville": "BOBIGNY",
      "prix": {
        "Gazole": 0.00209,
        "E10": 0.00199,
        "SP98": 0.00199
      },
      "maj_gouv": {
        "Gazole": "2026-05-02 00:01:00",
        "E10": "2026-05-02 00:01:00",
        "SP98": "2026-05-02 00:01:00"
      }
    },
    {
      "id": "93250009",
      "lat": 48.885,
      "lon": 2.505,
      "cp": "93250",
      "ville": "VILLEMOMBLE",
      "prix": {
        "Gazole": 0.0023090000000000003,
        "E85": 0.001149,
        "GPLc": 0.001199,
        "E10": 0.002139,
        "SP98": 0.0023090000000000003
      },
      "maj_gouv": {
        "Gazole": "2026-05-01 22:10:03",
        "E85": "2026-05-01 22:10:03",
        "GPLc": "2026-05-01 22:10:02",
        "E10": "2026-05-01 22:10:03",
        "SP98": "2026-05-01 22:10:02"
      }
    },
    {
      "id": "93300010",
      "lat": 48.912,
      "lon": 2.38,
      "cp": "93300",
      "ville": "Aubervilliers",
      "prix": {
        "Gazole": 0.002299,
        "E10": 0.002129,
        "SP98": 0.0023290000000000003
      },
      "maj_gouv": {
        "Gazole": "2026-05-01 11:47:19",
        "E10": "2026-05-01 11:47:19",
        "SP98": "2026-05-01 11:47:19"
      }
    },
    {
      "id": "93330005",
      "lat": 48.85427,
      "lon": 2.52019,
      "cp": "93330",
      "ville": "Neuilly-sur-Marne",
      "prix": {
        "Gazole": 0.00209,
        "E85": 0.000909,
        "E10": 0.00199
      },
      "maj_gouv": {
        "Gazole": "2026-05-02 00:01:00",
        "E85": "2026-05-02 00:01:00",
        "E10": "2026-05-02 00:01:00"
      }
    },
    {
      "id": "93330004",
      "lat": 48.865836168664,
      "lon": 2.56269534165,
      "cp": "93330",
      "ville": "Neuilly-sur-Marne",
      "prix": {
        "Gazole": 0.002197,
        "SP95": 0.0020870000000000003,
        "E10": 0.002025,
        "SP98": 0.002169
      },
      "maj_gouv": {
        "Gazole": "2026-04-30 08:11:23",
        "SP95": "2026-04-30 08:11:24",
        "E10": "2026-04-30 08:11:24",
        "SP98": "2026-04-30 08:11:24"
      }
    },
    {
      "id": "93420007",
      "lat": 48.953965389285,
      "lon": 2.533686306402,
      "cp": "93420",
      "ville": "VILLEPINTE",
      "prix": {
        "Gazole": 0.00209,
        "GPLc": 0.0010689999999999999,
        "E10": 0.00199,
        "SP98": 0.00199
      },
      "maj_gouv": {
        "Gazole": "2026-05-02 00:01:00",
        "GPLc": "2026-05-02 00:01:00",
        "E10": "2026-05-02 00:01:00",
        "SP98": "2026-05-02 00:01:00"
      }
    },
    {
      "id": "93700004",
      "lat": 48.91625,
      "lon": 2.44355,
      "cp": "93700",
      "ville": "DRANCY",
      "prix": {
        "Gazole": 0.00209,
        "E85": 0.000909
      },
      "maj_gouv": {
        "Gazole": "2026-05-02 00:01:00",
        "E85": "2026-05-02 00:01:00"
      }
    },
    {
      "id": "93300009",
      "lat": 48.909,
      "lon": 2.386,
      "cp": "93300",
      "ville": "AUBERVILLIERS",
      "prix": {
        "Gazole": 0.00209,
        "E85": 0.0009040000000000001,
        "E10": 0.00199,
        "SP98": 0.00199
      },
      "maj_gouv": {
        "Gazole": "2026-05-02 00:01:00",
        "E85": "2026-05-02 00:01:00",
        "E10": "2026-05-02 00:01:00",
        "SP98": "2026-05-02 00:01:00"
      }
    },
    {
      "id": "93100017",
      "lat": 48.863,
      "lon": 2.464,
      "cp": "93100",
      "ville": "MONTREUIL",
      "prix": {
        "Gazole": 0.0022389999999999997,
        "E10": 0.002069,
        "SP98": 0.002219
      },
      "maj_gouv": {
        "Gazole": "2026-05-01 11:27:42",
        "E10": "2026-05-01 11:27:42",
        "SP98": "2026-05-01 11:27:42"
      }
    },
    {
      "id": "93240007",
      "lat": 48.9487499536,
      "lon": 2.3798807028,
      "cp": "93240",
      "ville": "STAINS",
      "prix": {
        "Gazole": 0.00209,
        "E10": 0.00199,
        "SP98": 0.00199
      },
      "maj_gouv": {
        "Gazole": "2026-05-02 00:01:00",
        "E10": "2026-05-02 00:01:00",
        "SP98": "2026-05-02 00:01:00"
      }
    },
    {
      "id": "93270001",
      "lat": 48.951,
      "lon": 2.528,
      "cp": "93270",
      "ville": "Sevran",
      "prix": {
        "Gazole": 0.002218,
        "SP95": 0.002069,
        "E10": 0.002045,
        "SP98": 0.002065
      },
      "maj_gouv": {
        "Gazole": "2026-05-01 22:52:00",
        "SP95": "2026-05-01 22:52:00",
        "E10": "2026-05-01 22:52:00",
        "SP98": "2026-05-01 22:52:00"
      }
    },
    {
      "id": "93300008",
      "lat": 48.91,
      "lon": 2.38,
      "cp": "93300",
      "ville": "AUBERVILLIERS",
      "prix": {
        "Gazole": 0.002222,
        "SP95": 0.002109,
        "E10": 0.0020499999999999997,
        "SP98": 0.0022010000000000003
      },
      "maj_gouv": {
        "Gazole": "2026-04-30 10:48:36",
        "SP95": "2026-04-30 10:48:36",
        "E10": "2026-04-30 10:48:36",
        "SP98": "2026-04-30 10:48:36"
      }
    },
    {
      "id": "93700003",
      "lat": 48.918,
      "lon": 2.418,
      "cp": "93700",
      "ville": "DRANCY",
      "prix": {
        "Gazole": 0.002254,
        "SP95": 0.002145,
        "E85": 0.000909,
        "GPLc": 0.000999,
        "E10": 0.002085,
        "SP98": 0.0022400000000000002
      },
      "maj_gouv": {
        "Gazole": "2026-05-01 22:52:00",
        "SP95": "2026-05-01 22:52:00",
        "E85": "2026-05-01 22:52:00",
        "GPLc": "2026-04-24 22:42:00",
        "E10": "2026-05-01 22:52:00",
        "SP98": "2026-05-01 22:52:00"
      }
    },
    {
      "id": "93190002",
      "lat": 48.9055105953,
      "lon": 2.52200168155,
      "cp": "93190",
      "ville": "LIVRY-GARGAN",
      "prix": {
        "Gazole": 0.0022389999999999997,
        "SP95": 0.002089,
        "E10": 0.002039
      },
      "maj_gouv": {
        "Gazole": "2026-04-29 09:22:29",
        "SP95": "2026-04-10 11:56:18",
        "E10": "2026-04-09 13:54:38"
      }
    },
    {
      "id": "93130009",
      "lat": 48.888,
      "lon": 2.455,
      "cp": "93130",
      "ville": "Noisy-le-Sec",
      "prix": {
        "Gazole": 0.00209,
        "E10": 0.00199,
        "SP98": 0.00199
      },
      "maj_gouv": {
        "Gazole": "2026-05-02 00:01:00",
        "E10": "2026-05-02 00:01:00",
        "SP98": "2026-05-02 00:01:00"
      }
    },
    {
      "id": "93150011",
      "lat": 48.940912442423006,
      "lon": 2.4458337339048,
      "cp": "93150",
      "ville": "Le Blanc-Mesnil",
      "prix": {
        "Gazole": 0.002229,
        "SP95": 0.002077,
        "E10": 0.002028,
        "SP98": 0.002088
      },
      "maj_gouv": {
        "Gazole": "2026-04-29 09:51:10",
        "SP95": "2026-04-29 09:51:10",
        "E10": "2026-04-29 09:51:10",
        "SP98": "2026-04-29 09:51:10"
      }
    },
    {
      "id": "93420001",
      "lat": 48.955,
      "lon": 2.537,
      "cp": "93420",
      "ville": "VILLEPINTE",
      "prix": {
        "Gazole": 0.00219,
        "E85": 0.000879,
        "E10": 0.0019890000000000003,
        "SP98": 0.0020459999999999996
      },
      "maj_gouv": {
        "Gazole": "2026-04-28 09:20:00",
        "E85": "2026-04-28 09:20:00",
        "E10": "2026-04-28 09:20:00",
        "SP98": "2026-04-28 09:20:00"
      }
    },
    {
      "id": "93600006",
      "lat": 48.93022,
      "lon": 2.51132,
      "cp": "93600",
      "ville": "AULNAY-SOUS-BOIS",
      "prix": {
        "Gazole": 0.002199,
        "E85": 0.0008179999999999999,
        "E10": 0.001999,
        "SP98": 0.002099
      },
      "maj_gouv": {
        "Gazole": "2026-04-25 13:30:00",
        "E85": "2026-04-16 12:26:01",
        "E10": "2026-04-14 09:30:40",
        "SP98": "2026-04-14 09:30:40"
      }
    },
    {
      "id": "93190001",
      "lat": 48.929,
      "lon": 2.555,
      "cp": "93190",
      "ville": "LIVRY-GARGAN",
      "prix": {
        "Gazole": 0.002157,
        "SP95": 0.001939,
        "E85": 0.0008179999999999999,
        "GPLc": 0.0010689999999999999,
        "E10": 0.0019890000000000003,
        "SP98": 0.002108
      },
      "maj_gouv": {
        "Gazole": "2026-04-30 12:38:19",
        "SP95": "2026-04-27 11:38:45",
        "E85": "2026-04-30 12:38:19",
        "GPLc": "2026-04-30 12:38:19",
        "E10": "2026-04-30 12:38:19",
        "SP98": "2026-04-30 12:38:19"
      }
    },
    {
      "id": "93190007",
      "lat": 48.928,
      "lon": 2.549,
      "cp": "93190",
      "ville": "Livry-Gargan",
      "prix": {
        "Gazole": 0.002169,
        "E85": 0.0008179999999999999,
        "E10": 0.0019890000000000003,
        "SP98": 0.002089
      },
      "maj_gouv": {
        "Gazole": "2026-04-23 11:29:52",
        "E85": "2026-04-16 06:00:00",
        "E10": "2026-04-23 11:29:52",
        "SP98": "2026-04-27 16:22:21"
      }
    },
    {
      "id": "93160009",
      "lat": 48.829,
      "lon": 2.569,
      "cp": "93160",
      "ville": "Noisy-le-Grand",
      "prix": {
        "Gazole": 0.00209,
        "E85": 0.000884,
        "E10": 0.00199
      },
      "maj_gouv": {
        "Gazole": "2026-05-02 00:01:00",
        "E85": "2026-05-02 00:01:00",
        "E10": "2026-05-02 00:01:00"
      }
    },
    {
      "id": "93606001",
      "lat": 48.955,
      "lon": 2.476,
      "cp": "93600",
      "ville": "AULNAY-SOUS-BOIS",
      "prix": {
        "Gazole": 0.002225,
        "SP95": 0.002092,
        "E85": 0.000858,
        "GPLc": 0.001032,
        "E10": 0.002042,
        "SP98": 0.002177
      },
      "maj_gouv": {
        "Gazole": "2026-04-30 14:41:20",
        "SP95": "2026-04-30 14:41:20",
        "E85": "2026-04-30 14:41:20",
        "GPLc": "2026-04-25 15:42:30",
        "E10": "2026-04-30 14:41:20",
        "SP98": "2026-04-30 14:41:20"
      }
    },
    {
      "id": "93150008",
      "lat": 48.948,
      "lon": 2.467,
      "cp": "93150",
      "ville": "LE BLANC-MESNIL",
      "prix": {
        "Gazole": 0.002229,
        "SP95": 0.002077,
        "E10": 0.002028,
        "SP98": 0.002088
      },
      "maj_gouv": {
        "Gazole": "2026-04-29 09:53:25",
        "SP95": "2026-04-29 09:53:25",
        "E10": "2026-04-29 09:53:26",
        "SP98": "2026-04-29 09:53:26"
      }
    },
    {
      "id": "93240001",
      "lat": 48.949,
      "lon": 2.385,
      "cp": "93240",
      "ville": "STAINS",
      "prix": {
        "Gazole": 0.00225,
        "SP95": 0.002043,
        "E85": 0.000839,
        "E10": 0.00199,
        "SP98": 0.002113
      },
      "maj_gouv": {
        "Gazole": "2026-04-30 08:16:37",
        "SP95": "2026-04-30 08:16:37",
        "E85": "2026-04-30 08:16:37",
        "E10": "2026-04-30 08:16:37",
        "SP98": "2026-04-30 08:16:37"
      }
    },
    {
      "id": "93150007",
      "lat": 48.948,
      "lon": 2.438,
      "cp": "93150",
      "ville": "Le Blanc-Mesnil",
      "prix": {
        "Gazole": 0.002205,
        "E85": 0.000948,
        "E10": 0.00199,
        "SP98": 0.002077
      },
      "maj_gouv": {
        "Gazole": "2026-05-01 07:46:00",
        "E85": "2026-05-01 07:46:00",
        "E10": "2026-05-01 07:46:00",
        "SP98": "2026-05-01 07:46:00"
      }
    },
    {
      "id": "93100011",
      "lat": 48.869,
      "lon": 2.448,
      "cp": "93100",
      "ville": "Montreuil",
      "prix": {
        "Gazole": 0.0022389999999999997,
        "E10": 0.002069,
        "SP98": 0.002219
      },
      "maj_gouv": {
        "Gazole": "2026-05-01 11:26:06",
        "E10": "2026-05-01 11:26:06",
        "SP98": "2026-05-01 11:26:06"
      }
    },
    {
      "id": "93240009",
      "lat": 48.959,
      "lon": 2.398,
      "cp": "93240",
      "ville": "Stains",
      "prix": {
        "Gazole": 0.0022589999999999997,
        "E10": 0.002089,
        "SP98": 0.002219
      },
      "maj_gouv": {
        "Gazole": "2026-04-30 13:56:47",
        "E10": "2026-04-30 13:56:47",
        "SP98": "2026-04-30 13:56:47"
      }
    },
    {
      "id": "93120005",
      "lat": 48.935,
      "lon": 2.394,
      "cp": "93120",
      "ville": "LA COURNEUVE",
      "prix": {
        "Gazole": 0.00209,
        "E85": 0.000959,
        "E10": 0.00199,
        "SP98": 0.00199
      },
      "maj_gouv": {
        "Gazole": "2026-05-02 00:01:00",
        "E85": "2026-05-02 00:01:00",
        "E10": "2026-05-02 00:01:00",
        "SP98": "2026-05-02 00:01:00"
      }
    },
    {
      "id": "93330006",
      "lat": 48.855,
      "lon": 2.525,
      "cp": "93330",
      "ville": "Neuilly-sur-Marne",
      "prix": {
        "Gazole": 0.00209,
        "E10": 0.00199
      },
      "maj_gouv": {
        "Gazole": "2026-05-02 00:01:00",
        "E10": "2026-05-02 00:01:00"
      }
    },
    {
      "id": "93600019",
      "lat": 48.94482,
      "lon": 2.49526,
      "cp": "93600",
      "ville": "Aulnay-sous-Bois",
      "prix": {
        "Gazole": 0.002299,
        "E10": 0.002139,
        "SP98": 0.002229
      },
      "maj_gouv": {
        "Gazole": "2026-05-01 22:08:04",
        "E10": "2026-05-01 22:08:04",
        "SP98": "2026-05-01 22:08:04"
      }
    },
    {
      "id": "93240008",
      "lat": 48.95763,
      "lon": 2.38253,
      "cp": "93240",
      "ville": "STAINS",
      "prix": {},
      "maj_gouv": {}
    },
    {
      "id": "93230005",
      "lat": 48.884,
      "lon": 2.43,
      "cp": "93230",
      "ville": "ROMAINVILLE",
      "prix": {
        "Gazole": 0.00209
      },
      "maj_gouv": {
        "Gazole": "2026-05-02 00:01:00"
      }
    },
    {
      "id": "93130006",
      "lat": 48.902,
      "lon": 2.462,
      "cp": "93130",
      "ville": "NOISY-LE-SEC",
      "prix": {},
      "maj_gouv": {}
    },
    {
      "id": "93600020",
      "lat": 48.924,
      "lon": 2.486,
      "cp": "93600",
      "ville": "Aulnay-sous-Bois",
      "prix": {
        "Gazole": 0.00259,
        "E10": 0.00215,
        "SP98": 0.00219
      },
      "maj_gouv": {
        "Gazole": "2026-04-08 10:19:19",
        "E10": "2026-04-08 10:19:19",
        "SP98": "2026-04-08 10:19:19"
      }
    },
    {
      "id": "93370001",
      "lat": 48.899,
      "lon": 2.549,
      "cp": "93370",
      "ville": "MONTFERMEIL",
      "prix": {
        "Gazole": 0.002159,
        "SP95": 0.002049,
        "E10": 0.0019890000000000003,
        "SP98": 0.002078
      },
      "maj_gouv": {
        "Gazole": "2026-04-30 14:54:03",
        "SP95": "2026-04-30 14:54:03",
        "E10": "2026-04-27 14:31:02",
        "SP98": "2026-04-30 09:10:27"
      }
    },
    {
      "id": "93100014",
      "lat": 48.86885,
      "lon": 2.47055,
      "cp": "93100",
      "ville": "MONTREUIL",
      "prix": {
        "Gazole": 0.00209,
        "E85": 0.0009040000000000001,
        "E10": 0.00199
      },
      "maj_gouv": {
        "Gazole": "2026-05-02 00:01:00",
        "E85": "2026-05-02 00:01:00",
        "E10": "2026-05-02 00:01:00"
      }
    },
    {
      "id": "93470002",
      "lat": 48.915,
      "lon": 2.589,
      "cp": "93470",
      "ville": "COUBRON",
      "prix": {
        "Gazole": 0.00218,
        "E85": 0.0008179999999999999,
        "E10": 0.001999,
        "SP98": 0.0020819999999999996
      },
      "maj_gouv": {
        "Gazole": "2026-04-29 10:58:11",
        "E85": "2026-04-17 13:07:18",
        "E10": "2026-04-30 11:24:30",
        "SP98": "2026-04-27 07:33:22"
      }
    }
  ]
}