{
  "departement": "21",
  "date": "2026-05-02",
  "stations": [
    {
      "id": "21400005",
      "lat": 47.867,
      "lon": 4.572,
      "cp": "21400",
      "ville": "CHâTILLON-SUR-SEINE",
      "prix": {
        "Gazole": 0.002199,
        "E85": 0.000819,
        "E10": 0.00199,
        "SP98": 0.002109
      },
      "maj_gouv": {
        "Gazole": "2026-04-21 13:43:13",
        "E85": "2026-04-21 13:43:13",
        "E10": "2026-04-17 09:01:25",
        "SP98": "2026-04-15 10:03:28"
      }
    },
    {
      "id": "21510001",
      "lat": 47.6639753145,
      "lon": 4.7299228648,
      "cp": "21510",
      "ville": "AIGNAY-LE-DUC",
      "prix": {
        "Gazole": 0.0022890000000000002,
        "SP95": 0.002169
      },
      "maj_gouv": {
        "Gazole": "2026-04-23 07:50:29",
        "SP95": "2026-04-23 07:50:30"
      }
    },
    {
      "id": "21240003",
      "lat": 47.341,
      "lon": 4.997,
      "cp": "21240",
      "ville": "Talant",
      "prix": {
        "Gazole": 0.002169,
        "SP95": 0.002069,
        "E10": 0.002049,
        "SP98": 0.0021190000000000002
      },
      "maj_gouv": {
        "Gazole": "2026-04-30 10:26:51",
        "SP95": "2026-04-30 10:26:51",
        "E10": "2026-04-30 10:26:51",
        "SP98": "2026-04-30 10:26:51"
      }
    },
    {
      "id": "21500002",
      "lat": 47.62499,
      "lon": 4.3466,
      "cp": "21500",
      "ville": "MONTBARD",
      "prix": {
        "Gazole": 0.00225,
        "E10": 0.00199,
        "SP98": 0.00199
      },
      "maj_gouv": {
        "Gazole": "2026-04-27 08:34:58",
        "E10": "2026-04-27 08:34:58",
        "SP98": "2026-04-27 08:34:58"
      }
    },
    {
      "id": "21150002",
      "lat": 47.54,
      "lon": 4.461,
      "cp": "21150",
      "ville": "VENAREY-LES-LAUMES",
      "prix": {
        "Gazole": 0.0022890000000000002,
        "SP95": 0.002129,
        "SP98": 0.002189
      },
      "maj_gouv": {
        "Gazole": "2026-04-29 08:21:34",
        "SP95": "2026-04-29 08:21:34",
        "SP98": "2026-04-29 08:21:35"
      }
    },
    {
      "id": "21320007",
      "lat": 47.309,
      "lon": 4.501,
      "cp": "21320",
      "ville": "EGUILLY",
      "prix": {
        "Gazole": 0.002549,
        "GPLc": 0.001149,
        "E10": 0.002299,
        "SP98": 0.002399
      },
      "maj_gouv": {
        "Gazole": "2026-05-01 07:00:00",
        "GPLc": "2026-05-01 07:00:00",
        "E10": "2026-05-01 07:00:00",
        "SP98": "2026-05-01 07:00:00"
      }
    },
    {
      "id": "21300004",
      "lat": 47.29307,
      "lon": 5.01616,
      "cp": "21300",
      "ville": "CHENôVE",
      "prix": {
        "Gazole": 0.002229,
        "SP95": 0.002049,
        "GPLc": 0.0009459999999999999,
        "SP98": 0.002099
      },
      "maj_gouv": {
        "Gazole": "2026-04-18 09:51:51",
        "SP95": "2026-04-16 07:03:33",
        "GPLc": "2026-04-10 09:24:12",
        "SP98": "2026-04-28 15:05:41"
      }
    },
    {
      "id": "21140001",
      "lat": 47.481870025829004,
      "lon": 4.3511363092324,
      "cp": "21140",
      "ville": "Semur-en-Auxois",
      "prix": {
        "Gazole": 0.0022890000000000002,
        "SP95": 0.002099,
        "SP98": 0.002199
      },
      "maj_gouv": {
        "Gazole": "2026-04-23 00:00:00",
        "SP95": "2026-04-15 00:00:00",
        "SP98": "2026-04-15 00:00:00"
      }
    },
    {
      "id": "21350001",
      "lat": 47.396,
      "lon": 4.549,
      "cp": "21350",
      "ville": "Vitteaux",
      "prix": {
        "Gazole": 0.0022890000000000002,
        "SP95": 0.002099,
        "SP98": 0.002199
      },
      "maj_gouv": {
        "Gazole": "2026-04-23 00:00:00",
        "SP95": "2026-04-15 00:00:00",
        "SP98": "2026-04-15 00:00:00"
      }
    },
    {
      "id": "21400010",
      "lat": 47.863399900000005,
      "lon": 4.5716637,
      "cp": "21400",
      "ville": "Châtillon sur seine",
      "prix": {
        "Gazole": 0.00239,
        "E10": 0.00214,
        "SP98": 0.00218
      },
      "maj_gouv": {
        "Gazole": "2026-04-24 16:10:57",
        "E10": "2026-04-24 16:10:57",
        "SP98": "2026-04-24 16:10:57"
      }
    },
    {
      "id": "21000024",
      "lat": 47.31812,
      "lon": 5.00275,
      "cp": "21000",
      "ville": "Dijon",
      "prix": {
        "Gazole": 0.002209,
        "SP95": 0.002108,
        "E10": 0.0020499999999999997
      },
      "maj_gouv": {
        "Gazole": "2026-04-30 08:27:31",
        "SP95": "2026-04-30 08:27:31",
        "E10": "2026-04-30 08:27:31"
      }
    },
    {
      "id": "21200001",
      "lat": 47.0157039279,
      "lon": 4.83890960888,
      "cp": "21200",
      "ville": "BEAUNE",
      "prix": {
        "Gazole": 0.002154,
        "E10": 0.001977,
        "SP98": 0.002165
      },
      "maj_gouv": {
        "Gazole": "2026-04-30 00:40:00",
        "E10": "2026-04-30 00:40:00",
        "SP98": "2026-04-30 00:40:00"
      }
    },
    {
      "id": "21910001",
      "lat": 47.195,
      "lon": 5.083,
      "cp": "21910",
      "ville": "NOIRON-SOUS-GEVREY",
      "prix": {
        "Gazole": 0.0022890000000000002,
        "SP95": 0.002099,
        "E85": 0.0008489999999999999,
        "SP98": 0.002199
      },
      "maj_gouv": {
        "Gazole": "2026-04-23 00:00:00",
        "SP95": "2026-04-15 00:00:00",
        "E85": "2026-04-15 00:00:00",
        "SP98": "2026-04-15 00:00:00"
      }
    },
    {
      "id": "21540002",
      "lat": 47.317,
      "lon": 4.708,
      "cp": "21540",
      "ville": "Sombernon",
      "prix": {
        "Gazole": 0.002209,
        "SP95": 0.002068,
        "E10": 0.002029
      },
      "maj_gouv": {
        "Gazole": "2026-04-30 06:15:44",
        "SP95": "2026-04-30 06:15:44",
        "E10": "2026-04-30 06:15:44"
      }
    },
    {
      "id": "21440001",
      "lat": 47.434212251702,
      "lon": 4.8087298222509,
      "cp": "21440",
      "ville": "Saint-Martin-du-Mont",
      "prix": {
        "Gazole": 0.0022589999999999997,
        "E10": 0.002039,
        "SP98": 0.0021190000000000002
      },
      "maj_gouv": {
        "Gazole": "2026-04-30 09:03:54",
        "E10": "2026-04-30 09:03:55",
        "SP98": "2026-04-30 09:03:55"
      }
    },
    {
      "id": "21120004",
      "lat": 47.52,
      "lon": 5.179,
      "cp": "21120",
      "ville": "Til-Châtel",
      "prix": {
        "Gazole": 0.0022890000000000002,
        "SP95": 0.002099,
        "SP98": 0.002199
      },
      "maj_gouv": {
        "Gazole": "2026-04-23 00:00:00",
        "SP95": "2026-04-15 00:00:00",
        "SP98": "2026-04-15 00:00:00"
      }
    },
    {
      "id": "21110005",
      "lat": 47.245,
      "lon": 5.22,
      "cp": "21110",
      "ville": "GENLIS",
      "prix": {
        "Gazole": 0.002139,
        "E10": 0.0019890000000000003,
        "SP98": 0.0021190000000000002
      },
      "maj_gouv": {
        "Gazole": "2026-04-22 12:23:33",
        "E10": "2026-04-22 12:23:33",
        "SP98": "2026-04-22 12:23:34"
      }
    },
    {
      "id": "21220003",
      "lat": 47.233,
      "lon": 4.983,
      "cp": "21220",
      "ville": "Brochon",
      "prix": {
        "Gazole": 0.002199,
        "E10": 0.002025,
        "SP98": 0.002109
      },
      "maj_gouv": {
        "Gazole": "2026-04-29 15:52:48",
        "E10": "2026-04-29 15:52:48",
        "SP98": "2026-04-29 15:52:48"
      }
    },
    {
      "id": "21200005",
      "lat": 47.042,
      "lon": 4.844,
      "cp": "21200",
      "ville": "BEAUNE",
      "prix": {
        "Gazole": 0.002216,
        "E10": 0.002023,
        "SP98": 0.002096
      },
      "maj_gouv": {
        "Gazole": "2026-05-02 01:16:00",
        "E10": "2026-05-02 01:16:00",
        "SP98": "2026-05-02 01:16:00"
      }
    },
    {
      "id": "21230007",
      "lat": 47.129058,
      "lon": 4.4888509999999995,
      "cp": "21230",
      "ville": "Arnay-le-Duc",
      "prix": {
        "Gazole": 0.002299,
        "E10": 0.002099,
        "SP98": 0.002199
      },
      "maj_gouv": {
        "Gazole": "2026-05-01 07:00:00",
        "E10": "2026-05-01 07:00:00",
        "SP98": "2026-05-01 07:00:00"
      }
    },
    {
      "id": "21260001",
      "lat": 47.580279687958,
      "lon": 5.1683627924321,
      "cp": "21260",
      "ville": "SELONGEY",
      "prix": {
        "Gazole": 0.0022890000000000002,
        "SP95": 0.002199,
        "E10": 0.002099
      },
      "maj_gouv": {
        "Gazole": "2026-04-23 00:00:00",
        "SP95": "2026-04-15 00:00:00",
        "E10": "2026-04-15 00:00:00"
      }
    },
    {
      "id": "21360001",
      "lat": 47.107,
      "lon": 4.655,
      "cp": "21360",
      "ville": "BLIGNY-SUR-OUCHE",
      "prix": {
        "Gazole": 0.0022890000000000002,
        "SP95": 0.002099,
        "SP98": 0.002199
      },
      "maj_gouv": {
        "Gazole": "2026-04-23 00:00:00",
        "SP95": "2026-04-15 00:00:00",
        "SP98": "2026-04-15 00:00:00"
      }
    },
    {
      "id": "21120002",
      "lat": 47.512516084915994,
      "lon": 5.172546,
      "cp": "21120",
      "ville": "Til-Châtel",
      "prix": {
        "Gazole": 0.00229,
        "E85": 0.0008900000000000001,
        "E10": 0.00204,
        "SP98": 0.00212
      },
      "maj_gouv": {
        "Gazole": "2026-04-20 09:18:25",
        "E85": "2026-04-20 09:18:25",
        "E10": "2026-04-20 09:18:25",
        "SP98": "2026-04-20 09:18:25"
      }
    },
    {
      "id": "21130004",
      "lat": 47.18981,
      "lon": 5.38718,
      "cp": "21130",
      "ville": "Auxonne",
      "prix": {
        "Gazole": 0.002181,
        "E85": 0.000819,
        "E10": 0.002,
        "SP98": 0.0021190000000000002
      },
      "maj_gouv": {
        "Gazole": "2026-04-30 16:10:10",
        "E85": "2026-04-23 09:39:15",
        "E10": "2026-04-28 13:50:08",
        "SP98": "2026-04-28 13:50:08"
      }
    },
    {
      "id": "21250001",
      "lat": 47.004,
      "lon": 5.15,
      "cp": "21250",
      "ville": "Seurre",
      "prix": {
        "Gazole": 0.0022890000000000002,
        "SP95": 0.002099,
        "SP98": 0.002199
      },
      "maj_gouv": {
        "Gazole": "2026-04-23 00:00:00",
        "SP95": "2026-04-15 00:00:00",
        "SP98": "2026-04-15 00:00:00"
      }
    },
    {
      "id": "21121003",
      "lat": 47.337,
      "lon": 5.033,
      "cp": "21121",
      "ville": "FONTAINE-LèS-DIJON",
      "prix": {
        "Gazole": 0.002159,
        "SP95": 0.002069,
        "E10": 0.0019790000000000003,
        "SP98": 0.002079
      },
      "maj_gouv": {
        "Gazole": "2026-04-29 10:38:29",
        "SP95": "2026-04-27 12:54:22",
        "E10": "2026-04-30 16:58:30",
        "SP98": "2026-04-27 12:54:22"
      }
    },
    {
      "id": "21540001",
      "lat": 47.312,
      "lon": 4.71,
      "cp": "21540",
      "ville": "SOMBERNON",
      "prix": {
        "Gazole": 0.0022789999999999998,
        "E10": 0.002069,
        "SP98": 0.0022789999999999998
      },
      "maj_gouv": {
        "Gazole": "2026-04-28 07:51:17",
        "E10": "2026-04-28 07:51:17",
        "SP98": "2026-04-28 07:51:18"
      }
    },
    {
      "id": "21190007",
      "lat": 46.95888,
      "lon": 4.83532,
      "cp": "21190",
      "ville": "MERCEUIL",
      "prix": {
        "Gazole": 0.00209,
        "E85": 0.000992,
        "GPLc": 0.001139,
        "E10": 0.00199,
        "SP98": 0.00199
      },
      "maj_gouv": {
        "Gazole": "2026-05-01 10:00:00",
        "E85": "2026-05-01 10:00:00",
        "GPLc": "2026-05-01 10:00:00",
        "E10": "2026-05-01 10:00:00",
        "SP98": "2026-05-01 10:00:00"
      }
    },
    {
      "id": "21390001",
      "lat": 47.388,
      "lon": 4.309,
      "cp": "21390",
      "ville": "PRéCY-SOUS-THIL",
      "prix": {
        "Gazole": 0.0022890000000000002,
        "SP95": 0.002099
      },
      "maj_gouv": {
        "Gazole": "2026-04-23 00:00:00",
        "SP95": "2026-04-15 00:00:00"
      }
    },
    {
      "id": "21210001",
      "lat": 47.282,
      "lon": 4.237,
      "cp": "21210",
      "ville": "SAULIEU",
      "prix": {
        "Gazole": 0.0022890000000000002,
        "SP95": 0.002099,
        "E10": 0.002079,
        "SP98": 0.002199
      },
      "maj_gouv": {
        "Gazole": "2026-04-23 00:00:00",
        "SP95": "2026-04-15 00:00:00",
        "E10": "2026-04-15 00:00:00",
        "SP98": "2026-04-15 00:00:00"
      }
    },
    {
      "id": "21700004",
      "lat": 47.143,
      "lon": 4.944,
      "cp": "21700",
      "ville": "Nuits-Saint-Georges",
      "prix": {
        "Gazole": 0.0022,
        "E85": 0.0008179999999999999,
        "E10": 0.0020169999999999997,
        "SP98": 0.0021219999999999998
      },
      "maj_gouv": {
        "Gazole": "2026-04-28 12:43:53",
        "E85": "2026-04-24 15:10:21",
        "E10": "2026-04-28 12:43:53",
        "SP98": "2026-04-24 15:10:21"
      }
    },
    {
      "id": "21310004",
      "lat": 47.393,
      "lon": 5.309,
      "cp": "21310",
      "ville": "Mirebeau-sur-Bèze",
      "prix": {
        "Gazole": 0.002189,
        "E10": 0.002019,
        "SP98": 0.0021190000000000002
      },
      "maj_gouv": {
        "Gazole": "2026-04-28 06:07:12",
        "E10": "2026-04-28 06:07:13",
        "SP98": "2026-04-28 06:07:13"
      }
    },
    {
      "id": "21220006",
      "lat": 47.217965761992,
      "lon": 5.0027249351628,
      "cp": "21220",
      "ville": "Gevrey-Chambertin",
      "prix": {
        "Gazole": 0.002163,
        "E10": 0.0021309999999999996,
        "SP98": 0.0021520000000000003
      },
      "maj_gouv": {
        "Gazole": "2026-04-23 15:27:13",
        "E10": "2026-04-24 11:23:40",
        "SP98": "2026-04-23 15:27:14"
      }
    },
    {
      "id": "21500005",
      "lat": 47.622214531559,
      "lon": 4.3547334343017,
      "cp": "21500",
      "ville": "Montbard",
      "prix": {
        "Gazole": 0.002199,
        "SP95": 0.002049,
        "E10": 0.001999
      },
      "maj_gouv": {
        "Gazole": "2026-04-23 11:12:34",
        "SP95": "2026-04-20 12:33:39",
        "E10": "2026-04-10 09:21:30"
      }
    },
    {
      "id": "21640001",
      "lat": 47.179,
      "lon": 4.966,
      "cp": "21640",
      "ville": "Gilly-lès-Cîteaux",
      "prix": {
        "Gazole": 0.0022890000000000002,
        "SP95": 0.002169,
        "E85": 0.000949
      },
      "maj_gouv": {
        "Gazole": "2026-04-22 23:59:00",
        "SP95": "2026-04-14 16:37:44",
        "E85": "2026-04-14 16:37:44"
      }
    },
    {
      "id": "21360003",
      "lat": 47.105,
      "lon": 4.713,
      "cp": "21360",
      "ville": "BLIGNY-SUR-OUCHE",
      "prix": {
        "Gazole": 0.002249,
        "GPLc": 0.001139,
        "E10": 0.00207,
        "SP98": 0.002145
      },
      "maj_gouv": {
        "Gazole": "2026-05-01 07:46:00",
        "GPLc": "2026-05-01 07:46:00",
        "E10": "2026-05-01 07:46:00",
        "SP98": "2026-05-01 07:46:00"
      }
    },
    {
      "id": "21200011",
      "lat": 47.02014690219401,
      "lon": 4.8414938015203,
      "cp": "21200",
      "ville": "BEAUNE",
      "prix": {
        "Gazole": 0.002149,
        "SP95": 0.001992,
        "SP98": 0.002115
      },
      "maj_gouv": {
        "Gazole": "2026-04-29 16:51:17",
        "SP95": "2026-04-29 16:51:18",
        "SP98": "2026-04-29 16:51:18"
      }
    },
    {
      "id": "21000017",
      "lat": 47.2985,
      "lon": 5.07871,
      "cp": "21000",
      "ville": "Dijon",
      "prix": {
        "Gazole": 0.0022890000000000002,
        "SP95": 0.002099,
        "E85": 0.0008489999999999999
      },
      "maj_gouv": {
        "Gazole": "2026-04-22 23:59:00",
        "SP95": "2026-04-14 23:59:00",
        "E85": "2026-04-14 23:59:00"
      }
    },
    {
      "id": "21250006",
      "lat": 46.991,
      "lon": 5.148,
      "cp": "21250",
      "ville": "SEURRE",
      "prix": {
        "Gazole": 0.002139,
        "E10": 0.0019790000000000003,
        "SP98": 0.002089
      },
      "maj_gouv": {
        "Gazole": "2026-04-30 07:50:45",
        "E10": "2026-04-27 11:40:22",
        "SP98": "2026-04-30 07:50:45"
      }
    },
    {
      "id": "21170001",
      "lat": 47.112,
      "lon": 5.256,
      "cp": "21170",
      "ville": "Saint-Usage",
      "prix": {
        "Gazole": 0.002179,
        "E10": 0.001999,
        "SP98": 0.002149
      },
      "maj_gouv": {
        "Gazole": "2026-04-30 12:00:48",
        "E10": "2026-04-30 12:00:49",
        "SP98": "2026-04-30 12:00:49"
      }
    },
    {
      "id": "21230005",
      "lat": 47.131,
      "lon": 4.49,
      "cp": "21230",
      "ville": "ARNAY-LE-DUC",
      "prix": {
        "Gazole": 0.002299,
        "SP95": 0.002059,
        "SP98": 0.002139
      },
      "maj_gouv": {
        "Gazole": "2026-04-29 08:18:16",
        "SP95": "2026-04-29 08:18:16",
        "SP98": "2026-04-29 08:18:16"
      }
    },
    {
      "id": "21400002",
      "lat": 47.853,
      "lon": 4.571,
      "cp": "21400",
      "ville": "Châtillon-sur-Seine",
      "prix": {
        "E10": 0.00199,
        "SP98": 0.00199
      },
      "maj_gouv": {
        "E10": "2026-04-20 15:07:32",
        "SP98": "2026-04-30 15:10:53"
      }
    },
    {
      "id": "21700001",
      "lat": 47.133,
      "lon": 4.967,
      "cp": "21700",
      "ville": "NUITS-SAINT-GEORGES",
      "prix": {
        "Gazole": 0.002229,
        "E10": 0.002129,
        "SP98": 0.002179
      },
      "maj_gouv": {
        "Gazole": "2026-04-27 12:51:15",
        "E10": "2026-04-27 12:51:15",
        "SP98": "2026-04-27 12:51:15"
      }
    },
    {
      "id": "21240004",
      "lat": 47.341,
      "lon": 5.005,
      "cp": "21240",
      "ville": "TALANT",
      "prix": {
        "Gazole": 0.00209,
        "E85": 0.000874,
        "GPLc": 0.000999,
        "E10": 0.00199,
        "SP98": 0.00199
      },
      "maj_gouv": {
        "Gazole": "2026-05-02 00:01:00",
        "E85": "2026-05-02 00:01:00",
        "GPLc": "2026-05-02 00:01:00",
        "E10": "2026-05-02 00:01:00",
        "SP98": "2026-05-02 00:01:00"
      }
    },
    {
      "id": "21250005",
      "lat": 47.032,
      "lon": 5.106,
      "cp": "21250",
      "ville": "GLANON",
      "prix": {
        "Gazole": 0.0022530000000000002,
        "GPLc": 0.00113,
        "E10": 0.002064,
        "SP98": 0.002139
      },
      "maj_gouv": {
        "Gazole": "2026-05-01 12:23:26",
        "GPLc": "2026-05-01 12:23:26",
        "E10": "2026-05-01 12:23:26",
        "SP98": "2026-05-01 12:23:26"
      }
    },
    {
      "id": "21121007",
      "lat": 47.336,
      "lon": 5.032,
      "cp": "21121",
      "ville": "Fontaine-lès-Dijon",
      "prix": {
        "Gazole": 0.00209,
        "E85": 0.000879
      },
      "maj_gouv": {
        "Gazole": "2026-05-02 00:01:00",
        "E85": "2026-05-02 00:01:00"
      }
    },
    {
      "id": "21320009",
      "lat": 47.247305,
      "lon": 4.565679,
      "cp": "21320",
      "ville": "CREANCEY",
      "prix": {
        "Gazole": 0.00229,
        "E10": 0.001999,
        "SP98": 0.0021190000000000002
      },
      "maj_gouv": {
        "Gazole": "2026-04-18 18:16:23",
        "E10": "2026-04-18 18:08:58",
        "SP98": "2026-04-18 18:08:58"
      }
    },
    {
      "id": "21000011",
      "lat": 47.311,
      "lon": 5.015,
      "cp": "21000",
      "ville": "Dijon",
      "prix": {
        "Gazole": 0.0022069999999999998,
        "E85": 0.000958,
        "E10": 0.001999,
        "SP98": 0.002079
      },
      "maj_gouv": {
        "Gazole": "2026-05-01 06:31:00",
        "E85": "2026-05-01 06:31:00",
        "E10": "2026-05-01 06:31:00",
        "SP98": "2026-05-01 06:31:00"
      }
    },
    {
      "id": "21000009",
      "lat": 47.342,
      "lon": 5.045,
      "cp": "21000",
      "ville": "Dijon",
      "prix": {
        "Gazole": 0.00233,
        "E10": 0.00199,
        "SP98": 0.00207
      },
      "maj_gouv": {
        "Gazole": "2026-05-01 06:31:00",
        "E10": "2026-05-01 06:31:00",
        "SP98": "2026-05-01 06:31:00"
      }
    },
    {
      "id": "21000010",
      "lat": 47.306,
      "lon": 5.051,
      "cp": "21000",
      "ville": "Dijon",
      "prix": {
        "Gazole": 0.002221,
        "E10": 0.002007,
        "SP98": 0.0020870000000000003
      },
      "maj_gouv": {
        "Gazole": "2026-05-01 06:31:00",
        "E10": "2026-05-01 06:31:00",
        "SP98": "2026-05-01 06:31:00"
      }
    },
    {
      "id": "21000025",
      "lat": 47.3626,
      "lon": 5.04681,
      "cp": "21000",
      "ville": "DIJON",
      "prix": {
        "Gazole": 0.00209,
        "E85": 0.000875,
        "GPLc": 0.001029,
        "E10": 0.00199,
        "SP98": 0.00199
      },
      "maj_gouv": {
        "Gazole": "2026-05-02 00:01:00",
        "E85": "2026-05-02 00:01:00",
        "GPLc": "2026-05-02 00:01:00",
        "E10": "2026-05-02 00:01:00",
        "SP98": "2026-05-02 00:01:00"
      }
    },
    {
      "id": "21200003",
      "lat": 47.018,
      "lon": 4.827,
      "cp": "21200",
      "ville": "Beaune",
      "prix": {
        "Gazole": 0.002225,
        "E85": 0.000934,
        "E10": 0.002032,
        "SP98": 0.002112
      },
      "maj_gouv": {
        "Gazole": "2026-05-01 00:30:00",
        "E85": "2026-05-01 00:30:00",
        "E10": "2026-05-01 00:30:00",
        "SP98": "2026-05-01 00:30:00"
      }
    },
    {
      "id": "21530002",
      "lat": 47.3927243,
      "lon": 4.1602317,
      "cp": "21530",
      "ville": "La Roche-en-Brenil",
      "prix": {
        "Gazole": 0.0022890000000000002,
        "SP95": 0.002209
      },
      "maj_gouv": {
        "Gazole": "2026-04-20 15:00:39",
        "SP95": "2026-04-24 13:53:16"
      }
    },
    {
      "id": "21320006",
      "lat": 47.248,
      "lon": 4.565,
      "cp": "21320",
      "ville": "POUILLY-EN-AUXOIS",
      "prix": {
        "Gazole": 0.0022890000000000002,
        "E10": 0.002099,
        "SP98": 0.002199
      },
      "maj_gouv": {
        "Gazole": "2026-04-23 00:00:00",
        "E10": "2026-04-15 00:00:00",
        "SP98": "2026-04-15 00:00:00"
      }
    },
    {
      "id": "21000013",
      "lat": 47.35059,
      "lon": 5.06258,
      "cp": "21000",
      "ville": "DIJON",
      "prix": {
        "Gazole": 0.00225
      },
      "maj_gouv": {
        "Gazole": "2026-04-29 09:52:58"
      }
    },
    {
      "id": "21000022",
      "lat": 47.335,
      "lon": 5.061,
      "cp": "21000",
      "ville": "Dijon",
      "prix": {
        "Gazole": 0.0022890000000000002,
        "E85": 0.0008489999999999999,
        "E10": 0.002099,
        "SP98": 0.002199
      },
      "maj_gouv": {
        "Gazole": "2026-04-23 00:00:00",
        "E85": "2026-04-08 00:00:00",
        "E10": "2026-04-15 00:00:00",
        "SP98": "2026-04-15 00:00:00"
      }
    },
    {
      "id": "21200006",
      "lat": 47.02,
      "lon": 4.856,
      "cp": "21200",
      "ville": "Beaune",
      "prix": {
        "Gazole": 0.002145,
        "E10": 0.0019890000000000003,
        "SP98": 0.0021160000000000003
      },
      "maj_gouv": {
        "Gazole": "2026-04-30 10:15:23",
        "E10": "2026-04-30 10:15:23",
        "SP98": "2026-04-27 11:02:17"
      }
    },
    {
      "id": "21120001",
      "lat": 47.52771,
      "lon": 5.11288,
      "cp": "21120",
      "ville": "IS-SUR-TILLE",
      "prix": {
        "Gazole": 0.002249,
        "E10": 0.002099,
        "SP98": 0.002199
      },
      "maj_gouv": {
        "Gazole": "2026-04-23 09:29:47",
        "E10": "2026-04-23 09:29:48",
        "SP98": "2026-04-23 09:29:48"
      }
    },
    {
      "id": "21500004",
      "lat": 47.607,
      "lon": 4.398,
      "cp": "21500",
      "ville": "Montbard",
      "prix": {
        "Gazole": 0.002199,
        "SP95": 0.002049,
        "E10": 0.001999,
        "SP98": 0.002149
      },
      "maj_gouv": {
        "Gazole": "2026-04-23 11:12:11",
        "SP95": "2026-04-20 12:33:12",
        "E10": "2026-04-10 09:22:11",
        "SP98": "2026-04-07 09:00:00"
      }
    },
    {
      "id": "21490003",
      "lat": 47.422140465593,
      "lon": 5.1703182291236995,
      "cp": "21490",
      "ville": "BROGNON",
      "prix": {
        "Gazole": 0.00209,
        "E85": 0.000972,
        "GPLc": 0.001129,
        "E10": 0.00199,
        "SP98": 0.00199
      },
      "maj_gouv": {
        "Gazole": "2026-05-01 10:00:00",
        "E85": "2026-05-01 10:00:00",
        "GPLc": "2026-05-01 10:00:00",
        "E10": "2026-05-01 10:00:00",
        "SP98": "2026-05-01 10:00:00"
      }
    },
    {
      "id": "21320001",
      "lat": 47.269,
      "lon": 4.54,
      "cp": "21320",
      "ville": "POUILLY-EN-AUXOIS",
      "prix": {
        "Gazole": 0.002269,
        "E10": 0.002039,
        "SP98": 0.002159
      },
      "maj_gouv": {
        "Gazole": "2026-04-30 07:29:09",
        "E10": "2026-04-28 11:41:04",
        "SP98": "2026-04-28 11:41:04"
      }
    },
    {
      "id": "21270001",
      "lat": 47.311,
      "lon": 5.41,
      "cp": "21270",
      "ville": "PONTAILLER-SUR-SAôNE",
      "prix": {
        "Gazole": 0.0022890000000000002,
        "SP95": 0.002099,
        "SP98": 0.002199
      },
      "maj_gouv": {
        "Gazole": "2026-04-23 00:00:00",
        "SP95": "2026-04-15 00:00:00",
        "SP98": "2026-04-15 00:00:00"
      }
    },
    {
      "id": "21000012",
      "lat": 47.34,
      "lon": 5.067,
      "cp": "21000",
      "ville": "Dijon",
      "prix": {
        "Gazole": 0.002249,
        "GPLc": 0.000949,
        "E10": 0.002049,
        "SP98": 0.002129
      },
      "maj_gouv": {
        "Gazole": "2026-04-30 09:37:05",
        "GPLc": "2026-04-16 08:23:33",
        "E10": "2026-04-30 09:37:05",
        "SP98": "2026-04-30 09:37:06"
      }
    },
    {
      "id": "21160001",
      "lat": 47.267,
      "lon": 4.997,
      "cp": "21160",
      "ville": "PERRIGNY-LèS-DIJON",
      "prix": {
        "Gazole": 0.002264,
        "GPLc": 0.000985,
        "E10": 0.002025,
        "SP98": 0.0021309999999999996
      },
      "maj_gouv": {
        "Gazole": "2026-04-30 10:50:40",
        "GPLc": "2026-04-30 10:50:40",
        "E10": "2026-04-30 10:50:40",
        "SP98": "2026-04-30 10:50:40"
      }
    },
    {
      "id": "21320004",
      "lat": 47.251,
      "lon": 4.576,
      "cp": "21320",
      "ville": "POUILLY-EN-AUXOIS",
      "prix": {
        "Gazole": 0.002299,
        "SP95": 0.002109
      },
      "maj_gouv": {
        "Gazole": "2026-04-18 11:44:54",
        "SP95": "2026-04-18 11:44:54"
      }
    },
    {
      "id": "21560001",
      "lat": 47.347,
      "lon": 5.18,
      "cp": "21560",
      "ville": "Arc-sur-Tille",
      "prix": {
        "Gazole": 0.002179,
        "E85": 0.000799,
        "E10": 0.002009,
        "SP98": 0.002129
      },
      "maj_gouv": {
        "Gazole": "2026-04-30 10:20:58",
        "E85": "2026-04-15 11:00:52",
        "E10": "2026-04-30 10:20:58",
        "SP98": "2026-04-30 13:23:38"
      }
    },
    {
      "id": "21110001",
      "lat": 47.179,
      "lon": 5.158,
      "cp": "21110",
      "ville": "AISEREY",
      "prix": {
        "Gazole": 0.0022890000000000002,
        "SP95": 0.002099,
        "SP98": 0.002199
      },
      "maj_gouv": {
        "Gazole": "2026-04-23 00:00:00",
        "SP95": "2026-04-15 00:00:00",
        "SP98": "2026-04-15 00:00:00"
      }
    },
    {
      "id": "21340001",
      "lat": 46.952,
      "lon": 4.624,
      "cp": "21340",
      "ville": "NOLAY",
      "prix": {
        "Gazole": 0.0022890000000000002,
        "E10": 0.002099,
        "SP98": 0.002199
      },
      "maj_gouv": {
        "Gazole": "2026-04-23 00:00:00",
        "E10": "2026-04-15 00:00:00",
        "SP98": "2026-04-15 00:00:00"
      }
    },
    {
      "id": "21230006",
      "lat": 47.131,
      "lon": 4.48,
      "cp": "21230",
      "ville": "Arnay-le-Duc",
      "prix": {
        "Gazole": 0.0022890000000000002,
        "SP95": 0.002099,
        "SP98": 0.002199
      },
      "maj_gouv": {
        "Gazole": "2026-04-23 00:00:00",
        "SP95": "2026-04-15 00:00:00",
        "SP98": "2026-04-15 00:00:00"
      }
    },
    {
      "id": "21200007",
      "lat": 47.017,
      "lon": 4.836,
      "cp": "21200",
      "ville": "BEAUNE",
      "prix": {
        "Gazole": 0.002229,
        "E85": 0.001089,
        "GPLc": 0.001269,
        "E10": 0.002089,
        "SP98": 0.002199
      },
      "maj_gouv": {
        "Gazole": "2026-05-01 22:06:24",
        "E85": "2026-05-01 22:06:25",
        "GPLc": "2026-05-01 22:06:24",
        "E10": "2026-05-01 22:06:24",
        "SP98": "2026-05-01 22:06:24"
      }
    },
    {
      "id": "21400001",
      "lat": 47.871,
      "lon": 4.57,
      "cp": "21400",
      "ville": "CHâTILLON-SUR-SEINE",
      "prix": {
        "Gazole": 0.0022890000000000002,
        "SP95": 0.002099,
        "SP98": 0.002199
      },
      "maj_gouv": {
        "Gazole": "2026-04-23 00:00:00",
        "SP95": "2026-04-15 00:00:00",
        "SP98": "2026-04-15 00:00:00"
      }
    },
    {
      "id": "21160004",
      "lat": 47.276,
      "lon": 5.005,
      "cp": "21160",
      "ville": "Marsannay-la-Côte",
      "prix": {
        "Gazole": 0.00209,
        "E85": 0.0008489999999999999,
        "E10": 0.00199,
        "SP98": 0.00199
      },
      "maj_gouv": {
        "Gazole": "2026-05-02 00:01:00",
        "E85": "2026-05-02 00:01:00",
        "E10": "2026-05-02 00:01:00",
        "SP98": "2026-05-02 00:01:00"
      }
    },
    {
      "id": "21190006",
      "lat": 46.96466385,
      "lon": 4.83683207,
      "cp": "21190",
      "ville": "MERCEUIL",
      "prix": {
        "Gazole": 0.00209,
        "E85": 0.000979,
        "E10": 0.00199,
        "SP98": 0.00199
      },
      "maj_gouv": {
        "Gazole": "2026-05-01 10:00:00",
        "E85": "2026-05-01 10:00:00",
        "E10": "2026-05-01 10:00:00",
        "SP98": "2026-05-01 10:00:00"
      }
    },
    {
      "id": "21200009",
      "lat": 46.965045628392,
      "lon": 4.8362053860605005,
      "cp": "21200",
      "ville": "BLIGNY LES BEAUNE",
      "prix": {
        "Gazole": 0.00209
      },
      "maj_gouv": {
        "Gazole": "2026-05-02 00:01:00"
      }
    },
    {
      "id": "21350002",
      "lat": 47.314944846589,
      "lon": 4.4959178929596,
      "cp": "21350",
      "ville": "Gissey le Vieil",
      "prix": {
        "Gazole": 0.0022429999999999998,
        "E10": 0.002124,
        "SP98": 0.002222
      },
      "maj_gouv": {
        "Gazole": "2026-04-28 09:30:00",
        "E10": "2026-04-28 09:30:00",
        "SP98": "2026-04-28 09:30:00"
      }
    },
    {
      "id": "21800010",
      "lat": 47.303113001183,
      "lon": 5.121463690616,
      "cp": "21800",
      "ville": "Chevigny-Saint-Sauveur",
      "prix": {
        "Gazole": 0.002199,
        "SP95": 0.002069,
        "SP98": 0.002109
      },
      "maj_gouv": {
        "Gazole": "2026-04-30 07:54:10",
        "SP95": "2026-04-30 07:54:11",
        "SP98": "2026-04-28 09:16:32"
      }
    },
    {
      "id": "21000006",
      "lat": 47.322,
      "lon": 5.053,
      "cp": "21000",
      "ville": "Dijon",
      "prix": {
        "Gazole": 0.0022890000000000002,
        "SP95": 0.002099,
        "SP98": 0.002199
      },
      "maj_gouv": {
        "Gazole": "2026-04-22 19:30:00",
        "SP95": "2026-04-22 19:30:00",
        "SP98": "2026-04-22 19:30:00"
      }
    },
    {
      "id": "21150001",
      "lat": 47.537,
      "lon": 4.461,
      "cp": "21150",
      "ville": "VENAREY-LES-LAUMES",
      "prix": {
        "Gazole": 0.0022890000000000002,
        "E10": 0.002099,
        "SP98": 0.002199
      },
      "maj_gouv": {
        "Gazole": "2026-04-23 00:00:00",
        "E10": "2026-04-15 00:00:00",
        "SP98": "2026-04-15 00:00:00"
      }
    },
    {
      "id": "21460002",
      "lat": 47.502,
      "lon": 4.122,
      "cp": "21460",
      "ville": "TOUTRY",
      "prix": {
        "Gazole": 0.0022890000000000002,
        "SP95": 0.002099,
        "SP98": 0.002199
      },
      "maj_gouv": {
        "Gazole": "2026-04-23 00:00:00",
        "SP95": "2026-04-15 00:00:00",
        "SP98": "2026-04-15 00:00:00"
      }
    },
    {
      "id": "21430003",
      "lat": 47.207,
      "lon": 4.271,
      "cp": "21430",
      "ville": "Liernais",
      "prix": {
        "Gazole": 0.00232,
        "SP95": 0.002137,
        "SP98": 0.0021720000000000003
      },
      "maj_gouv": {
        "Gazole": "2026-04-17 09:22:50",
        "SP95": "2026-04-10 10:21:30",
        "SP98": "2026-04-15 10:09:23"
      }
    },
    {
      "id": "21250009",
      "lat": 47.031,
      "lon": 5.108,
      "cp": "21250",
      "ville": "GLANON",
      "prix": {
        "Gazole": 0.0022530000000000002,
        "E10": 0.002064,
        "SP98": 0.002139
      },
      "maj_gouv": {
        "Gazole": "2026-05-01 12:24:21",
        "E10": "2026-05-01 12:24:21",
        "SP98": "2026-05-01 12:24:21"
      }
    },
    {
      "id": "21130008",
      "lat": 47.181,
      "lon": 5.401,
      "cp": "21130",
      "ville": "Auxonne",
      "prix": {
        "Gazole": 0.002218,
        "E10": 0.002012,
        "SP98": 0.0021190000000000002
      },
      "maj_gouv": {
        "Gazole": "2026-05-02 01:16:00",
        "E10": "2026-05-02 01:16:00",
        "SP98": "2026-05-02 01:16:00"
      }
    },
    {
      "id": "21850002",
      "lat": 47.333,
      "lon": 5.092,
      "cp": "21850",
      "ville": "Saint-Apollinaire",
      "prix": {
        "Gazole": 0.002199,
        "SP95": 0.002055,
        "E10": 0.0019890000000000003,
        "SP98": 0.002079
      },
      "maj_gouv": {
        "Gazole": "2026-04-30 08:01:46",
        "SP95": "2026-04-30 08:01:46",
        "E10": "2026-04-30 08:01:46",
        "SP98": "2026-04-30 08:01:46"
      }
    },
    {
      "id": "21460003",
      "lat": 47.501,
      "lon": 4.177,
      "cp": "21460",
      "ville": "EPOISSES",
      "prix": {
        "Gazole": 0.0022890000000000002,
        "SP95": 0.002099,
        "E10": 0.002079,
        "SP98": 0.002199
      },
      "maj_gouv": {
        "Gazole": "2026-04-23 00:00:00",
        "SP95": "2026-04-15 00:00:00",
        "E10": "2026-04-15 00:00:00",
        "SP98": "2026-04-15 00:00:00"
      }
    },
    {
      "id": "21410001",
      "lat": 47.309,
      "lon": 4.858,
      "cp": "21410",
      "ville": "Fleurey-sur-Ouche",
      "prix": {
        "Gazole": 0.002209,
        "E85": 0.0008179999999999999,
        "E10": 0.002029,
        "SP98": 0.002139
      },
      "maj_gouv": {
        "Gazole": "2026-04-24 06:20:58",
        "E85": "2026-04-21 06:50:13",
        "E10": "2026-04-28 06:58:15",
        "SP98": "2026-04-28 06:58:15"
      }
    },
    {
      "id": "21140002",
      "lat": 47.492,
      "lon": 4.338,
      "cp": "21140",
      "ville": "SEMUR-EN-AUXOIS",
      "prix": {
        "Gazole": 0.00225,
        "E85": 0.00102
      },
      "maj_gouv": {
        "Gazole": "2026-04-28 09:21:30",
        "E85": "2026-04-28 09:21:30"
      }
    },
    {
      "id": "21610001",
      "lat": 47.525,
      "lon": 5.362,
      "cp": "21610",
      "ville": "FONTAINE FRANCAISE",
      "prix": {
        "Gazole": 0.002199,
        "E85": 0.0008179999999999999,
        "E10": 0.002029,
        "SP98": 0.002149
      },
      "maj_gouv": {
        "Gazole": "2026-05-01 10:47:22",
        "E85": "2026-05-01 10:47:22",
        "E10": "2026-05-01 10:47:22",
        "SP98": "2026-05-01 10:47:22"
      }
    },
    {
      "id": "21130009",
      "lat": 47.185,
      "lon": 5.334,
      "cp": "21130",
      "ville": "PONT",
      "prix": {
        "Gazole": 0.0022240000000000003,
        "E85": 0.0009609999999999999,
        "GPLc": 0.0011200000000000001,
        "E10": 0.0020350000000000004,
        "SP98": 0.00211
      },
      "maj_gouv": {
        "Gazole": "2026-04-28 09:13:54",
        "E85": "2026-04-21 09:09:14",
        "GPLc": "2026-04-28 09:13:54",
        "E10": "2026-04-28 09:13:54",
        "SP98": "2026-04-28 09:13:54"
      }
    },
    {
      "id": "21130013",
      "lat": 47.191680999999996,
      "lon": 5.391439,
      "cp": "21130",
      "ville": "Auxonne",
      "prix": {
        "Gazole": 0.002189,
        "E85": 0.0008179999999999999,
        "E10": 0.001999
      },
      "maj_gouv": {
        "Gazole": "2026-04-29 09:27:55",
        "E85": "2026-04-17 06:53:10",
        "E10": "2026-04-29 09:27:55"
      }
    },
    {
      "id": "21110006",
      "lat": 47.237225,
      "lon": 5.109659000000001,
      "cp": "21110",
      "ville": "BRETENIERE",
      "prix": {
        "Gazole": 0.002159,
        "E10": 0.00198,
        "SP98": 0.0021190000000000002
      },
      "maj_gouv": {
        "Gazole": "2026-04-28 16:53:45",
        "E10": "2026-04-28 16:53:45",
        "SP98": "2026-04-15 08:48:43"
      }
    },
    {
      "id": "21800002",
      "lat": 47.31,
      "lon": 5.106,
      "cp": "21800",
      "ville": "QUETIGNY",
      "prix": {
        "Gazole": 0.002165,
        "SP95": 0.002065,
        "E85": 0.000839,
        "E10": 0.001997,
        "SP98": 0.002153
      },
      "maj_gouv": {
        "Gazole": "2026-04-30 08:41:31",
        "SP95": "2026-04-30 08:41:32",
        "E85": "2026-04-30 08:41:32",
        "E10": "2026-04-30 08:41:32",
        "SP98": "2026-04-30 08:41:32"
      }
    },
    {
      "id": "21110002",
      "lat": 47.245,
      "lon": 5.204,
      "cp": "21110",
      "ville": "GENLIS",
      "prix": {
        "Gazole": 0.00209
      },
      "maj_gouv": {
        "Gazole": "2026-05-01 08:28:39"
      }
    },
    {
      "id": "21800013",
      "lat": 47.304139000000006,
      "lon": 5.114495,
      "cp": "21800",
      "ville": "CHEVIGNY SAINT SAUVEUR",
      "prix": {
        "Gazole": 0.002175,
        "E85": 0.0008179999999999999,
        "E10": 0.002039
      },
      "maj_gouv": {
        "Gazole": "2026-04-30 11:18:49",
        "E85": "2026-04-18 08:55:01",
        "E10": "2026-04-30 11:18:49"
      }
    },
    {
      "id": "21000029",
      "lat": 47.302,
      "lon": 5.024,
      "cp": "21000",
      "ville": "DIJON",
      "prix": {
        "Gazole": 0.00209
      },
      "maj_gouv": {
        "Gazole": "2026-05-01 00:01:00"
      }
    },
    {
      "id": "21120005",
      "lat": 47.53,
      "lon": 5.115,
      "cp": "21120",
      "ville": "IS-SUR-TILLE",
      "prix": {
        "Gazole": 0.0021349999999999997,
        "E85": 0.000819,
        "E10": 0.001975,
        "SP98": 0.002099
      },
      "maj_gouv": {
        "Gazole": "2026-04-30 09:40:30",
        "E85": "2026-04-17 14:36:01",
        "E10": "2026-04-30 09:40:30",
        "SP98": "2026-04-30 09:40:31"
      }
    },
    {
      "id": "21800007",
      "lat": 47.29,
      "lon": 5.1,
      "cp": "21800",
      "ville": "SENNECEY-LES-DIJON",
      "prix": {
        "Gazole": 0.002179,
        "E85": 0.000799,
        "E10": 0.002049,
        "SP98": 0.002129
      },
      "maj_gouv": {
        "Gazole": "2026-04-30 10:35:30",
        "E85": "2026-04-30 10:35:30",
        "E10": "2026-04-30 10:35:30",
        "SP98": "2026-04-30 10:35:30"
      }
    },
    {
      "id": "21700007",
      "lat": 47.138,
      "lon": 4.957,
      "cp": "21700",
      "ville": "NUITS SAINT GEORGES",
      "prix": {
        "Gazole": 0.002112,
        "SP95": 0.001996,
        "E10": 0.001942
      },
      "maj_gouv": {
        "Gazole": "2026-04-22 07:58:53",
        "SP95": "2026-04-22 07:58:53",
        "E10": "2026-04-22 07:58:53"
      }
    },
    {
      "id": "21121008",
      "lat": 47.356,
      "lon": 5.033,
      "cp": "21121",
      "ville": "Fontaine-lès-Dijon",
      "prix": {
        "Gazole": 0.0022389999999999997,
        "GPLc": 0.001039,
        "E10": 0.001999,
        "SP98": 0.002099
      },
      "maj_gouv": {
        "Gazole": "2026-04-28 08:20:53",
        "GPLc": "2026-04-09 09:15:36",
        "E10": "2026-04-28 08:20:53",
        "SP98": "2026-04-28 08:20:54"
      }
    },
    {
      "id": "21490005",
      "lat": 47.397627952387,
      "lon": 5.1321043962844,
      "cp": "21490",
      "ville": "Saint-Julien",
      "prix": {
        "Gazole": 0.0022589999999999997,
        "E10": 0.0020440000000000002,
        "SP98": 0.002159
      },
      "maj_gouv": {
        "Gazole": "2026-04-29 05:25:41",
        "E10": "2026-04-29 05:25:42",
        "SP98": "2026-04-29 05:25:42"
      }
    },
    {
      "id": "21400009",
      "lat": 47.87249,
      "lon": 4.5704579999999995,
      "cp": "21400",
      "ville": "Chatillon sur seine",
      "prix": {
        "Gazole": 0.0022890000000000002,
        "SP95": 0.002169,
        "E85": 0.001099
      },
      "maj_gouv": {
        "Gazole": "2026-04-23 08:29:47",
        "SP95": "2026-04-15 10:55:48",
        "E85": "2026-04-08 09:13:48"
      }
    },
    {
      "id": "21600006",
      "lat": 47.282,
      "lon": 5.063,
      "cp": "21600",
      "ville": "LONGVIC",
      "prix": {
        "Gazole": 0.00225,
        "E10": 0.00199,
        "SP98": 0.00199
      },
      "maj_gouv": {
        "Gazole": "2026-04-27 16:37:03",
        "E10": "2026-04-27 16:37:03",
        "SP98": "2026-04-27 16:37:03"
      }
    },
    {
      "id": "21360006",
      "lat": 47.113503,
      "lon": 4.7120809999999995,
      "cp": "21360",
      "ville": "BLIGNY SUR OUCHE",
      "prix": {
        "Gazole": 0.002236,
        "E10": 0.002184,
        "SP98": 0.0022879999999999997
      },
      "maj_gouv": {
        "Gazole": "2026-04-29 10:12:09",
        "E10": "2026-04-29 10:12:09",
        "SP98": "2026-04-29 10:12:10"
      }
    },
    {
      "id": "21140003",
      "lat": 47.4923,
      "lon": 4.34084,
      "cp": "21140",
      "ville": "Semur-en-Auxois",
      "prix": {
        "Gazole": 0.002199,
        "SP95": 0.002049,
        "E10": 0.001999
      },
      "maj_gouv": {
        "Gazole": "2026-04-23 11:11:45",
        "SP95": "2026-04-20 12:32:45",
        "E10": "2026-04-10 09:20:46"
      }
    },
    {
      "id": "21130010",
      "lat": 47.179,
      "lon": 5.334,
      "cp": "21130",
      "ville": "PONT",
      "prix": {
        "Gazole": 0.0022240000000000003,
        "E85": 0.0009609999999999999,
        "GPLc": 0.0011200000000000001,
        "E10": 0.0020350000000000004,
        "SP98": 0.00211
      },
      "maj_gouv": {
        "Gazole": "2026-04-28 09:23:34",
        "E85": "2026-04-22 08:16:14",
        "GPLc": "2026-04-28 09:23:34",
        "E10": "2026-04-28 09:23:34",
        "SP98": "2026-04-28 09:23:34"
      }
    },
    {
      "id": "21210005",
      "lat": 47.283,
      "lon": 4.229,
      "cp": "21210",
      "ville": "SAULIEU",
      "prix": {
        "Gazole": 0.00209
      },
      "maj_gouv": {
        "Gazole": "2026-05-01 08:02:24"
      }
    },
    {
      "id": "21370002",
      "lat": 47.319,
      "lon": 4.91,
      "cp": "21370",
      "ville": "VELARS SUR OUCHE",
      "prix": {
        "Gazole": 0.002229,
        "E10": 0.0019690000000000003,
        "SP98": 0.002095
      },
      "maj_gouv": {
        "Gazole": "2026-04-20 16:22:09",
        "E10": "2026-04-20 16:22:09",
        "SP98": "2026-04-20 16:22:09"
      }
    },
    {
      "id": "21204001",
      "lat": 47.015,
      "lon": 4.816,
      "cp": "21200",
      "ville": "BEAUNE",
      "prix": {
        "Gazole": 0.00209,
        "E85": 0.000889,
        "SP98": 0.00199
      },
      "maj_gouv": {
        "Gazole": "2026-05-01 10:12:53",
        "E85": "2026-05-01 10:12:53",
        "SP98": "2026-05-01 10:12:53"
      }
    },
    {
      "id": "21200010",
      "lat": 46.999,
      "lon": 4.854,
      "cp": "21200",
      "ville": "LEVERNOIS",
      "prix": {
        "Gazole": 0.002205,
        "E85": 0.000759,
        "GPLc": 0.0010789999999999999,
        "E10": 0.002039,
        "SP98": 0.002129
      },
      "maj_gouv": {
        "Gazole": "2026-04-30 11:47:59",
        "E85": "2026-04-30 11:47:59",
        "GPLc": "2026-04-30 11:47:59",
        "E10": "2026-04-30 11:47:59",
        "SP98": "2026-04-30 11:47:59"
      }
    },
    {
      "id": "21610002",
      "lat": 47.528169379447,
      "lon": 5.376344059881401,
      "cp": "21610",
      "ville": "Fontaine-Française",
      "prix": {
        "Gazole": 0.002299,
        "E10": 0.002059,
        "SP98": 0.002099
      },
      "maj_gouv": {
        "Gazole": "2026-04-20 09:52:03",
        "E10": "2026-04-20 09:52:03",
        "SP98": "2026-04-20 09:52:03"
      }
    },
    {
      "id": "21120003",
      "lat": 47.528,
      "lon": 5.113,
      "cp": "21120",
      "ville": "IS-SUR-TILLE",
      "prix": {
        "Gazole": 0.00229,
        "SP95": 0.00199,
        "E85": 0.0009
      },
      "maj_gouv": {
        "Gazole": "2026-04-29 07:47:41",
        "SP95": "2026-04-29 07:47:41",
        "E85": "2026-04-29 07:47:41"
      }
    },
    {
      "id": "21160005",
      "lat": 47.28,
      "lon": 5.019,
      "cp": "21160",
      "ville": "Marsannay-la-Côte",
      "prix": {
        "Gazole": 0.0022389999999999997,
        "E85": 0.0008489999999999999,
        "GPLc": 0.0009459999999999999,
        "E10": 0.002023,
        "SP98": 0.00209
      },
      "maj_gouv": {
        "Gazole": "2026-05-02 01:16:00",
        "E85": "2026-05-02 01:16:00",
        "GPLc": "2026-05-02 01:16:00",
        "E10": "2026-05-02 01:16:00",
        "SP98": "2026-05-02 01:16:00"
      }
    },
    {
      "id": "21250002",
      "lat": 46.99,
      "lon": 5.148,
      "cp": "21250",
      "ville": "SEURRE",
      "prix": {
        "Gazole": 0.00209,
        "SP95": 0.00199
      },
      "maj_gouv": {
        "Gazole": "2026-05-01 00:08:12",
        "SP95": "2026-05-01 00:08:12"
      }
    },
    {
      "id": "21600008",
      "lat": 47.286,
      "lon": 5.046,
      "cp": "21600",
      "ville": "LONGVIC",
      "prix": {
        "Gazole": 0.0023490000000000004,
        "E85": 0.0008489999999999999,
        "E10": 0.002099,
        "SP98": 0.002199
      },
      "maj_gouv": {
        "Gazole": "2026-04-17 19:21:14",
        "E85": "2026-04-14 19:24:18",
        "E10": "2026-04-14 19:24:18",
        "SP98": "2026-04-14 19:24:18"
      }
    },
    {
      "id": "21110003",
      "lat": 47.238,
      "lon": 5.224,
      "cp": "21110",
      "ville": "Genlis",
      "prix": {
        "Gazole": 0.002222,
        "E85": 0.000971,
        "E10": 0.0020169999999999997,
        "SP98": 0.002098
      },
      "maj_gouv": {
        "Gazole": "2026-05-01 06:31:00",
        "E85": "2026-05-01 06:31:00",
        "E10": "2026-05-01 06:31:00",
        "SP98": "2026-05-01 06:31:00"
      }
    },
    {
      "id": "21330001",
      "lat": 47.83946523,
      "lon": 4.37160784,
      "cp": "21330",
      "ville": "LAIGNES",
      "prix": {
        "Gazole": 0.0023490000000000004,
        "SP95": 0.002169,
        "E85": 0.000949
      },
      "maj_gouv": {
        "Gazole": "2026-04-18 08:53:09",
        "SP95": "2026-04-15 08:31:39",
        "E85": "2026-04-08 07:41:38"
      }
    },
    {
      "id": "21000001",
      "lat": 47.358,
      "lon": 5.048,
      "cp": "21000",
      "ville": "DIJON",
      "prix": {
        "Gazole": 0.002269,
        "SP95": 0.002085,
        "E10": 0.0020499999999999997,
        "SP98": 0.0021739999999999997
      },
      "maj_gouv": {
        "Gazole": "2026-04-29 11:27:08",
        "SP95": "2026-04-29 11:27:08",
        "E10": "2026-04-29 11:27:08",
        "SP98": "2026-04-29 11:27:08"
      }
    },
    {
      "id": "21340002",
      "lat": 46.94691,
      "lon": 4.64359,
      "cp": "21340",
      "ville": "Nolay",
      "prix": {
        "Gazole": 0.00209,
        "SP95": 0.00199
      },
      "maj_gouv": {
        "Gazole": "2026-05-01 08:27:20",
        "SP95": "2026-04-13 10:03:43"
      }
    },
    {
      "id": "21500003",
      "lat": 47.616,
      "lon": 4.318,
      "cp": "21500",
      "ville": "CREPAND",
      "prix": {
        "Gazole": 0.00209,
        "SP98": 0.00199
      },
      "maj_gouv": {
        "Gazole": "2026-05-01 10:17:11",
        "SP98": "2026-04-13 07:39:53"
      }
    },
    {
      "id": "21800009",
      "lat": 47.308,
      "lon": 5.106,
      "cp": "21800",
      "ville": "QUETIGNY",
      "prix": {
        "Gazole": 0.00209,
        "E85": 0.000839,
        "E10": 0.00199,
        "SP98": 0.00199
      },
      "maj_gouv": {
        "Gazole": "2026-05-02 00:01:00",
        "E85": "2026-05-02 00:01:00",
        "E10": "2026-05-02 00:01:00",
        "SP98": "2026-05-02 00:01:00"
      }
    },
    {
      "id": "21700005",
      "lat": 47.097,
      "lon": 4.913,
      "cp": "21700",
      "ville": "Corgoloin",
      "prix": {
        "Gazole": 0.00209,
        "SP95": 0.00199,
        "SP98": 0.00199
      },
      "maj_gouv": {
        "Gazole": "2026-05-01 00:01:00",
        "SP95": "2026-04-30 06:41:24",
        "SP98": "2026-04-30 06:41:24"
      }
    },
    {
      "id": "21530004",
      "lat": 47.423567362452,
      "lon": 4.1065441681955,
      "cp": "21530",
      "ville": "Rouvray",
      "prix": {
        "Gazole": 0.0022589999999999997,
        "E10": 0.002099,
        "SP98": 0.002179
      },
      "maj_gouv": {
        "Gazole": "2026-04-29 09:18:00",
        "E10": "2026-04-29 09:18:00",
        "SP98": "2026-04-29 09:18:00"
      }
    },
    {
      "id": "21190002",
      "lat": 46.92,
      "lon": 4.753,
      "cp": "21190",
      "ville": "CORPEAU",
      "prix": {
        "Gazole": 0.00222,
        "E10": 0.002058,
        "SP98": 0.002199
      },
      "maj_gouv": {
        "Gazole": "2026-04-30 12:01:37",
        "E10": "2026-04-30 12:01:37",
        "SP98": "2026-04-30 12:01:37"
      }
    },
    {
      "id": "21800012",
      "lat": 47.281,
      "lon": 5.135,
      "cp": "21800",
      "ville": "CHEVIGNY SAINT SAUVEUR",
      "prix": {
        "Gazole": 0.0022890000000000002,
        "E10": 0.002099,
        "SP98": 0.002199
      },
      "maj_gouv": {
        "Gazole": "2026-04-23 00:00:00",
        "E10": "2026-04-15 00:00:00",
        "SP98": "2026-04-15 00:00:00"
      }
    },
    {
      "id": "21000027",
      "lat": 47.30728,
      "lon": 5.05757,
      "cp": "21000",
      "ville": "DIJON",
      "prix": {
        "Gazole": 0.00209,
        "E85": 0.000875
      },
      "maj_gouv": {
        "Gazole": "2026-05-02 00:01:00",
        "E85": "2026-05-02 00:01:00"
      }
    },
    {
      "id": "21220008",
      "lat": 47.223,
      "lon": 5.01,
      "cp": "21220",
      "ville": "GEVREY CHAMBERTIN",
      "prix": {
        "Gazole": 0.0022370000000000003,
        "E85": 0.000982,
        "GPLc": 0.00113,
        "E10": 0.002054,
        "SP98": 0.002129
      },
      "maj_gouv": {
        "Gazole": "2026-05-01 06:00:00",
        "E85": "2026-05-01 06:00:00",
        "GPLc": "2026-05-01 06:00:00",
        "E10": "2026-05-01 06:00:00",
        "SP98": "2026-05-01 06:00:00"
      }
    }
  ]
}