{
  "departement": "44",
  "date": "2026-05-02",
  "stations": [
    {
      "id": "44000009",
      "lat": 47.204,
      "lon": -1.547,
      "cp": "44200",
      "ville": "NANTES",
      "prix": {
        "Gazole": 0.00209,
        "E10": 0.00199,
        "SP98": 0.00199
      },
      "maj_gouv": {
        "Gazole": "2026-05-02 00:01:00",
        "E10": "2026-05-02 00:01:00",
        "SP98": "2026-05-02 00:01:00"
      }
    },
    {
      "id": "44260003",
      "lat": 47.35931,
      "lon": -1.86116,
      "cp": "44260",
      "ville": "Malville",
      "prix": {
        "Gazole": 0.002139,
        "SP95": 0.002009,
        "SP98": 0.002058
      },
      "maj_gouv": {
        "Gazole": "2026-04-22 12:30:17",
        "SP95": "2026-04-22 12:30:34",
        "SP98": "2026-04-22 12:30:52"
      }
    },
    {
      "id": "44720005",
      "lat": 47.386232393331,
      "lon": -2.2034903965863997,
      "cp": "44720",
      "ville": "Saint-Joachim",
      "prix": {
        "Gazole": 0.002489,
        "SP95": 0.002029,
        "SP98": 0.002109
      },
      "maj_gouv": {
        "Gazole": "2026-04-07 17:12:43",
        "SP95": "2026-04-28 08:22:21",
        "SP98": "2026-04-28 08:22:21"
      }
    },
    {
      "id": "44220005",
      "lat": 47.21363,
      "lon": -1.72222,
      "cp": "44220",
      "ville": "COUERON",
      "prix": {
        "Gazole": 0.002209,
        "SP95": 0.001955,
        "E10": 0.001909
      },
      "maj_gouv": {
        "Gazole": "2026-04-30 16:00:56",
        "SP95": "2026-04-30 16:00:56",
        "E10": "2026-04-30 16:00:56"
      }
    },
    {
      "id": "44120005",
      "lat": 47.173,
      "lon": -1.474,
      "cp": "44120",
      "ville": "VERTOU",
      "prix": {
        "Gazole": 0.00209,
        "E85": 0.000829,
        "GPLc": 0.000999,
        "E10": 0.00199
      },
      "maj_gouv": {
        "Gazole": "2026-05-02 00:01:00",
        "E85": "2026-05-02 00:01:00",
        "GPLc": "2026-05-02 00:01:00",
        "E10": "2026-05-02 00:01:00"
      }
    },
    {
      "id": "44780002",
      "lat": 47.482822997313995,
      "lon": -2.1613944821039,
      "cp": "44780",
      "ville": "MISSILLAC",
      "prix": {
        "Gazole": 0.002286,
        "E10": 0.001983
      },
      "maj_gouv": {
        "Gazole": "2026-04-14 08:26:54",
        "E10": "2026-04-14 08:26:54"
      }
    },
    {
      "id": "44270001",
      "lat": 46.999,
      "lon": -1.817,
      "cp": "44270",
      "ville": "MACHECOUL",
      "prix": {
        "Gazole": 0.002148,
        "SP95": 0.002029,
        "E85": 0.000719,
        "SP98": 0.002069
      },
      "maj_gouv": {
        "Gazole": "2026-04-30 09:48:34",
        "SP95": "2026-04-29 08:33:55",
        "E85": "2026-04-24 08:15:43",
        "SP98": "2026-04-29 08:33:55"
      }
    },
    {
      "id": "44110002",
      "lat": 47.705,
      "lon": -1.389,
      "cp": "44110",
      "ville": "CHâTEAUBRIANT",
      "prix": {
        "Gazole": 0.00209,
        "E10": 0.00199
      },
      "maj_gouv": {
        "Gazole": "2026-05-01 02:48:52",
        "E10": "2026-05-01 02:48:52"
      }
    },
    {
      "id": "44360007",
      "lat": 47.278,
      "lon": -1.721,
      "cp": "44360",
      "ville": "Saint-Étienne-de-Montluc",
      "prix": {
        "Gazole": 0.002149,
        "E85": 0.000699,
        "E10": 0.0019890000000000003,
        "SP98": 0.002059
      },
      "maj_gouv": {
        "Gazole": "2026-04-30 10:58:59",
        "E85": "2026-04-30 10:58:59",
        "E10": "2026-04-30 10:58:59",
        "SP98": "2026-04-30 10:58:59"
      }
    },
    {
      "id": "44400006",
      "lat": 47.18,
      "lon": -1.533,
      "cp": "44400",
      "ville": "REZé",
      "prix": {
        "Gazole": 0.002162,
        "E10": 0.002029,
        "SP98": 0.002106
      },
      "maj_gouv": {
        "Gazole": "2026-04-29 09:07:06",
        "E10": "2026-04-30 20:10:47",
        "SP98": "2026-04-29 09:07:06"
      }
    },
    {
      "id": "44530003",
      "lat": 47.50937,
      "lon": -2.04035,
      "cp": "44530",
      "ville": "Saint-Gildas-des-Bois",
      "prix": {
        "Gazole": 0.002149,
        "SP95": 0.002049,
        "SP98": 0.002089
      },
      "maj_gouv": {
        "Gazole": "2026-04-30 08:38:36",
        "SP95": "2026-04-30 08:38:36",
        "SP98": "2026-04-30 08:38:37"
      }
    },
    {
      "id": "44118003",
      "lat": 47.09,
      "lon": -1.611,
      "cp": "44118",
      "ville": "La Chevrolière",
      "prix": {
        "Gazole": 0.002199,
        "SP95": 0.002059,
        "SP98": 0.002199
      },
      "maj_gouv": {
        "Gazole": "2026-04-27 15:22:47",
        "SP95": "2026-04-27 15:22:47",
        "SP98": "2026-04-27 15:22:47"
      }
    },
    {
      "id": "44700005",
      "lat": 47.24,
      "lon": -1.59,
      "cp": "44700",
      "ville": "ORVAULT",
      "prix": {
        "Gazole": 0.0022389999999999997,
        "E10": 0.002069,
        "SP98": 0.002219
      },
      "maj_gouv": {
        "Gazole": "2026-05-01 11:28:05",
        "E10": "2026-05-01 11:28:05",
        "SP98": "2026-05-01 11:28:05"
      }
    },
    {
      "id": "44430003",
      "lat": 47.237,
      "lon": -1.35,
      "cp": "44430",
      "ville": "Le Loroux-Bottereau",
      "prix": {
        "Gazole": 0.002229,
        "E10": 0.0019590000000000002
      },
      "maj_gouv": {
        "Gazole": "2026-04-16 14:26:59",
        "E10": "2026-04-08 13:34:58"
      }
    },
    {
      "id": "44300020",
      "lat": 47.26,
      "lon": -1.576,
      "cp": "44300",
      "ville": "Nantes",
      "prix": {
        "Gazole": 0.002299,
        "E85": 0.0009649999999999999,
        "GPLc": 0.001059,
        "E10": 0.002069,
        "SP98": 0.002199
      },
      "maj_gouv": {
        "Gazole": "2026-04-30 07:55:27",
        "E85": "2026-04-30 07:55:27",
        "GPLc": "2026-04-30 07:55:27",
        "E10": "2026-04-30 07:55:27",
        "SP98": "2026-04-30 07:55:27"
      }
    },
    {
      "id": "44700003",
      "lat": 47.24624,
      "lon": -1.58938,
      "cp": "44700",
      "ville": "Orvault",
      "prix": {
        "Gazole": 0.0022389999999999997,
        "E85": 0.000819,
        "E10": 0.0019890000000000003,
        "SP98": 0.002099
      },
      "maj_gouv": {
        "Gazole": "2026-04-28 09:09:08",
        "E85": "2026-04-17 08:17:56",
        "E10": "2026-04-28 09:09:08",
        "SP98": "2026-04-28 09:09:08"
      }
    },
    {
      "id": "44630002",
      "lat": 47.5425428,
      "lon": -1.8827017000000001,
      "cp": "44630",
      "ville": "Plessé",
      "prix": {
        "Gazole": 0.00221,
        "SP95": 0.002068,
        "SP98": 0.002155
      },
      "maj_gouv": {
        "Gazole": "2026-04-27 16:06:44",
        "SP95": "2026-04-27 16:06:44",
        "SP98": "2026-04-27 16:06:44"
      }
    },
    {
      "id": "44880001",
      "lat": 47.26,
      "lon": -1.655,
      "cp": "44880",
      "ville": "SAUTRON",
      "prix": {
        "Gazole": 0.002169,
        "SP95": 0.002059,
        "E85": 0.000759
      },
      "maj_gouv": {
        "Gazole": "2026-04-28 08:42:41",
        "SP95": "2026-04-30 08:53:13",
        "E85": "2026-04-24 12:33:25"
      }
    },
    {
      "id": "44850002",
      "lat": 47.361,
      "lon": -1.408,
      "cp": "44850",
      "ville": "SAINT-MARS-DU-DéSERT",
      "prix": {
        "Gazole": 0.002189,
        "SP95": 0.002049,
        "SP98": 0.002089
      },
      "maj_gouv": {
        "Gazole": "2026-04-30 14:34:40",
        "SP95": "2026-04-30 14:34:41",
        "SP98": "2026-04-30 14:34:41"
      }
    },
    {
      "id": "44120007",
      "lat": 47.187,
      "lon": -1.485,
      "cp": "44120",
      "ville": "VERTOU",
      "prix": {
        "Gazole": 0.0021349999999999997,
        "GPLc": 0.000999,
        "E10": 0.002032,
        "SP98": 0.002109
      },
      "maj_gouv": {
        "Gazole": "2026-04-29 16:09:46",
        "GPLc": "2026-04-29 16:09:46",
        "E10": "2026-04-29 16:09:46",
        "SP98": "2026-04-29 16:09:46"
      }
    },
    {
      "id": "44830002",
      "lat": 47.144,
      "lon": -1.679,
      "cp": "44830",
      "ville": "BOUAYE",
      "prix": {
        "Gazole": 0.002169,
        "SP95": 0.002069,
        "SP98": 0.002109
      },
      "maj_gouv": {
        "Gazole": "2026-04-30 13:27:59",
        "SP95": "2026-04-27 14:41:21",
        "SP98": "2026-04-30 13:27:59"
      }
    },
    {
      "id": "44406001",
      "lat": 47.194,
      "lon": -1.572,
      "cp": "44400",
      "ville": "REZé",
      "prix": {
        "Gazole": 0.002155,
        "GPLc": 0.0009599999999999999,
        "E10": 0.002009,
        "SP98": 0.002023
      },
      "maj_gouv": {
        "Gazole": "2026-05-02 01:16:00",
        "GPLc": "2026-05-02 01:16:00",
        "E10": "2026-05-02 01:16:00",
        "SP98": "2026-05-02 01:16:00"
      }
    },
    {
      "id": "44810001",
      "lat": 47.41492,
      "lon": -1.66024,
      "cp": "44810",
      "ville": "Héric",
      "prix": {
        "Gazole": 0.002159,
        "E10": 0.002019,
        "SP98": 0.0021190000000000002
      },
      "maj_gouv": {
        "Gazole": "2026-04-30 09:00:00",
        "E10": "2026-04-30 09:00:00",
        "SP98": "2026-04-30 09:00:00"
      }
    },
    {
      "id": "44400009",
      "lat": 47.16,
      "lon": -1.551,
      "cp": "44400",
      "ville": "REZE",
      "prix": {
        "Gazole": 0.00209,
        "E85": 0.0008359999999999999,
        "GPLc": 0.000999,
        "E10": 0.00199,
        "SP98": 0.00199
      },
      "maj_gouv": {
        "Gazole": "2026-05-02 00:01:00",
        "E85": "2026-05-02 00:01:00",
        "GPLc": "2026-05-02 00:01:00",
        "E10": "2026-05-02 00:01:00",
        "SP98": "2026-05-02 00:01:00"
      }
    },
    {
      "id": "44150001",
      "lat": 47.397,
      "lon": -1.19,
      "cp": "44150",
      "ville": "ANCENIS",
      "prix": {
        "Gazole": 0.00227,
        "SP95": 0.0022299999999999998,
        "GPLc": 0.0010789999999999999,
        "SP98": 0.00226
      },
      "maj_gouv": {
        "Gazole": "2026-04-30 14:19:20",
        "SP95": "2026-04-07 13:48:21",
        "GPLc": "2025-12-22 14:58:39",
        "SP98": "2026-04-07 13:48:21"
      }
    },
    {
      "id": "44190008",
      "lat": 47.099,
      "lon": -1.282,
      "cp": "44190",
      "ville": "Clisson",
      "prix": {
        "Gazole": 0.0021309999999999996,
        "SP95": 0.0020009999999999997,
        "E85": 0.0007099999999999999,
        "E10": 0.001987,
        "SP98": 0.00204
      },
      "maj_gouv": {
        "Gazole": "2026-05-02 01:17:00",
        "SP95": "2026-05-02 01:17:00",
        "E85": "2026-05-02 01:17:00",
        "E10": "2026-05-02 01:17:00",
        "SP98": "2026-05-02 01:17:00"
      }
    },
    {
      "id": "44480002",
      "lat": 47.32906,
      "lon": -2.08771,
      "cp": "44480",
      "ville": "DONGES",
      "prix": {
        "Gazole": 0.002099,
        "E10": 0.0019190000000000001,
        "SP98": 0.002089
      },
      "maj_gouv": {
        "Gazole": "2026-04-24 11:02:35",
        "E10": "2026-04-24 11:02:35",
        "SP98": "2026-04-24 11:02:35"
      }
    },
    {
      "id": "44560001",
      "lat": 47.284,
      "lon": -2.016,
      "cp": "44560",
      "ville": "PAIMBOEUF",
      "prix": {
        "Gazole": 0.00218,
        "SP95": 0.002053,
        "E10": 0.0020169999999999997,
        "SP98": 0.002097
      },
      "maj_gouv": {
        "Gazole": "2026-04-29 09:19:20",
        "SP95": "2026-04-29 09:19:20",
        "E10": "2026-04-29 09:19:20",
        "SP98": "2026-04-29 09:19:21"
      }
    },
    {
      "id": "44320007",
      "lat": 47.2063373,
      "lon": -2.0440813,
      "cp": "44320",
      "ville": "Saint Pere En Retz",
      "prix": {
        "Gazole": 0.00218,
        "SP95": 0.002053,
        "SP98": 0.002097
      },
      "maj_gouv": {
        "Gazole": "2026-04-29 09:47:10",
        "SP95": "2026-04-29 09:47:10",
        "SP98": "2026-04-29 09:47:10"
      }
    },
    {
      "id": "44300013",
      "lat": 47.235,
      "lon": -1.52,
      "cp": "44300",
      "ville": "NANTES",
      "prix": {
        "Gazole": 0.002219,
        "E10": 0.002049,
        "SP98": 0.002169
      },
      "maj_gouv": {
        "Gazole": "2026-05-01 11:31:00",
        "E10": "2026-05-01 11:31:00",
        "SP98": "2026-05-01 11:31:00"
      }
    },
    {
      "id": "44340004",
      "lat": 47.159,
      "lon": -1.6,
      "cp": "44340",
      "ville": "Bouguenais",
      "prix": {
        "Gazole": 0.00209,
        "SP95": 0.00199
      },
      "maj_gouv": {
        "Gazole": "2026-04-30 23:59:00",
        "SP95": "2026-03-10 15:37:00"
      }
    },
    {
      "id": "44420002",
      "lat": 47.353,
      "lon": -2.512,
      "cp": "44420",
      "ville": "LA TURBALLE",
      "prix": {
        "Gazole": 0.002137,
        "E10": 0.001997,
        "SP98": 0.002077
      },
      "maj_gouv": {
        "Gazole": "2026-04-27 08:23:56",
        "E10": "2026-04-27 08:23:56",
        "SP98": "2026-04-27 08:23:56"
      }
    },
    {
      "id": "44340006",
      "lat": 47.186,
      "lon": -1.602,
      "cp": "44340",
      "ville": "BOUGUENAIS",
      "prix": {
        "Gazole": 0.00209,
        "E85": 0.000839,
        "E10": 0.00199
      },
      "maj_gouv": {
        "Gazole": "2026-05-02 00:01:00",
        "E85": "2026-05-02 00:01:00",
        "E10": "2026-05-02 00:01:00"
      }
    },
    {
      "id": "44250005",
      "lat": 47.22914,
      "lon": -2.15541,
      "cp": "44250",
      "ville": "Saint-Brevin-les-Pins",
      "prix": {
        "Gazole": 0.00209,
        "E85": 0.000843,
        "GPLc": 0.001019,
        "E10": 0.00199
      },
      "maj_gouv": {
        "Gazole": "2026-05-02 00:01:00",
        "E85": "2026-05-02 00:01:00",
        "GPLc": "2026-05-02 00:01:00",
        "E10": "2026-05-02 00:01:00"
      }
    },
    {
      "id": "44130001",
      "lat": 47.473061839157,
      "lon": -1.7469807605743002,
      "cp": "44130",
      "ville": "BLAIN",
      "prix": {
        "Gazole": 0.002129,
        "SP95": 0.00206,
        "E10": 0.0019950000000000002,
        "SP98": 0.002069
      },
      "maj_gouv": {
        "Gazole": "2026-04-30 08:29:24",
        "SP95": "2026-04-30 08:29:24",
        "E10": "2026-04-30 08:29:24",
        "SP98": "2026-04-30 08:29:25"
      }
    },
    {
      "id": "44860002",
      "lat": 47.129,
      "lon": -1.583,
      "cp": "44860",
      "ville": "PONT-SAINT-MARTIN",
      "prix": {
        "Gazole": 0.002159,
        "SP95": 0.002059,
        "E10": 0.002019,
        "SP98": 0.002099
      },
      "maj_gouv": {
        "Gazole": "2026-04-30 19:35:31",
        "SP95": "2026-04-30 19:35:31",
        "E10": "2026-04-30 19:35:31",
        "SP98": "2026-04-30 19:35:31"
      }
    },
    {
      "id": "44420003",
      "lat": 47.397,
      "lon": -2.462,
      "cp": "44420",
      "ville": "MESQUER",
      "prix": {
        "E10": 0.001939,
        "SP98": 0.002089
      },
      "maj_gouv": {
        "E10": "2026-04-24 08:07:01",
        "SP98": "2026-04-24 08:07:02"
      }
    },
    {
      "id": "44400001",
      "lat": 47.177,
      "lon": -1.559,
      "cp": "44400",
      "ville": "Rezé",
      "prix": {
        "Gazole": 0.002155,
        "E10": 0.0020150000000000003,
        "SP98": 0.002094
      },
      "maj_gouv": {
        "Gazole": "2026-04-30 08:20:42",
        "E10": "2026-04-30 08:20:42",
        "SP98": "2026-04-30 08:20:42"
      }
    },
    {
      "id": "44430004",
      "lat": 47.234,
      "lon": -1.367,
      "cp": "44430",
      "ville": "Loroux-Bottereau",
      "prix": {
        "Gazole": 0.0021379999999999997,
        "E85": 0.0007289999999999999,
        "E10": 0.001975,
        "SP98": 0.002048
      },
      "maj_gouv": {
        "Gazole": "2026-05-02 01:17:00",
        "E85": "2026-05-02 01:17:00",
        "E10": "2026-05-02 01:17:00",
        "SP98": "2026-05-02 01:17:00"
      }
    },
    {
      "id": "44110004",
      "lat": 47.706,
      "lon": -1.385,
      "cp": "44110",
      "ville": "CHâTEAUBRIANT",
      "prix": {
        "Gazole": 0.002127,
        "E85": 0.0008179999999999999,
        "E10": 0.001967,
        "SP98": 0.002062
      },
      "maj_gouv": {
        "Gazole": "2026-04-30 12:23:54",
        "E85": "2026-04-21 09:09:34",
        "E10": "2026-04-30 12:23:54",
        "SP98": "2026-04-30 12:23:54"
      }
    },
    {
      "id": "44800008",
      "lat": 47.211,
      "lon": -1.619,
      "cp": "44800",
      "ville": "Saint-Herblain",
      "prix": {
        "Gazole": 0.00209,
        "E10": 0.00199
      },
      "maj_gouv": {
        "Gazole": "2026-05-02 00:01:00",
        "E10": "2026-05-02 00:01:00"
      }
    },
    {
      "id": "44470005",
      "lat": 47.3,
      "lon": -1.498,
      "cp": "44470",
      "ville": "Carquefou",
      "prix": {
        "Gazole": 0.002189,
        "E85": 0.000809,
        "E10": 0.002019,
        "SP98": 0.002099
      },
      "maj_gouv": {
        "Gazole": "2026-04-30 08:35:00",
        "E85": "2026-04-30 08:35:00",
        "E10": "2026-04-30 08:35:00",
        "SP98": "2026-04-30 08:35:00"
      }
    },
    {
      "id": "44160006",
      "lat": 47.449842495365004,
      "lon": -2.127482917,
      "cp": "44160",
      "ville": "PONTCHATEAU",
      "prix": {
        "SP95": 0.00199,
        "SP98": 0.00199
      },
      "maj_gouv": {
        "SP95": "2026-04-22 14:54:41",
        "SP98": "2026-04-22 14:54:41"
      }
    },
    {
      "id": "44590001",
      "lat": 47.668,
      "lon": -1.663,
      "cp": "44590",
      "ville": "DERVAL",
      "prix": {
        "Gazole": 0.00215,
        "E10": 0.00202,
        "SP98": 0.00215
      },
      "maj_gouv": {
        "Gazole": "2026-04-28 08:56:32",
        "E10": "2026-04-28 10:45:27",
        "SP98": "2026-04-28 08:56:33"
      }
    },
    {
      "id": "44220001",
      "lat": 47.194,
      "lon": -1.53,
      "cp": "44200",
      "ville": "NANTES",
      "prix": {
        "Gazole": 0.002189,
        "SP95": 0.0020859999999999997,
        "SP98": 0.0021219999999999998
      },
      "maj_gouv": {
        "Gazole": "2026-04-30 17:10:37",
        "SP95": "2026-04-30 17:10:37",
        "SP98": "2026-04-30 17:10:37"
      }
    },
    {
      "id": "44170003",
      "lat": 47.564,
      "lon": -1.618,
      "cp": "44170",
      "ville": "NOZAY",
      "prix": {},
      "maj_gouv": {}
    },
    {
      "id": "44390001",
      "lat": 47.439,
      "lon": -1.48,
      "cp": "44390",
      "ville": "NORT-SUR-ERDRE",
      "prix": {
        "Gazole": 0.002149,
        "E85": 0.000819,
        "GPLc": 0.001099,
        "E10": 0.0019890000000000003,
        "SP98": 0.002069
      },
      "maj_gouv": {
        "Gazole": "2026-04-30 09:00:00",
        "E85": "2026-04-20 16:00:00",
        "GPLc": "2026-04-24 08:16:38",
        "E10": "2026-04-30 09:00:00",
        "SP98": "2026-04-30 09:00:00"
      }
    },
    {
      "id": "44230003",
      "lat": 47.192,
      "lon": -1.492,
      "cp": "44230",
      "ville": "Saint-Sébastien-sur-Loire",
      "prix": {
        "Gazole": 0.0021349999999999997,
        "E85": 0.000799,
        "GPLc": 0.000999,
        "E10": 0.002032,
        "SP98": 0.002109
      },
      "maj_gouv": {
        "Gazole": "2026-04-30 09:13:54",
        "E85": "2026-03-24 09:31:08",
        "GPLc": "2026-04-29 09:07:20",
        "E10": "2026-04-30 09:13:54",
        "SP98": "2026-04-30 09:13:55"
      }
    },
    {
      "id": "44490002",
      "lat": 47.286,
      "lon": -2.507,
      "cp": "44490",
      "ville": "LE CROISIC",
      "prix": {
        "Gazole": 0.002199,
        "E85": 0.000819,
        "E10": 0.001999,
        "SP98": 0.002099
      },
      "maj_gouv": {
        "Gazole": "2026-04-27 10:28:37",
        "E85": "2026-04-23 07:59:30",
        "E10": "2026-04-30 09:52:30",
        "SP98": "2026-04-08 10:44:38"
      }
    },
    {
      "id": "44220002",
      "lat": 47.215,
      "lon": -1.685,
      "cp": "44220",
      "ville": "Couëron",
      "prix": {
        "Gazole": 0.002149,
        "E10": 0.001999,
        "SP98": 0.002079
      },
      "maj_gouv": {
        "Gazole": "2026-04-28 09:28:35",
        "E10": "2026-04-28 09:28:35",
        "SP98": "2026-04-28 09:28:35"
      }
    },
    {
      "id": "44240012",
      "lat": 47.285,
      "lon": -1.55,
      "cp": "44240",
      "ville": "La chapelle sur Erdre",
      "prix": {
        "Gazole": 0.002184,
        "E85": 0.000809,
        "GPLc": 0.0010689999999999999,
        "E10": 0.001999,
        "SP98": 0.002078
      },
      "maj_gouv": {
        "Gazole": "2026-04-30 14:55:00",
        "E85": "2026-04-30 14:55:00",
        "GPLc": "2026-04-30 14:55:00",
        "E10": "2026-04-30 14:55:00",
        "SP98": "2026-04-30 14:55:00"
      }
    },
    {
      "id": "44350003",
      "lat": 47.322,
      "lon": -2.424,
      "cp": "44350",
      "ville": "Guérande",
      "prix": {},
      "maj_gouv": {}
    },
    {
      "id": "44350001",
      "lat": 47.291,
      "lon": -2.398,
      "cp": "44350",
      "ville": "GUERANDE",
      "prix": {},
      "maj_gouv": {}
    },
    {
      "id": "44170001",
      "lat": 47.57,
      "lon": -1.629,
      "cp": "44170",
      "ville": "NOZAY",
      "prix": {
        "Gazole": 0.002169,
        "E85": 0.000759,
        "E10": 0.002029,
        "SP98": 0.002129
      },
      "maj_gouv": {
        "Gazole": "2026-04-30 12:00:50",
        "E85": "2026-04-28 11:43:16",
        "E10": "2026-04-30 12:00:50",
        "SP98": "2026-04-30 12:00:50"
      }
    },
    {
      "id": "44370008",
      "lat": 47.418,
      "lon": -1.018,
      "cp": "44370",
      "ville": "VARADES",
      "prix": {
        "Gazole": 0.00209,
        "E85": 0.000999,
        "E10": 0.00199,
        "SP98": 0.00199
      },
      "maj_gouv": {
        "Gazole": "2026-05-01 10:00:00",
        "E85": "2026-05-01 10:00:00",
        "E10": "2026-05-01 10:00:00",
        "SP98": "2026-05-01 10:00:00"
      }
    },
    {
      "id": "44650001",
      "lat": 46.8886,
      "lon": -1.59155,
      "cp": "44650",
      "ville": "LEGE",
      "prix": {
        "Gazole": 0.0021190000000000002,
        "E85": 0.0007790000000000001,
        "E10": 0.0019790000000000003,
        "SP98": 0.002059
      },
      "maj_gouv": {
        "Gazole": "2026-04-30 10:53:11",
        "E85": "2026-04-13 12:03:36",
        "E10": "2026-04-29 06:00:00",
        "SP98": "2026-04-29 06:00:00"
      }
    },
    {
      "id": "44290001",
      "lat": 47.635,
      "lon": -1.805,
      "cp": "44290",
      "ville": "Guémené-Penfao",
      "prix": {
        "Gazole": 0.002129,
        "E85": 0.000759,
        "E10": 0.001999,
        "SP98": 0.002099
      },
      "maj_gouv": {
        "Gazole": "2026-04-28 19:32:37",
        "E85": "2026-04-27 09:02:53",
        "E10": "2026-04-28 19:32:37",
        "SP98": "2026-04-28 19:32:37"
      }
    },
    {
      "id": "44570001",
      "lat": 47.301882584606,
      "lon": -2.212697736,
      "cp": "44570",
      "ville": "Trignac",
      "prix": {
        "Gazole": 0.0021509999999999997,
        "GPLc": 0.001018,
        "E10": 0.001994,
        "SP98": 0.002072
      },
      "maj_gouv": {
        "Gazole": "2026-04-30 10:28:15",
        "GPLc": "2026-04-30 10:28:15",
        "E10": "2026-04-30 10:28:15",
        "SP98": "2026-04-30 10:28:16"
      }
    },
    {
      "id": "44570006",
      "lat": 47.293,
      "lon": -2.209,
      "cp": "44570",
      "ville": "TRIGNAC",
      "prix": {
        "Gazole": 0.00209,
        "E85": 0.0008539999999999999,
        "SP98": 0.00199
      },
      "maj_gouv": {
        "Gazole": "2026-05-02 00:01:00",
        "E85": "2026-05-02 00:01:00",
        "SP98": "2026-05-02 00:01:00"
      }
    },
    {
      "id": "44410007",
      "lat": 47.448,
      "lon": -2.241,
      "cp": "44410",
      "ville": "LA CHAPELLE DES MARAIS",
      "prix": {
        "Gazole": 0.002169,
        "E10": 0.00202,
        "SP98": 0.002085
      },
      "maj_gouv": {
        "Gazole": "2026-04-30 07:20:17",
        "E10": "2026-04-30 07:20:17",
        "SP98": "2026-04-30 07:20:17"
      }
    },
    {
      "id": "44320002",
      "lat": 47.114543249043,
      "lon": -1.9511237760851,
      "cp": "44320",
      "ville": "Arthon-en-Retz",
      "prix": {
        "Gazole": 0.002159,
        "E85": 0.000799,
        "E10": 0.002079,
        "SP98": 0.001999
      },
      "maj_gouv": {
        "Gazole": "2026-04-28 18:54:41",
        "E85": "2026-04-18 19:38:33",
        "E10": "2026-04-28 18:54:41",
        "SP98": "2026-04-28 18:54:42"
      }
    },
    {
      "id": "44240004",
      "lat": 47.302,
      "lon": -1.548,
      "cp": "44240",
      "ville": "La Chapelle-sur-Erdre",
      "prix": {
        "Gazole": 0.002189,
        "E10": 0.0019890000000000003,
        "SP98": 0.002079
      },
      "maj_gouv": {
        "Gazole": "2026-04-30 13:58:14",
        "E10": "2026-04-30 13:58:14",
        "SP98": "2026-04-30 13:58:15"
      }
    },
    {
      "id": "44190007",
      "lat": 47.095,
      "lon": -1.292,
      "cp": "44190",
      "ville": "Clisson",
      "prix": {
        "Gazole": 0.002189,
        "SP95": 0.002049,
        "SP98": 0.002099
      },
      "maj_gouv": {
        "Gazole": "2026-04-20 10:52:04",
        "SP95": "2026-04-20 10:52:04",
        "SP98": "2026-04-20 10:52:05"
      }
    },
    {
      "id": "44410001",
      "lat": 47.45,
      "lon": -2.314,
      "cp": "44410",
      "ville": "HERBIGNAC",
      "prix": {
        "Gazole": 0.0021680000000000002,
        "E85": 0.0008179999999999999,
        "E10": 0.002009,
        "SP98": 0.0020800000000000003
      },
      "maj_gouv": {
        "Gazole": "2026-05-02 01:17:00",
        "E85": "2026-05-02 01:17:00",
        "E10": "2026-05-02 01:17:00",
        "SP98": "2026-05-02 01:17:00"
      }
    },
    {
      "id": "44470006",
      "lat": 47.266,
      "lon": -1.488,
      "cp": "44470",
      "ville": "CARQUEFOU",
      "prix": {
        "Gazole": 0.00209,
        "E85": 0.000832,
        "GPLc": 0.000999,
        "E10": 0.00199
      },
      "maj_gouv": {
        "Gazole": "2026-05-02 00:01:00",
        "E85": "2026-05-02 00:01:00",
        "GPLc": "2026-05-02 00:01:00",
        "E10": "2026-05-02 00:01:00"
      }
    },
    {
      "id": "44100006",
      "lat": 47.216,
      "lon": -1.606,
      "cp": "44100",
      "ville": "NANTES",
      "prix": {
        "Gazole": 0.00209
      },
      "maj_gouv": {
        "Gazole": "2026-05-02 00:01:00"
      }
    },
    {
      "id": "44119005",
      "lat": 47.336,
      "lon": -1.652,
      "cp": "44119",
      "ville": "TREILLIERES",
      "prix": {
        "Gazole": 0.00209,
        "E85": 0.000999,
        "GPLc": 0.001129,
        "E10": 0.00199,
        "SP98": 0.00199
      },
      "maj_gouv": {
        "Gazole": "2026-05-02 00:01:00",
        "E85": "2026-05-02 00:01:00",
        "GPLc": "2026-05-02 00:01:00",
        "E10": "2026-05-02 00:01:00",
        "SP98": "2026-05-02 00:01:00"
      }
    },
    {
      "id": "44450002",
      "lat": 47.269,
      "lon": -1.335,
      "cp": "44450",
      "ville": "LA CHAPELLE-BASSE-MER",
      "prix": {
        "Gazole": 0.002149,
        "E10": 0.002009,
        "SP98": 0.002099
      },
      "maj_gouv": {
        "Gazole": "2026-04-27 08:34:47",
        "E10": "2026-04-30 07:57:07",
        "SP98": "2026-04-27 08:34:48"
      }
    },
    {
      "id": "44450003",
      "lat": 47.248,
      "lon": -1.371,
      "cp": "44450",
      "ville": "SAINT-JULIEN-DE-CONCELLES",
      "prix": {
        "Gazole": 0.002149,
        "SP95": 0.001999,
        "SP98": 0.002069
      },
      "maj_gouv": {
        "Gazole": "2026-04-20 14:44:45",
        "SP95": "2026-04-20 14:44:45",
        "SP98": "2026-04-27 11:29:56"
      }
    },
    {
      "id": "44210004",
      "lat": 47.124357,
      "lon": -2.103635,
      "cp": "44210",
      "ville": "Pornic",
      "prix": {
        "Gazole": 0.00225,
        "E85": 0.0008489999999999999,
        "E10": 0.00199,
        "SP98": 0.00199
      },
      "maj_gouv": {
        "Gazole": "2026-04-30 07:30:26",
        "E85": "2026-04-28 07:26:11",
        "E10": "2026-04-23 07:22:53",
        "SP98": "2026-04-10 07:11:01"
      }
    },
    {
      "id": "44370005",
      "lat": 47.38927,
      "lon": -1.0203,
      "cp": "44370",
      "ville": "Varades",
      "prix": {
        "Gazole": 0.002149,
        "SP95": 0.002049,
        "E85": 0.000919,
        "GPLc": 0.001049,
        "SP98": 0.002089
      },
      "maj_gouv": {
        "Gazole": "2026-04-28 04:48:34",
        "SP95": "2026-04-30 06:05:45",
        "E85": "2026-04-10 04:53:34",
        "GPLc": "2026-04-29 06:59:17",
        "SP98": "2026-04-30 06:05:45"
      }
    },
    {
      "id": "44522002",
      "lat": 47.435,
      "lon": -1.236,
      "cp": "44522",
      "ville": "MESANGER",
      "prix": {
        "Gazole": 0.002149,
        "E85": 0.000699,
        "E10": 0.002009,
        "SP98": 0.002099
      },
      "maj_gouv": {
        "Gazole": "2026-04-30 19:40:31",
        "E85": "2026-03-25 06:26:20",
        "E10": "2026-04-30 19:40:32",
        "SP98": "2026-04-30 19:40:32"
      }
    },
    {
      "id": "44740002",
      "lat": 47.278,
      "lon": -2.468,
      "cp": "44740",
      "ville": "Batz-sur-Mer",
      "prix": {
        "Gazole": 0.002299,
        "E10": 0.002099,
        "SP98": 0.002199
      },
      "maj_gouv": {
        "Gazole": "2026-05-01 00:00:00",
        "E10": "2026-05-01 00:00:00",
        "SP98": "2026-05-01 00:00:00"
      }
    },
    {
      "id": "44120004",
      "lat": 47.162,
      "lon": -1.513,
      "cp": "44120",
      "ville": "VERTOU",
      "prix": {
        "Gazole": 0.00209,
        "E85": 0.000833,
        "GPLc": 0.001019,
        "E10": 0.00199
      },
      "maj_gouv": {
        "Gazole": "2026-05-02 00:01:00",
        "E85": "2026-05-02 00:01:00",
        "GPLc": "2026-05-02 00:01:00",
        "E10": "2026-05-02 00:01:00"
      }
    },
    {
      "id": "44150007",
      "lat": 47.373105051321,
      "lon": -1.1783565175484,
      "cp": "44150",
      "ville": "ANCENIS",
      "prix": {
        "Gazole": 0.002148,
        "E10": 0.002008,
        "SP98": 0.002098
      },
      "maj_gouv": {
        "Gazole": "2026-04-30 11:24:53",
        "E10": "2026-04-30 11:24:53",
        "SP98": "2026-04-30 11:24:53"
      }
    },
    {
      "id": "44410006",
      "lat": 47.395,
      "lon": -2.305,
      "cp": "44410",
      "ville": "Saint-Lyphard",
      "prix": {
        "Gazole": 0.002148,
        "E85": 0.0008179999999999999,
        "E10": 0.0019790000000000003,
        "SP98": 0.002062
      },
      "maj_gouv": {
        "Gazole": "2026-04-30 09:52:11",
        "E85": "2026-04-30 09:52:11",
        "E10": "2026-04-30 09:52:11",
        "SP98": "2026-04-30 09:52:11"
      }
    },
    {
      "id": "44580001",
      "lat": 47.041,
      "lon": -1.956,
      "cp": "44580",
      "ville": "Bourgneuf-en-Retz",
      "prix": {
        "Gazole": 0.00225,
        "SP95": 0.00199
      },
      "maj_gouv": {
        "Gazole": "2026-04-30 07:58:09",
        "SP95": "2026-04-30 07:58:09"
      }
    },
    {
      "id": "44370009",
      "lat": 47.419621,
      "lon": -1.0145410000000001,
      "cp": "44370",
      "ville": "VARADES",
      "prix": {
        "Gazole": 0.00209,
        "E85": 0.000999,
        "GPLc": 0.001129,
        "E10": 0.00199
      },
      "maj_gouv": {
        "Gazole": "2026-05-01 10:00:00",
        "E85": "2026-05-01 10:00:00",
        "GPLc": "2026-05-01 10:00:00",
        "E10": "2026-05-01 10:00:00"
      }
    },
    {
      "id": "44521001",
      "lat": 47.39123,
      "lon": -1.29207,
      "cp": "44521",
      "ville": "COUFFé",
      "prix": {
        "Gazole": 0.002231,
        "SP95": 0.00199
      },
      "maj_gouv": {
        "Gazole": "2026-04-29 09:37:00",
        "SP95": "2026-04-29 09:37:15"
      }
    },
    {
      "id": "44510001",
      "lat": 47.27503,
      "lon": -2.44083,
      "cp": "44510",
      "ville": "LE POULIGUEN",
      "prix": {
        "Gazole": 0.0022010000000000003,
        "E10": 0.0019790000000000003,
        "SP98": 0.002091
      },
      "maj_gouv": {
        "Gazole": "2026-04-29 09:00:00",
        "E10": "2026-04-29 09:00:00",
        "SP98": "2026-04-29 09:00:00"
      }
    },
    {
      "id": "44800004",
      "lat": 47.226,
      "lon": -1.635,
      "cp": "44800",
      "ville": "Saint-Herblain",
      "prix": {
        "Gazole": 0.002139,
        "E85": 0.000699,
        "GPLc": 0.001075,
        "E10": 0.0019690000000000003,
        "SP98": 0.002029
      },
      "maj_gouv": {
        "Gazole": "2026-05-02 01:16:00",
        "E85": "2026-05-02 01:16:00",
        "GPLc": "2026-05-02 01:16:00",
        "E10": "2026-05-02 01:16:00",
        "SP98": "2026-05-02 01:16:00"
      }
    },
    {
      "id": "44600002",
      "lat": 47.28,
      "lon": -2.228,
      "cp": "44600",
      "ville": "SAINT-NAZAIRE",
      "prix": {
        "Gazole": 0.002155,
        "E10": 0.0019950000000000002,
        "SP98": 0.002075
      },
      "maj_gouv": {
        "Gazole": "2026-04-30 05:18:39",
        "E10": "2026-04-30 05:18:39",
        "SP98": "2026-04-30 05:18:39"
      }
    },
    {
      "id": "44390004",
      "lat": 47.517434238999,
      "lon": -1.3012053214615,
      "cp": "44440",
      "ville": "Riaille",
      "prix": {
        "Gazole": 0.002169,
        "SP95": 0.0019590000000000002,
        "SP98": 0.002039
      },
      "maj_gouv": {
        "Gazole": "2026-04-18 08:36:52",
        "SP95": "2026-04-18 08:36:52",
        "SP98": "2026-04-18 08:36:52"
      }
    },
    {
      "id": "44220003",
      "lat": 47.21344,
      "lon": -1.719,
      "cp": "44220",
      "ville": "COUëRON",
      "prix": {
        "Gazole": 0.00209
      },
      "maj_gouv": {
        "Gazole": "2026-05-01 11:48:22"
      }
    },
    {
      "id": "44850001",
      "lat": 47.414,
      "lon": -1.392,
      "cp": "44850",
      "ville": "LIGNE",
      "prix": {
        "Gazole": 0.002169,
        "E85": 0.000795,
        "E10": 0.002009,
        "SP98": 0.002089
      },
      "maj_gouv": {
        "Gazole": "2026-04-30 09:23:51",
        "E85": "2026-04-30 09:23:51",
        "E10": "2026-04-30 09:23:51",
        "SP98": "2026-04-30 09:23:51"
      }
    },
    {
      "id": "44360008",
      "lat": 47.33,
      "lon": -1.781,
      "cp": "44360",
      "ville": "Vigneux-de-Bretagne",
      "prix": {
        "Gazole": 0.00209,
        "E10": 0.00199,
        "SP98": 0.00199
      },
      "maj_gouv": {
        "Gazole": "2026-05-02 00:01:00",
        "E10": "2026-05-02 00:01:00",
        "SP98": "2026-05-02 00:01:00"
      }
    },
    {
      "id": "44210002",
      "lat": 47.11293,
      "lon": -2.08468,
      "cp": "44210",
      "ville": "PORNIC",
      "prix": {
        "Gazole": 0.0021349999999999997,
        "SP95": 0.001999,
        "E85": 0.0008179999999999999,
        "GPLc": 0.000999,
        "E10": 0.001978
      },
      "maj_gouv": {
        "Gazole": "2026-04-29 11:56:42",
        "SP95": "2026-04-18 08:48:31",
        "E85": "2026-04-21 10:09:01",
        "GPLc": "2026-04-04 09:13:15",
        "E10": "2026-04-29 11:56:42"
      }
    },
    {
      "id": "44800007",
      "lat": 47.2412179839,
      "lon": -1.59335907484,
      "cp": "44800",
      "ville": "Saint-Herblain",
      "prix": {
        "Gazole": 0.00209,
        "E10": 0.00199
      },
      "maj_gouv": {
        "Gazole": "2026-05-02 00:01:00",
        "E10": "2026-05-02 00:01:00"
      }
    },
    {
      "id": "44300015",
      "lat": 47.2377,
      "lon": -1.56947,
      "cp": "44300",
      "ville": "NANTES",
      "prix": {
        "Gazole": 0.00209,
        "E85": 0.000859
      },
      "maj_gouv": {
        "Gazole": "2026-05-02 00:01:00",
        "E85": "2026-05-02 00:01:00"
      }
    },
    {
      "id": "44700002",
      "lat": 47.262,
      "lon": -1.588,
      "cp": "44700",
      "ville": "Orvault",
      "prix": {
        "Gazole": 0.002139,
        "E10": 0.001974,
        "SP98": 0.002032
      },
      "maj_gouv": {
        "Gazole": "2026-05-02 01:16:00",
        "E10": "2026-05-02 01:16:00",
        "SP98": "2026-05-02 01:16:00"
      }
    },
    {
      "id": "44000005",
      "lat": 47.23769,
      "lon": -1.53264,
      "cp": "44300",
      "ville": "Nantes",
      "prix": {
        "Gazole": 0.00225,
        "SP95": 0.001999,
        "SP98": 0.001999
      },
      "maj_gouv": {
        "Gazole": "2026-04-08 13:31:51",
        "SP95": "2026-04-08 13:31:51",
        "SP98": "2026-04-08 13:31:51"
      }
    },
    {
      "id": "44260005",
      "lat": 47.368621940000004,
      "lon": -1.96231179,
      "cp": "44260",
      "ville": "SAVENAY",
      "prix": {
        "Gazole": 0.002159,
        "E85": 0.0007289999999999999,
        "E10": 0.0019890000000000003,
        "SP98": 0.002059
      },
      "maj_gouv": {
        "Gazole": "2026-04-30 13:58:50",
        "E85": "2026-04-24 09:05:17",
        "E10": "2026-04-29 18:20:35",
        "SP98": "2026-04-29 18:20:35"
      }
    },
    {
      "id": "44170002",
      "lat": 47.564,
      "lon": -1.62,
      "cp": "44170",
      "ville": "NOZAY",
      "prix": {
        "Gazole": 0.0022400000000000002,
        "SP95": 0.00199
      },
      "maj_gouv": {
        "Gazole": "2026-04-30 11:52:30",
        "SP95": "2026-04-30 11:52:30"
      }
    },
    {
      "id": "44300017",
      "lat": 47.251,
      "lon": -1.518,
      "cp": "44300",
      "ville": "NANTES",
      "prix": {
        "Gazole": 0.002129,
        "E10": 0.0019890000000000003,
        "SP98": 0.002059
      },
      "maj_gouv": {
        "Gazole": "2026-05-02 01:17:00",
        "E10": "2026-05-02 01:17:00",
        "SP98": "2026-05-02 01:17:00"
      }
    },
    {
      "id": "44750002",
      "lat": 47.412902747675005,
      "lon": -1.9705121262687,
      "cp": "44750",
      "ville": "CAMPBON",
      "prix": {
        "Gazole": 0.002169,
        "SP95": 0.002072,
        "SP98": 0.002128
      },
      "maj_gouv": {
        "Gazole": "2026-04-30 19:31:18",
        "SP95": "2026-04-20 10:03:28",
        "SP98": "2026-04-20 10:03:28"
      }
    },
    {
      "id": "44000001",
      "lat": 47.257,
      "lon": -1.513,
      "cp": "44300",
      "ville": "NANTES",
      "prix": {
        "Gazole": 0.0021509999999999997,
        "SP95": 0.002027,
        "GPLc": 0.000999,
        "E10": 0.0019790000000000003
      },
      "maj_gouv": {
        "Gazole": "2026-04-30 08:37:38",
        "SP95": "2026-04-30 08:37:38",
        "GPLc": "2026-04-27 08:37:06",
        "E10": "2026-04-30 08:37:38"
      }
    },
    {
      "id": "44730002",
      "lat": 47.17027,
      "lon": -2.14844,
      "cp": "44730",
      "ville": "SAINT-MICHEL-CHEF-CHEF",
      "prix": {
        "Gazole": 0.002137,
        "SP95": 0.002048,
        "E10": 0.002012,
        "SP98": 0.002088
      },
      "maj_gouv": {
        "Gazole": "2026-04-30 19:27:50",
        "SP95": "2026-04-30 19:27:50",
        "E10": "2026-04-30 19:27:50",
        "SP98": "2026-04-30 19:27:50"
      }
    },
    {
      "id": "44115003",
      "lat": 47.222,
      "lon": -1.473,
      "cp": "44115",
      "ville": "Basse-Goulaine",
      "prix": {
        "Gazole": 0.00209
      },
      "maj_gouv": {
        "Gazole": "2026-05-02 00:01:00"
      }
    },
    {
      "id": "44460001",
      "lat": 47.647,
      "lon": -2.078,
      "cp": "44460",
      "ville": "Saint-Nicolas-de-Redon",
      "prix": {
        "Gazole": 0.0021190000000000002,
        "E85": 0.0007289999999999999,
        "GPLc": 0.001049,
        "E10": 0.001977,
        "SP98": 0.002059
      },
      "maj_gouv": {
        "Gazole": "2026-05-02 01:17:00",
        "E85": "2026-05-02 01:17:00",
        "GPLc": "2026-05-02 01:17:00",
        "E10": "2026-05-02 01:17:00",
        "SP98": "2026-05-02 01:17:00"
      }
    },
    {
      "id": "44250003",
      "lat": 47.242,
      "lon": -2.158,
      "cp": "44250",
      "ville": "Saint-Brevin-les-Pins",
      "prix": {
        "Gazole": 0.0021349999999999997,
        "E10": 0.001978,
        "SP98": 0.002043
      },
      "maj_gouv": {
        "Gazole": "2026-05-02 01:17:00",
        "E10": "2026-05-02 01:17:00",
        "SP98": "2026-05-02 01:17:00"
      }
    },
    {
      "id": "44300016",
      "lat": 47.241,
      "lon": -1.508,
      "cp": "44300",
      "ville": "NANTES",
      "prix": {
        "Gazole": 0.00209,
        "E85": 0.0008309999999999999,
        "GPLc": 0.000999,
        "E10": 0.00199,
        "SP98": 0.00199
      },
      "maj_gouv": {
        "Gazole": "2026-05-02 00:01:00",
        "E85": "2026-05-02 00:01:00",
        "GPLc": "2026-05-02 00:01:00",
        "E10": "2026-05-02 00:01:00",
        "SP98": "2026-05-02 00:01:00"
      }
    },
    {
      "id": "44100005",
      "lat": 47.2239,
      "lon": -1.52985,
      "cp": "44100",
      "ville": "NANTES",
      "prix": {
        "Gazole": 0.00209,
        "E85": 0.000858,
        "E10": 0.00199,
        "SP98": 0.00199
      },
      "maj_gouv": {
        "Gazole": "2026-05-02 00:01:00",
        "E85": "2026-05-02 00:01:00",
        "E10": "2026-05-02 00:01:00",
        "SP98": "2026-05-02 00:01:00"
      }
    },
    {
      "id": "44200002",
      "lat": 47.125,
      "lon": -2.123,
      "cp": "44210",
      "ville": "Pornic",
      "prix": {
        "Gazole": 0.0021349999999999997,
        "E10": 0.001978,
        "SP98": 0.00204
      },
      "maj_gouv": {
        "Gazole": "2026-05-02 01:16:00",
        "E10": "2026-05-02 01:16:00",
        "SP98": "2026-05-02 01:16:00"
      }
    },
    {
      "id": "44710002",
      "lat": 47.131,
      "lon": -1.753,
      "cp": "44710",
      "ville": "PORT SAINT-PERE",
      "prix": {},
      "maj_gouv": {}
    },
    {
      "id": "44100004",
      "lat": 47.214,
      "lon": -1.586,
      "cp": "44100",
      "ville": "NANTES",
      "prix": {
        "Gazole": 0.002299,
        "E10": 0.002069,
        "SP98": 0.002199
      },
      "maj_gouv": {
        "Gazole": "2026-04-30 17:02:40",
        "E10": "2026-04-30 17:02:41",
        "SP98": "2026-04-30 17:02:41"
      }
    },
    {
      "id": "44412001",
      "lat": 47.16,
      "lon": -1.545,
      "cp": "44400",
      "ville": "REZé",
      "prix": {
        "Gazole": 0.002155,
        "GPLc": 0.000999,
        "E10": 0.002009,
        "SP98": 0.002029
      },
      "maj_gouv": {
        "Gazole": "2026-05-02 01:17:00",
        "GPLc": "2026-05-02 01:17:00",
        "E10": "2026-05-02 01:17:00",
        "SP98": "2026-05-02 01:17:00"
      }
    },
    {
      "id": "44110003",
      "lat": 47.706,
      "lon": -1.388,
      "cp": "44110",
      "ville": "CHâTEAUBRIANT",
      "prix": {
        "Gazole": 0.0021190000000000002,
        "GPLc": 0.0009270000000000001,
        "E10": 0.001956,
        "SP98": 0.0020369999999999997
      },
      "maj_gouv": {
        "Gazole": "2026-05-02 01:17:00",
        "GPLc": "2026-05-02 01:17:00",
        "E10": "2026-05-02 01:17:00",
        "SP98": "2026-05-02 01:17:00"
      }
    },
    {
      "id": "44210003",
      "lat": 47.12229,
      "lon": -2.11717,
      "cp": "44210",
      "ville": "PORNIC",
      "prix": {
        "Gazole": 0.0021349999999999997,
        "E85": 0.0008100000000000001,
        "E10": 0.001978,
        "SP98": 0.00204
      },
      "maj_gouv": {
        "Gazole": "2026-04-29 10:05:33",
        "E85": "2026-04-28 08:51:39",
        "E10": "2026-04-29 10:05:33",
        "SP98": "2026-04-29 10:05:33"
      }
    },
    {
      "id": "44240011",
      "lat": 47.256759,
      "lon": -1.546015,
      "cp": "44240",
      "ville": "La Chapelle-sur-Erdre",
      "prix": {
        "Gazole": 0.00209,
        "E85": 0.0008349999999999999,
        "GPLc": 0.001014,
        "E10": 0.00199,
        "SP98": 0.00199
      },
      "maj_gouv": {
        "Gazole": "2026-05-02 00:01:00",
        "E85": "2026-05-02 00:01:00",
        "GPLc": "2026-05-02 00:01:00",
        "E10": "2026-05-02 00:01:00",
        "SP98": "2026-05-02 00:01:00"
      }
    },
    {
      "id": "44380001",
      "lat": 47.258,
      "lon": -2.318,
      "cp": "44380",
      "ville": "PORNICHET",
      "prix": {
        "Gazole": 0.002149,
        "SP95": 0.002027,
        "SP98": 0.00211
      },
      "maj_gouv": {
        "Gazole": "2026-04-27 12:39:35",
        "SP95": "2026-04-27 12:39:35",
        "SP98": "2026-04-27 12:39:35"
      }
    },
    {
      "id": "44330003",
      "lat": 47.158229280939,
      "lon": -1.2747920508980999,
      "cp": "44330",
      "ville": "Vallet",
      "prix": {
        "Gazole": 0.002142,
        "SP95": 0.002009,
        "E85": 0.0007289999999999999,
        "GPLc": 0.000999,
        "E10": 0.001998,
        "SP98": 0.002049
      },
      "maj_gouv": {
        "Gazole": "2026-04-30 09:15:00",
        "SP95": "2026-04-30 09:15:00",
        "E85": "2026-04-21 09:15:00",
        "GPLc": "2026-04-14 09:15:00",
        "E10": "2026-04-30 09:15:00",
        "SP98": "2026-04-30 09:15:00"
      }
    },
    {
      "id": "44000006",
      "lat": 47.24459,
      "lon": -1.53364,
      "cp": "44300",
      "ville": "Nantes",
      "prix": {
        "Gazole": 0.0021219999999999998,
        "E85": 0.000819,
        "E10": 0.001946,
        "SP98": 0.002055
      },
      "maj_gouv": {
        "Gazole": "2026-04-30 09:07:20",
        "E85": "2026-04-30 09:07:20",
        "E10": "2026-04-30 09:07:20",
        "SP98": "2026-04-30 09:07:20"
      }
    },
    {
      "id": "44000010",
      "lat": 47.247,
      "lon": -1.555,
      "cp": "44000",
      "ville": "NANTES",
      "prix": {
        "Gazole": 0.00209
      },
      "maj_gouv": {
        "Gazole": "2026-05-02 00:01:00"
      }
    },
    {
      "id": "44300018",
      "lat": 47.248,
      "lon": -1.512,
      "cp": "44300",
      "ville": "NANTES",
      "prix": {
        "Gazole": 0.002129,
        "E10": 0.0019890000000000003,
        "SP98": 0.002059
      },
      "maj_gouv": {
        "Gazole": "2026-05-02 01:17:00",
        "E10": "2026-05-02 01:17:00",
        "SP98": "2026-05-02 01:17:00"
      }
    },
    {
      "id": "44260006",
      "lat": 47.362,
      "lon": -1.956,
      "cp": "44260",
      "ville": "Savenay",
      "prix": {
        "Gazole": 0.002219,
        "GPLc": 0.0010689999999999999,
        "E10": 0.002029,
        "SP98": 0.002139
      },
      "maj_gouv": {
        "Gazole": "2026-04-30 18:57:00",
        "GPLc": "2026-04-20 08:31:00",
        "E10": "2026-04-30 18:57:00",
        "SP98": "2026-04-30 18:57:00"
      }
    },
    {
      "id": "44130003",
      "lat": 47.476,
      "lon": -1.75,
      "cp": "44130",
      "ville": "BLAIN",
      "prix": {
        "Gazole": 0.002134,
        "E85": 0.000699,
        "E10": 0.001978,
        "SP98": 0.002058
      },
      "maj_gouv": {
        "Gazole": "2026-05-02 01:17:00",
        "E85": "2026-05-02 01:17:00",
        "E10": "2026-05-02 01:17:00",
        "SP98": "2026-05-02 01:17:00"
      }
    },
    {
      "id": "44802001",
      "lat": 47.222,
      "lon": -1.606,
      "cp": "44800",
      "ville": "SAINT-HERBLAIN",
      "prix": {
        "Gazole": 0.002121,
        "SP95": 0.002052,
        "E85": 0.000699,
        "E10": 0.001965,
        "SP98": 0.002121
      },
      "maj_gouv": {
        "Gazole": "2026-05-01 08:18:00",
        "SP95": "2026-05-01 08:18:00",
        "E85": "2026-05-01 08:18:00",
        "E10": "2026-05-01 08:18:00",
        "SP98": "2026-05-01 08:18:00"
      }
    },
    {
      "id": "44272001",
      "lat": 47.206,
      "lon": -1.535,
      "cp": "44200",
      "ville": "NANTES",
      "prix": {
        "Gazole": 0.0022010000000000003,
        "SP95": 0.002022,
        "E85": 0.000834,
        "E10": 0.0019850000000000002,
        "SP98": 0.002111
      },
      "maj_gouv": {
        "Gazole": "2026-04-29 15:30:00",
        "SP95": "2026-04-29 15:30:00",
        "E85": "2026-04-29 15:30:00",
        "E10": "2026-04-29 15:30:00",
        "SP98": "2026-04-29 15:30:00"
      }
    },
    {
      "id": "44540001",
      "lat": 47.53,
      "lon": -1.186,
      "cp": "44540",
      "ville": "SAINT-MARS-LA-JAILLE",
      "prix": {
        "Gazole": 0.002159,
        "E85": 0.000749,
        "E10": 0.001999,
        "SP98": 0.002079
      },
      "maj_gouv": {
        "Gazole": "2026-04-27 09:00:36",
        "E85": "2026-02-25 08:38:38",
        "E10": "2026-04-29 10:45:18",
        "SP98": "2026-04-27 09:00:44"
      }
    },
    {
      "id": "44116001",
      "lat": 46.971,
      "lon": -1.434,
      "cp": "44116",
      "ville": "VIEILLEVIGNE",
      "prix": {
        "Gazole": 0.002142,
        "E85": 0.0008179999999999999,
        "E10": 0.001952,
        "SP98": 0.002042
      },
      "maj_gouv": {
        "Gazole": "2026-04-29 08:22:10",
        "E85": "2026-04-28 10:14:01",
        "E10": "2026-04-29 08:22:10",
        "SP98": "2026-04-27 08:57:16"
      }
    },
    {
      "id": "44600007",
      "lat": 47.29,
      "lon": -2.257,
      "cp": "44600",
      "ville": "SAINT-NAZAIRE",
      "prix": {
        "Gazole": 0.002154,
        "E85": 0.000847,
        "GPLc": 0.0010509999999999999,
        "E10": 0.0019890000000000003,
        "SP98": 0.002052
      },
      "maj_gouv": {
        "Gazole": "2026-05-02 01:17:00",
        "E85": "2026-05-02 01:17:00",
        "GPLc": "2026-05-02 01:17:00",
        "E10": "2026-05-02 01:17:00",
        "SP98": "2026-05-02 01:17:00"
      }
    },
    {
      "id": "44160005",
      "lat": 47.436,
      "lon": -2.077,
      "cp": "44160",
      "ville": "Sainte-Anne-sur-Brivet",
      "prix": {
        "Gazole": 0.002159,
        "E85": 0.0007289999999999999,
        "E10": 0.0019890000000000003,
        "SP98": 0.002059
      },
      "maj_gouv": {
        "Gazole": "2026-04-30 11:58:11",
        "E85": "2026-04-29 18:00:49",
        "E10": "2026-04-29 18:00:49",
        "SP98": "2026-04-29 18:00:49"
      }
    },
    {
      "id": "44380007",
      "lat": 47.265467051322005,
      "lon": -2.3335748698712,
      "cp": "44380",
      "ville": "PORNICHET",
      "prix": {
        "Gazole": 0.002199,
        "SP95": 0.002019,
        "E85": 0.000819,
        "E10": 0.001999,
        "SP98": 0.002099
      },
      "maj_gouv": {
        "Gazole": "2026-04-21 08:18:17",
        "SP95": "2026-04-28 08:02:02",
        "E85": "2026-04-17 07:57:05",
        "E10": "2026-04-30 08:45:56",
        "SP98": "2026-04-23 08:16:51"
      }
    },
    {
      "id": "44110005",
      "lat": 47.719,
      "lon": -1.364,
      "cp": "44110",
      "ville": "CHâTEAUBRIANT",
      "prix": {
        "Gazole": 0.002401,
        "SP95": 0.0022029999999999997,
        "SP98": 0.002175
      },
      "maj_gouv": {
        "Gazole": "2026-04-16 09:54:44",
        "SP95": "2026-04-08 10:03:08",
        "SP98": "2026-04-23 08:50:15"
      }
    },
    {
      "id": "44340005",
      "lat": 47.167,
      "lon": -1.575,
      "cp": "44340",
      "ville": "BOUGUENAIS",
      "prix": {
        "Gazole": 0.00209,
        "GPLc": 0.000999
      },
      "maj_gouv": {
        "Gazole": "2026-05-02 00:01:00",
        "GPLc": "2026-05-02 00:01:00"
      }
    },
    {
      "id": "44290002",
      "lat": 47.628,
      "lon": -1.831,
      "cp": "44290",
      "ville": "Guémené-Penfao",
      "prix": {
        "Gazole": 0.00225,
        "E10": 0.00199,
        "SP98": 0.00199
      },
      "maj_gouv": {
        "Gazole": "2026-04-30 07:16:13",
        "E10": "2026-04-24 08:40:49",
        "SP98": "2026-04-24 08:40:49"
      }
    },
    {
      "id": "44580002",
      "lat": 47.04693,
      "lon": -1.95644,
      "cp": "44580",
      "ville": "BOURGNEUF-EN-RETZ",
      "prix": {
        "Gazole": 0.002159,
        "E10": 0.002029,
        "SP98": 0.002109
      },
      "maj_gouv": {
        "Gazole": "2026-04-29 10:17:11",
        "E10": "2026-04-29 10:17:12",
        "SP98": "2026-04-30 06:56:46"
      }
    },
    {
      "id": "44119004",
      "lat": 47.33220773084601,
      "lon": -1.6174122928930001,
      "cp": "44119",
      "ville": "TREILLIèRES",
      "prix": {
        "Gazole": 0.002139,
        "E85": 0.000699,
        "E10": 0.0019890000000000003,
        "SP98": 0.002065
      },
      "maj_gouv": {
        "Gazole": "2026-04-30 10:31:33",
        "E85": "2026-02-25 12:16:36",
        "E10": "2026-04-28 06:37:56",
        "SP98": "2026-04-30 17:12:54"
      }
    },
    {
      "id": "44310001",
      "lat": 47.04729577,
      "lon": -1.6403904800000002,
      "cp": "44310",
      "ville": "SAINT-PHILBERT-DE-GRAND-LIEU",
      "prix": {
        "Gazole": 0.002149,
        "GPLc": 0.000999,
        "E10": 0.0019890000000000003,
        "SP98": 0.002069
      },
      "maj_gouv": {
        "Gazole": "2026-04-30 07:57:25",
        "GPLc": "2026-04-30 07:57:25",
        "E10": "2026-04-30 07:57:25",
        "SP98": "2026-04-30 07:57:25"
      }
    },
    {
      "id": "44230004",
      "lat": 47.199,
      "lon": -1.519,
      "cp": "44230",
      "ville": "SAINT-SéBASTIEN-SUR-LOIRE",
      "prix": {
        "Gazole": 0.002134,
        "E10": 0.002009,
        "SP98": 0.0020670000000000003
      },
      "maj_gouv": {
        "Gazole": "2026-04-30 12:39:44",
        "E10": "2026-04-30 12:39:44",
        "SP98": "2026-04-30 12:39:44"
      }
    },
    {
      "id": "44800001",
      "lat": 47.247,
      "lon": -1.606,
      "cp": "44800",
      "ville": "SAINT-HERBLAIN",
      "prix": {
        "Gazole": 0.002149,
        "E85": 0.000819,
        "GPLc": 0.000985,
        "E10": 0.001984,
        "SP98": 0.002042
      },
      "maj_gouv": {
        "Gazole": "2026-04-29 11:11:52",
        "E85": "2026-04-24 10:29:19",
        "GPLc": "2026-04-24 10:29:19",
        "E10": "2026-04-30 14:25:52",
        "SP98": "2026-04-30 14:25:52"
      }
    },
    {
      "id": "44360005",
      "lat": 47.32,
      "lon": -1.738,
      "cp": "44360",
      "ville": "Vigneux-de-Bretagne",
      "prix": {
        "Gazole": 0.002175,
        "E10": 0.0020499999999999997,
        "SP98": 0.00212
      },
      "maj_gouv": {
        "Gazole": "2026-04-28 07:56:25",
        "E10": "2026-04-28 07:56:26",
        "SP98": "2026-04-28 07:56:26"
      }
    },
    {
      "id": "44190002",
      "lat": 47.098,
      "lon": -1.296,
      "cp": "44190",
      "ville": "GORGES",
      "prix": {},
      "maj_gouv": {}
    },
    {
      "id": "44400005",
      "lat": 47.155,
      "lon": -1.537,
      "cp": "44400",
      "ville": "Rezé",
      "prix": {
        "Gazole": 0.002191
      },
      "maj_gouv": {
        "Gazole": "2026-04-30 00:01:00"
      }
    },
    {
      "id": "44190001",
      "lat": 47.084,
      "lon": -1.263,
      "cp": "44190",
      "ville": "GETIGNE",
      "prix": {
        "Gazole": 0.0021309999999999996,
        "SP95": 0.00202,
        "E10": 0.001987,
        "SP98": 0.002058
      },
      "maj_gouv": {
        "Gazole": "2026-04-30 08:55:00",
        "SP95": "2026-04-30 08:55:00",
        "E10": "2026-04-30 08:55:00",
        "SP98": "2026-04-30 08:55:00"
      }
    },
    {
      "id": "44570007",
      "lat": 47.305033,
      "lon": -2.212259,
      "cp": "44570",
      "ville": "TRIGNAC",
      "prix": {
        "Gazole": 0.002319,
        "E85": 0.0009649999999999999,
        "GPLc": 0.001059,
        "E10": 0.0021190000000000002,
        "SP98": 0.002199
      },
      "maj_gouv": {
        "Gazole": "2026-04-29 21:01:00",
        "E85": "2026-04-29 21:01:00",
        "GPLc": "2026-04-29 21:01:00",
        "E10": "2026-04-29 21:01:00",
        "SP98": "2026-04-29 21:01:00"
      }
    },
    {
      "id": "44600011",
      "lat": 47.258910992176,
      "lon": -2.2650246791612,
      "cp": "44600",
      "ville": "ST NAZAIRE",
      "prix": {
        "Gazole": 0.002155,
        "E85": 0.000851,
        "GPLc": 0.001009,
        "E10": 0.00199,
        "SP98": 0.002075
      },
      "maj_gouv": {
        "Gazole": "2026-04-30 07:50:00",
        "E85": "2026-04-28 07:55:56",
        "GPLc": "2026-04-23 07:39:33",
        "E10": "2026-04-30 07:50:00",
        "SP98": "2026-04-30 07:50:00"
      }
    },
    {
      "id": "44150004",
      "lat": 47.373,
      "lon": -1.185,
      "cp": "44150",
      "ville": "ANCENIS",
      "prix": {
        "Gazole": 0.002149,
        "E10": 0.002009,
        "SP98": 0.002099
      },
      "maj_gouv": {
        "Gazole": "2026-04-30 08:48:30",
        "E10": "2026-04-29 08:37:13",
        "SP98": "2026-04-27 09:37:40"
      }
    },
    {
      "id": "44770001",
      "lat": 47.141,
      "lon": -2.189,
      "cp": "44770",
      "ville": "LA PLAINE-SUR-MER",
      "prix": {
        "Gazole": 0.002199,
        "E85": 0.000819,
        "E10": 0.0019690000000000003,
        "SP98": 0.002079
      },
      "maj_gouv": {
        "Gazole": "2026-04-30 08:44:29",
        "E85": "2026-04-21 10:34:11",
        "E10": "2026-04-30 08:44:29",
        "SP98": "2026-04-30 08:44:29"
      }
    },
    {
      "id": "44500004",
      "lat": 47.287,
      "lon": -2.381,
      "cp": "44500",
      "ville": "LA BAULE-ESCOUBLAC",
      "prix": {
        "Gazole": 0.002399,
        "E10": 0.002099,
        "SP98": 0.002219
      },
      "maj_gouv": {
        "Gazole": "2026-04-30 11:18:59",
        "E10": "2026-04-30 11:18:59",
        "SP98": "2026-04-30 11:18:59"
      }
    },
    {
      "id": "44119006",
      "lat": 47.357050659966006,
      "lon": -1.6016296214263999,
      "cp": "44119",
      "ville": "Grandchamp-des-Fontaines",
      "prix": {
        "Gazole": 0.002197,
        "E10": 0.001961,
        "SP98": 0.002065
      },
      "maj_gouv": {
        "Gazole": "2026-04-28 07:35:18",
        "E10": "2026-04-28 07:35:18",
        "SP98": "2026-04-28 07:35:18"
      }
    },
    {
      "id": "44550001",
      "lat": 47.327,
      "lon": -2.152,
      "cp": "44550",
      "ville": "MONTOIR-DE-BRETAGNE",
      "prix": {
        "Gazole": 0.0021509999999999997,
        "E85": 0.000846,
        "E10": 0.0019890000000000003,
        "SP98": 0.002069
      },
      "maj_gouv": {
        "Gazole": "2026-04-30 08:34:13",
        "E85": "2026-04-22 08:58:23",
        "E10": "2026-04-30 08:34:13",
        "SP98": "2026-04-30 08:34:13"
      }
    },
    {
      "id": "44230002",
      "lat": 47.209033556831,
      "lon": -1.5109141112012,
      "cp": "44230",
      "ville": "Saint-Sébastien-sur-Loire",
      "prix": {
        "Gazole": 0.002169,
        "SP95": 0.002039,
        "E10": 0.002009,
        "SP98": 0.002059
      },
      "maj_gouv": {
        "Gazole": "2026-04-30 09:15:00",
        "SP95": "2026-04-30 09:15:00",
        "E10": "2026-04-30 09:15:00",
        "SP98": "2026-04-30 09:15:00"
      }
    },
    {
      "id": "44350006",
      "lat": 47.304,
      "lon": -2.409,
      "cp": "44350",
      "ville": "GUéRANDE",
      "prix": {
        "Gazole": 0.002199,
        "E85": 0.000819,
        "E10": 0.001999,
        "SP98": 0.00212
      },
      "maj_gouv": {
        "Gazole": "2026-04-30 08:53:11",
        "E85": "2026-04-17 11:42:20",
        "E10": "2026-04-29 11:17:58",
        "SP98": "2026-04-30 08:53:11"
      }
    },
    {
      "id": "44600009",
      "lat": 47.271,
      "lon": -2.25,
      "cp": "44600",
      "ville": "Saint-Nazaire",
      "prix": {
        "Gazole": 0.00209,
        "E85": 0.000851,
        "GPLc": 0.001009,
        "E10": 0.00199
      },
      "maj_gouv": {
        "Gazole": "2026-05-02 00:01:00",
        "E85": "2026-05-02 00:01:00",
        "GPLc": "2026-05-02 00:01:00",
        "E10": "2026-05-02 00:01:00"
      }
    },
    {
      "id": "44140002",
      "lat": 47.055,
      "lon": -1.511,
      "cp": "44140",
      "ville": "Geneston",
      "prix": {
        "Gazole": 0.002182,
        "E85": 0.0008179999999999999,
        "E10": 0.001974,
        "SP98": 0.0020859999999999997
      },
      "maj_gouv": {
        "Gazole": "2026-04-30 07:28:12",
        "E85": "2026-04-30 07:28:12",
        "E10": "2026-04-30 07:28:12",
        "SP98": "2026-04-30 07:28:13"
      }
    },
    {
      "id": "44350007",
      "lat": 47.39,
      "lon": -2.432,
      "cp": "44350",
      "ville": "Saint-Molf",
      "prix": {
        "Gazole": 0.002159,
        "E85": 0.0008179999999999999,
        "E10": 0.001938,
        "SP98": 0.002088
      },
      "maj_gouv": {
        "Gazole": "2026-04-29 18:58:13",
        "E85": "2026-04-29 18:58:13",
        "E10": "2026-04-29 18:58:14",
        "SP98": "2026-04-29 18:58:14"
      }
    },
    {
      "id": "44110001",
      "lat": 47.716,
      "lon": -1.392,
      "cp": "44110",
      "ville": "Châteaubriant",
      "prix": {
        "Gazole": 0.002169,
        "SP95": 0.002059,
        "E10": 0.0019890000000000003
      },
      "maj_gouv": {
        "Gazole": "2026-04-30 08:11:33",
        "SP95": "2026-04-30 08:11:33",
        "E10": "2026-04-30 08:11:33"
      }
    },
    {
      "id": "44330001",
      "lat": 47.17,
      "lon": -1.267,
      "cp": "44330",
      "ville": "Vallet",
      "prix": {
        "Gazole": 0.002142,
        "SP95": 0.002009,
        "SP98": 0.002049
      },
      "maj_gouv": {
        "Gazole": "2026-04-30 09:15:00",
        "SP95": "2026-04-30 09:15:00",
        "SP98": "2026-04-30 09:15:00"
      }
    },
    {
      "id": "44140004",
      "lat": 47.082,
      "lon": -1.412,
      "cp": "44140",
      "ville": "Aigrefeuille-sur-Maine",
      "prix": {
        "Gazole": 0.00215,
        "E10": 0.00196,
        "SP98": 0.002075
      },
      "maj_gouv": {
        "Gazole": "2026-04-30 12:50:17",
        "E10": "2026-04-30 12:50:17",
        "SP98": "2026-04-30 12:50:18"
      }
    },
    {
      "id": "44140006",
      "lat": 47.052,
      "lon": -1.509,
      "cp": "44140",
      "ville": "Geneston",
      "prix": {
        "E10": 0.001986
      },
      "maj_gouv": {
        "E10": "2026-04-29 11:16:26"
      }
    },
    {
      "id": "44150003",
      "lat": 47.373,
      "lon": -1.194,
      "cp": "44150",
      "ville": "ANCENIS",
      "prix": {
        "Gazole": 0.002124,
        "SP95": 0.002047,
        "E85": 0.000795,
        "E10": 0.001986,
        "SP98": 0.002069
      },
      "maj_gouv": {
        "Gazole": "2026-05-02 01:17:00",
        "SP95": "2026-05-02 01:17:00",
        "E85": "2026-05-02 01:17:00",
        "E10": "2026-05-02 01:17:00",
        "SP98": "2026-05-02 01:17:00"
      }
    },
    {
      "id": "44190004",
      "lat": 47.078,
      "lon": -1.24,
      "cp": "44190",
      "ville": "GéTIGNé",
      "prix": {
        "Gazole": 0.00209,
        "E85": 0.000879,
        "E10": 0.00199,
        "SP98": 0.00199
      },
      "maj_gouv": {
        "Gazole": "2026-05-01 09:37:55",
        "E85": "2026-04-02 09:17:17",
        "E10": "2026-04-23 08:57:00",
        "SP98": "2026-04-07 18:53:00"
      }
    },
    {
      "id": "44370003",
      "lat": 47.3863,
      "lon": -1.03342,
      "cp": "44370",
      "ville": "Varades",
      "prix": {
        "SP95": 0.00199,
        "SP98": 0.00199
      },
      "maj_gouv": {
        "SP95": "2026-03-24 08:10:41",
        "SP98": "2026-03-20 07:32:21"
      }
    },
    {
      "id": "44350004",
      "lat": 47.32944,
      "lon": -2.41115,
      "cp": "44350",
      "ville": "Guérande",
      "prix": {
        "Gazole": 0.002141,
        "GPLc": 0.0010689999999999999,
        "E10": 0.001984,
        "SP98": 0.002062
      },
      "maj_gouv": {
        "Gazole": "2026-04-30 09:17:36",
        "GPLc": "2026-04-15 08:00:00",
        "E10": "2026-04-30 09:17:36",
        "SP98": "2026-04-30 09:17:36"
      }
    },
    {
      "id": "44420004",
      "lat": 47.348292,
      "lon": -2.5016629999999997,
      "cp": "44420",
      "ville": "LA TURBALLE",
      "prix": {
        "Gazole": 0.00225,
        "E10": 0.00199,
        "SP98": 0.00199
      },
      "maj_gouv": {
        "Gazole": "2026-04-28 07:08:04",
        "E10": "2026-04-28 07:08:04",
        "SP98": "2026-04-28 07:08:04"
      }
    },
    {
      "id": "44340011",
      "lat": 47.16772400000001,
      "lon": -1.643608,
      "cp": "44340",
      "ville": "BOUGUENAIS",
      "prix": {
        "Gazole": 0.0022789999999999998,
        "E85": 0.0009649999999999999,
        "E10": 0.002069,
        "SP98": 0.002149
      },
      "maj_gouv": {
        "Gazole": "2026-04-27 23:43:12",
        "E85": "2026-04-27 23:43:12",
        "E10": "2026-04-27 23:43:12",
        "SP98": "2026-04-27 23:43:12"
      }
    },
    {
      "id": "44360009",
      "lat": 47.274,
      "lon": -1.78,
      "cp": "44360",
      "ville": "Saint-Étienne-de-Montluc",
      "prix": {
        "Gazole": 0.00209,
        "E10": 0.00199
      },
      "maj_gouv": {
        "Gazole": "2026-05-01 08:24:22",
        "E10": "2026-04-24 08:47:48"
      }
    },
    {
      "id": "44640002",
      "lat": 47.198,
      "lon": -1.758,
      "cp": "44640",
      "ville": "LE PELLERIN",
      "prix": {
        "Gazole": 0.002149,
        "E10": 0.001999,
        "SP98": 0.002079
      },
      "maj_gouv": {
        "Gazole": "2026-04-30 10:29:45",
        "E10": "2026-04-30 10:29:45",
        "SP98": "2026-04-30 10:29:45"
      }
    },
    {
      "id": "44160003",
      "lat": 47.432,
      "lon": -2.083,
      "cp": "44160",
      "ville": "Pontchâteau",
      "prix": {
        "Gazole": 0.002159,
        "GPLc": 0.001099,
        "E10": 0.0019890000000000003,
        "SP98": 0.002059
      },
      "maj_gouv": {
        "Gazole": "2026-04-30 11:58:37",
        "GPLc": "2026-04-23 18:00:00",
        "E10": "2026-04-29 18:01:40",
        "SP98": "2026-04-29 18:01:40"
      }
    },
    {
      "id": "44470002",
      "lat": 47.262,
      "lon": -1.447,
      "cp": "44470",
      "ville": "Thouaré-sur-Loire",
      "prix": {
        "Gazole": 0.002179,
        "SP95": 0.002049,
        "E10": 0.002019,
        "SP98": 0.002099
      },
      "maj_gouv": {
        "Gazole": "2026-04-30 12:20:00",
        "SP95": "2026-04-30 12:20:00",
        "E10": "2026-04-30 12:20:00",
        "SP98": "2026-04-30 12:20:00"
      }
    },
    {
      "id": "44390003",
      "lat": 47.437,
      "lon": -1.517,
      "cp": "44390",
      "ville": "Nort-sur-Erdre",
      "prix": {
        "Gazole": 0.002179,
        "E10": 0.002029,
        "SP98": 0.0021190000000000002
      },
      "maj_gouv": {
        "Gazole": "2026-04-30 13:00:00",
        "E10": "2026-04-30 13:00:00",
        "SP98": "2026-04-30 13:00:00"
      }
    },
    {
      "id": "44840002",
      "lat": 47.159,
      "lon": -1.513,
      "cp": "44840",
      "ville": "LES SORINIERES",
      "prix": {
        "Gazole": 0.00209,
        "E85": 0.000829,
        "GPLc": 0.001019,
        "E10": 0.00199
      },
      "maj_gouv": {
        "Gazole": "2026-05-02 00:01:00",
        "E85": "2026-05-02 00:01:00",
        "GPLc": "2026-05-02 00:01:00",
        "E10": "2026-05-02 00:01:00"
      }
    },
    {
      "id": "44130004",
      "lat": 47.476667007029,
      "lon": -1.7614514139338,
      "cp": "44130",
      "ville": "BLAIN",
      "prix": {
        "Gazole": 0.00225,
        "E10": 0.00199,
        "SP98": 0.00199
      },
      "maj_gouv": {
        "Gazole": "2026-04-30 07:54:20",
        "E10": "2026-04-28 08:10:39",
        "SP98": "2026-04-28 08:10:39"
      }
    },
    {
      "id": "44119008",
      "lat": 47.33780346813,
      "lon": -1.6548672204172,
      "cp": "44119",
      "ville": "Treillieres",
      "prix": {},
      "maj_gouv": {}
    },
    {
      "id": "44680001",
      "lat": 47.10399,
      "lon": -1.80297,
      "cp": "44680",
      "ville": "SAINTE-PAZANNE",
      "prix": {
        "Gazole": 0.002149,
        "E10": 0.001999,
        "SP98": 0.002069
      },
      "maj_gouv": {
        "Gazole": "2026-04-27 08:55:06",
        "E10": "2026-04-29 08:46:23",
        "SP98": "2026-04-27 08:55:06"
      }
    },
    {
      "id": "44360010",
      "lat": 47.270007987698,
      "lon": -1.7750433764143,
      "cp": "44360",
      "ville": "Saint-Étienne-de-Montluc",
      "prix": {
        "Gazole": 0.002149,
        "SP95": 0.001999,
        "E85": 0.000709,
        "GPLc": 0.0010689999999999999,
        "E10": 0.0019890000000000003,
        "SP98": 0.002059
      },
      "maj_gouv": {
        "Gazole": "2026-04-29 10:07:16",
        "SP95": "2026-04-25 08:10:37",
        "E85": "2026-04-21 09:01:03",
        "GPLc": "2026-04-22 10:23:57",
        "E10": "2026-04-30 15:22:16",
        "SP98": "2026-04-30 15:22:17"
      }
    },
    {
      "id": "44600010",
      "lat": 47.287,
      "lon": -2.299,
      "cp": "44600",
      "ville": "SAINT NAZAIRE",
      "prix": {
        "Gazole": 0.00209,
        "E85": 0.000848,
        "E10": 0.00199
      },
      "maj_gouv": {
        "Gazole": "2026-05-02 00:01:00",
        "E85": "2026-05-02 00:01:00",
        "E10": "2026-05-02 00:01:00"
      }
    },
    {
      "id": "44590002",
      "lat": 47.648,
      "lon": -1.669,
      "cp": "44590",
      "ville": "Derval",
      "prix": {
        "Gazole": 0.002399
      },
      "maj_gouv": {
        "Gazole": "2026-04-14 12:07:42"
      }
    },
    {
      "id": "44620002",
      "lat": 47.176,
      "lon": -1.678,
      "cp": "44620",
      "ville": "La Montagne",
      "prix": {
        "Gazole": 0.002155,
        "SP95": 0.002042,
        "E85": 0.000799,
        "GPLc": 0.000999,
        "E10": 0.002009,
        "SP98": 0.002055
      },
      "maj_gouv": {
        "Gazole": "2026-04-30 08:04:31",
        "SP95": "2026-04-30 08:04:31",
        "E85": "2026-04-29 08:03:09",
        "GPLc": "2026-04-27 08:07:09",
        "E10": "2026-04-30 08:04:32",
        "SP98": "2026-04-30 08:04:32"
      }
    },
    {
      "id": "44540002",
      "lat": 47.516056,
      "lon": -1.187332,
      "cp": "44540",
      "ville": "ANGERS",
      "prix": {
        "Gazole": 0.0022,
        "SP95": 0.0019399999999999999
      },
      "maj_gouv": {
        "Gazole": "2026-04-23 12:13:51",
        "SP95": "2026-04-23 12:13:51"
      }
    }
  ]
}