{
  "departement": "15",
  "date": "2026-05-22",
  "stations": [
    {
      "id": "15290001",
      "lat": 44.855,
      "lon": 2.233,
      "cp": "15290",
      "ville": "Le Rouget",
      "prix": {
        "Gazole": 0.002145,
        "E10": 0.002125,
        "SP98": 0.002185
      },
      "maj_gouv": {
        "Gazole": "2026-05-21 07:41:14",
        "E10": "2026-05-21 07:41:14",
        "SP98": "2026-05-21 07:41:14"
      }
    },
    {
      "id": "15200004",
      "lat": 45.222,
      "lon": 2.34,
      "cp": "15200",
      "ville": "Mauriac",
      "prix": {
        "Gazole": 0.002165,
        "E10": 0.0020729999999999998,
        "SP98": 0.0021920000000000004
      },
      "maj_gouv": {
        "Gazole": "2026-05-16 10:11:46",
        "E10": "2026-05-16 10:11:46",
        "SP98": "2026-05-16 10:11:46"
      }
    },
    {
      "id": "15700001",
      "lat": 45.133,
      "lon": 2.22,
      "cp": "15700",
      "ville": "PLEAUX",
      "prix": {
        "Gazole": 0.00227,
        "E10": 0.00221,
        "SP98": 0.00232
      },
      "maj_gouv": {
        "Gazole": "2026-05-20 18:48:29",
        "E10": "2026-05-20 18:48:29",
        "SP98": "2026-05-20 18:48:30"
      }
    },
    {
      "id": "15100013",
      "lat": 45.031,
      "lon": 3.093,
      "cp": "15100",
      "ville": "Saint-Flour",
      "prix": {
        "Gazole": 0.002159
      },
      "maj_gouv": {
        "Gazole": "2026-05-21 07:16:54"
      }
    },
    {
      "id": "15600001",
      "lat": 44.706,
      "lon": 2.195,
      "cp": "15600",
      "ville": "MAURS",
      "prix": {
        "Gazole": 0.00218,
        "GPLc": 0.00114,
        "E10": 0.00199
      },
      "maj_gouv": {
        "Gazole": "2026-05-18 11:48:45",
        "GPLc": "2026-05-18 11:48:45",
        "E10": "2026-05-18 11:48:45"
      }
    },
    {
      "id": "15250004",
      "lat": 44.99661,
      "lon": 2.42166,
      "cp": "15250",
      "ville": "JUSSAC",
      "prix": {
        "Gazole": 0.00213,
        "SP95": 0.002121,
        "E10": 0.002085
      },
      "maj_gouv": {
        "Gazole": "2026-05-21 12:21:50",
        "SP95": "2026-05-21 12:21:50",
        "E10": "2026-05-21 12:21:50"
      }
    },
    {
      "id": "15190004",
      "lat": 45.338837005856995,
      "lon": 2.7590162851812,
      "cp": "15190",
      "ville": "Condat",
      "prix": {
        "Gazole": 0.002195,
        "SP95": 0.002095,
        "E10": 0.002048
      },
      "maj_gouv": {
        "Gazole": "2026-05-15 08:05:24",
        "SP95": "2026-04-22 09:31:31",
        "E10": "2026-04-22 09:31:31"
      }
    },
    {
      "id": "15300003",
      "lat": 45.10616,
      "lon": 2.86291,
      "cp": "15300",
      "ville": "Murat",
      "prix": {
        "Gazole": 0.002129,
        "E10": 0.002069,
        "SP98": 0.0021880000000000003
      },
      "maj_gouv": {
        "Gazole": "2026-05-13 11:24:14",
        "E10": "2026-05-13 11:24:15",
        "SP98": "2026-05-13 11:24:15"
      }
    },
    {
      "id": "15190001",
      "lat": 45.33826,
      "lon": 2.76036,
      "cp": "15190",
      "ville": "Condat",
      "prix": {
        "Gazole": 0.002225,
        "SP95": 0.00214,
        "SP98": 0.00216
      },
      "maj_gouv": {
        "Gazole": "2026-05-15 09:35:38",
        "SP95": "2026-04-29 07:21:53",
        "SP98": "2026-04-29 07:21:53"
      }
    },
    {
      "id": "15250006",
      "lat": 44.94448371,
      "lon": 2.31132819,
      "cp": "15250",
      "ville": "Saint-Paul-des-Landes",
      "prix": {
        "Gazole": 0.0021190000000000002,
        "SP95": 0.002149,
        "SP98": 0.002189
      },
      "maj_gouv": {
        "Gazole": "2026-05-20 12:25:45",
        "SP95": "2026-05-20 12:25:45",
        "SP98": "2026-05-20 12:25:46"
      }
    },
    {
      "id": "15100005",
      "lat": 45.038,
      "lon": 3.065,
      "cp": "15100",
      "ville": "SAINT-FLOUR",
      "prix": {
        "Gazole": 0.0021579999999999998,
        "SP95": 0.0021579999999999998,
        "E85": 0.000869,
        "GPLc": 0.0012250000000000002,
        "E10": 0.002098,
        "SP98": 0.002255
      },
      "maj_gouv": {
        "Gazole": "2026-05-19 08:31:39",
        "SP95": "2026-05-19 08:31:39",
        "E85": "2026-05-19 08:31:39",
        "GPLc": "2026-04-27 07:58:17",
        "E10": "2026-05-19 08:31:39",
        "SP98": "2026-05-19 08:31:39"
      }
    },
    {
      "id": "15200005",
      "lat": 45.214,
      "lon": 2.346,
      "cp": "15200",
      "ville": "MAURIAC",
      "prix": {
        "Gazole": 0.002149,
        "SP95": 0.0021190000000000002,
        "GPLc": 0.001199,
        "E10": 0.002069,
        "SP98": 0.002209
      },
      "maj_gouv": {
        "Gazole": "2026-05-13 10:53:19",
        "SP95": "2026-05-20 13:13:30",
        "GPLc": "2026-04-27 09:16:40",
        "E10": "2026-05-20 13:13:30",
        "SP98": "2026-05-20 13:13:30"
      }
    },
    {
      "id": "15000003",
      "lat": 44.923,
      "lon": 2.428,
      "cp": "15000",
      "ville": "AURILLAC",
      "prix": {
        "Gazole": 0.002177
      },
      "maj_gouv": {
        "Gazole": "2026-05-21 07:20:40"
      }
    },
    {
      "id": "15320001",
      "lat": 45.001,
      "lon": 3.224,
      "cp": "15320",
      "ville": "Ruynes-en-Margeride",
      "prix": {
        "Gazole": 0.002178,
        "SP95": 0.002178,
        "SP98": 0.002245
      },
      "maj_gouv": {
        "Gazole": "2026-05-19 11:15:51",
        "SP95": "2026-05-19 11:15:51",
        "SP98": "2026-05-19 11:15:51"
      }
    },
    {
      "id": "15100011",
      "lat": 45.034,
      "lon": 3.093,
      "cp": "15100",
      "ville": "Saint-Flour",
      "prix": {
        "Gazole": 0.002178,
        "E10": 0.002118,
        "SP98": 0.002245
      },
      "maj_gouv": {
        "Gazole": "2026-05-19 11:16:38",
        "E10": "2026-05-19 11:16:38",
        "SP98": "2026-05-19 11:16:39"
      }
    },
    {
      "id": "15310001",
      "lat": 45.057,
      "lon": 2.422,
      "cp": "15310",
      "ville": "Saint-Cernin",
      "prix": {
        "Gazole": 0.0023,
        "SP95": 0.00218,
        "SP98": 0.0023
      },
      "maj_gouv": {
        "Gazole": "2026-04-24 09:29:14",
        "SP95": "2026-04-24 09:29:14",
        "SP98": "2026-04-24 09:29:14"
      }
    },
    {
      "id": "15800004",
      "lat": 45.016,
      "lon": 2.664,
      "cp": "15800",
      "ville": "Thiézac",
      "prix": {
        "Gazole": 0.00225,
        "SP95": 0.00215
      },
      "maj_gouv": {
        "Gazole": "2026-05-07 14:06:46",
        "SP95": "2026-05-07 14:06:46"
      }
    },
    {
      "id": "15100003",
      "lat": 45.038,
      "lon": 3.087,
      "cp": "15100",
      "ville": "SAINT-FLOUR",
      "prix": {
        "Gazole": 0.002178,
        "SP95": 0.002178,
        "E85": 0.0008900000000000001
      },
      "maj_gouv": {
        "Gazole": "2026-05-21 00:01:00",
        "SP95": "2026-05-21 00:01:00",
        "E85": "2026-04-08 00:01:00"
      }
    },
    {
      "id": "15110003",
      "lat": 44.857,
      "lon": 3.008,
      "cp": "15110",
      "ville": "Chaudes-Aigues",
      "prix": {
        "Gazole": 0.002189,
        "SP95": 0.002148
      },
      "maj_gouv": {
        "Gazole": "2026-05-19 00:01:00",
        "SP95": "2026-05-19 00:01:00"
      }
    },
    {
      "id": "15700005",
      "lat": 45.13346491,
      "lon": 2.22264433,
      "cp": "15700",
      "ville": "PLEAUX",
      "prix": {
        "Gazole": 0.002118,
        "SP95": 0.002118,
        "E10": 0.002068
      },
      "maj_gouv": {
        "Gazole": "2026-05-20 12:53:17",
        "SP95": "2026-05-20 14:49:49",
        "E10": "2026-05-20 14:49:49"
      }
    },
    {
      "id": "15100010",
      "lat": 45.032,
      "lon": 3.135,
      "cp": "15100",
      "ville": "Saint-Georges",
      "prix": {
        "Gazole": 0.0021579999999999998,
        "E85": 0.000819,
        "GPLc": 0.0012259999999999999,
        "E10": 0.002098,
        "SP98": 0.002225
      },
      "maj_gouv": {
        "Gazole": "2026-05-19 10:37:25",
        "E85": "2026-04-16 10:27:11",
        "GPLc": "2026-04-14 09:38:10",
        "E10": "2026-05-19 10:37:25",
        "SP98": "2026-05-19 10:37:26"
      }
    },
    {
      "id": "15190003",
      "lat": 45.303141500363,
      "lon": 2.8327425989774997,
      "cp": "15190",
      "ville": "Marcenat",
      "prix": {
        "Gazole": 0.002205,
        "E85": 0.000798,
        "E10": 0.002109,
        "SP98": 0.002149
      },
      "maj_gouv": {
        "Gazole": "2026-05-13 12:30:00",
        "E85": "2026-05-19 16:29:16",
        "E10": "2026-05-13 12:30:00",
        "SP98": "2026-05-13 12:30:00"
      }
    },
    {
      "id": "15500006",
      "lat": 45.258,
      "lon": 3.199,
      "cp": "15500",
      "ville": "MASSIAC",
      "prix": {
        "Gazole": 0.002195,
        "SP95": 0.002129,
        "E10": 0.002109
      },
      "maj_gouv": {
        "Gazole": "2026-05-15 15:45:29",
        "SP95": "2026-05-11 14:38:51",
        "E10": "2026-05-11 14:38:51"
      }
    },
    {
      "id": "15100012",
      "lat": 45.032035,
      "lon": 3.130412,
      "cp": "15100",
      "ville": "Saint Georges",
      "prix": {
        "Gazole": 0.0021579999999999998,
        "SP95": 0.0021579999999999998,
        "E85": 0.000798,
        "E10": 0.002098
      },
      "maj_gouv": {
        "Gazole": "2026-05-19 08:00:00",
        "SP95": "2026-05-19 08:00:00",
        "E85": "2026-05-14 19:00:00",
        "E10": "2026-05-19 08:00:00"
      }
    },
    {
      "id": "15000008",
      "lat": 44.91572,
      "lon": 2.43189,
      "cp": "15000",
      "ville": "AURILLAC",
      "prix": {
        "Gazole": 0.00213,
        "SP95": 0.002121,
        "E85": 0.000798,
        "E10": 0.002085,
        "SP98": 0.00218
      },
      "maj_gouv": {
        "Gazole": "2026-05-21 10:54:22",
        "SP95": "2026-05-21 10:57:04",
        "E85": "2026-05-20 07:39:57",
        "E10": "2026-05-21 10:54:22",
        "SP98": "2026-05-19 11:16:37"
      }
    },
    {
      "id": "15130001",
      "lat": 44.788,
      "lon": 2.456,
      "cp": "15130",
      "ville": "LAFEUILLADE-EN-VéZIE",
      "prix": {
        "Gazole": 0.00225,
        "E10": 0.00199,
        "SP98": 0.00199
      },
      "maj_gouv": {
        "Gazole": "2026-05-10 21:59:24",
        "E10": "2026-04-18 23:31:23",
        "SP98": "2026-04-18 23:31:23"
      }
    },
    {
      "id": "15800002",
      "lat": 44.981,
      "lon": 2.628,
      "cp": "15800",
      "ville": "Vic-sur-Cère",
      "prix": {
        "Gazole": 0.00214,
        "E85": 0.000798,
        "E10": 0.002099,
        "SP98": 0.002222
      },
      "maj_gouv": {
        "Gazole": "2026-05-21 16:30:05",
        "E85": "2026-05-16 09:39:54",
        "E10": "2026-05-16 09:39:54",
        "SP98": "2026-05-16 09:39:54"
      }
    },
    {
      "id": "15500003",
      "lat": 45.262,
      "lon": 3.199,
      "cp": "15500",
      "ville": "MASSIAC",
      "prix": {
        "Gazole": 0.002195,
        "SP95": 0.0021349999999999997,
        "SP98": 0.002225
      },
      "maj_gouv": {
        "Gazole": "2026-05-19 16:32:06",
        "SP95": "2026-05-19 16:32:06",
        "SP98": "2026-05-19 16:32:06"
      }
    },
    {
      "id": "15220002",
      "lat": 44.859,
      "lon": 2.292,
      "cp": "15220",
      "ville": "Saint-Mamet-la-Salvetat",
      "prix": {
        "Gazole": 0.00225,
        "SP95": 0.00199,
        "SP98": 0.00199
      },
      "maj_gouv": {
        "Gazole": "2026-05-21 14:29:13",
        "SP95": "2026-05-21 14:29:13",
        "SP98": "2026-05-21 14:29:13"
      }
    },
    {
      "id": "15000017",
      "lat": 44.894559139204,
      "lon": 2.4015925601762,
      "cp": "15000",
      "ville": "Aurillac",
      "prix": {
        "Gazole": 0.00212,
        "SP95": 0.002111,
        "E85": 0.000819,
        "E10": 0.002075,
        "SP98": 0.00217
      },
      "maj_gouv": {
        "Gazole": "2026-05-21 09:18:14",
        "SP95": "2026-05-21 09:18:14",
        "E85": "2026-05-02 09:33:46",
        "E10": "2026-05-21 09:18:14",
        "SP98": "2026-05-21 09:18:15"
      }
    },
    {
      "id": "15300002",
      "lat": 45.107650938541006,
      "lon": 2.8630026809344,
      "cp": "15300",
      "ville": "Murat",
      "prix": {
        "Gazole": 0.00225
      },
      "maj_gouv": {
        "Gazole": "2026-05-18 06:55:33"
      }
    },
    {
      "id": "15300006",
      "lat": 45.106588810308,
      "lon": 2.8648094441031002,
      "cp": "15300",
      "ville": "Murat",
      "prix": {
        "Gazole": 0.00215
      },
      "maj_gouv": {
        "Gazole": "2026-05-12 09:56:43"
      }
    },
    {
      "id": "15000009",
      "lat": 44.90916,
      "lon": 2.44627,
      "cp": "15000",
      "ville": "Aurillac",
      "prix": {
        "Gazole": 0.00213,
        "SP95": 0.002121,
        "E85": 0.000798,
        "E10": 0.002085,
        "SP98": 0.00218
      },
      "maj_gouv": {
        "Gazole": "2026-05-21 09:04:09",
        "SP95": "2026-05-21 09:04:09",
        "E85": "2026-05-19 16:49:28",
        "E10": "2026-05-21 09:04:09",
        "SP98": "2026-05-19 11:13:28"
      }
    },
    {
      "id": "15130003",
      "lat": 44.921,
      "lon": 2.839,
      "cp": "15230",
      "ville": "PIERREFORT",
      "prix": {
        "Gazole": 0.002189,
        "SP95": 0.002148,
        "SP98": 0.002249
      },
      "maj_gouv": {
        "Gazole": "2026-05-19 00:01:00",
        "SP95": "2026-05-19 00:01:00",
        "SP98": "2026-05-19 00:01:00"
      }
    },
    {
      "id": "15400002",
      "lat": 45.28327,
      "lon": 2.65993,
      "cp": "15400",
      "ville": "Riom-Ès-Montagnes",
      "prix": {},
      "maj_gouv": {}
    },
    {
      "id": "15000018",
      "lat": 44.910339878759004,
      "lon": 2.4534163077782,
      "cp": "15000",
      "ville": "AURILLAC",
      "prix": {
        "Gazole": 0.00214,
        "SP95": 0.00214,
        "E85": 0.00082,
        "SP98": 0.00218
      },
      "maj_gouv": {
        "Gazole": "2026-05-18 08:22:13",
        "SP95": "2026-05-15 14:18:52",
        "E85": "2026-04-16 17:27:08",
        "SP98": "2026-05-15 14:18:52"
      }
    },
    {
      "id": "15250001",
      "lat": 44.98584,
      "lon": 2.41672,
      "cp": "15250",
      "ville": "Jussac",
      "prix": {
        "Gazole": 0.002199
      },
      "maj_gouv": {
        "Gazole": "2026-05-21 09:28:23"
      }
    },
    {
      "id": "15100006",
      "lat": 45.035,
      "lon": 3.089,
      "cp": "15100",
      "ville": "SAINT-FLOUR",
      "prix": {
        "Gazole": 0.0021579999999999998,
        "SP95": 0.0021579999999999998,
        "SP98": 0.002179
      },
      "maj_gouv": {
        "Gazole": "2026-05-19 10:39:22",
        "SP95": "2026-05-19 10:39:23",
        "SP98": "2026-04-25 17:50:00"
      }
    },
    {
      "id": "15000012",
      "lat": 44.913536221781,
      "lon": 2.4270647024088,
      "cp": "15000",
      "ville": "AURILLAC",
      "prix": {
        "Gazole": 0.00214,
        "SP95": 0.00214,
        "E85": 0.00082,
        "GPLc": 0.00109,
        "SP98": 0.00218
      },
      "maj_gouv": {
        "Gazole": "2026-05-18 08:21:57",
        "SP95": "2026-05-15 14:18:32",
        "E85": "2026-04-16 17:28:07",
        "GPLc": "2026-04-07 08:47:35",
        "SP98": "2026-05-15 14:18:32"
      }
    },
    {
      "id": "15110001",
      "lat": 44.856,
      "lon": 3.006,
      "cp": "15110",
      "ville": "Chaudes-Aigues",
      "prix": {},
      "maj_gouv": {}
    },
    {
      "id": "15400003",
      "lat": 45.288,
      "lon": 2.669,
      "cp": "15400",
      "ville": "Riom-Ès-Montagnes",
      "prix": {
        "Gazole": 0.002159,
        "E10": 0.002089,
        "SP98": 0.002159
      },
      "maj_gouv": {
        "Gazole": "2026-05-15 09:00:00",
        "E10": "2026-05-21 09:00:00",
        "SP98": "2026-05-21 09:00:00"
      }
    },
    {
      "id": "15400004",
      "lat": 45.28,
      "lon": 2.665,
      "cp": "15400",
      "ville": "Riom-es-Montagnes",
      "prix": {
        "Gazole": 0.00225,
        "E10": 0.00199
      },
      "maj_gouv": {
        "Gazole": "2026-05-18 17:23:49",
        "E10": "2026-05-18 17:23:49"
      }
    },
    {
      "id": "15000005",
      "lat": 44.923,
      "lon": 2.435,
      "cp": "15000",
      "ville": "AURILLAC",
      "prix": {
        "Gazole": 0.002177,
        "SP95": 0.00199,
        "SP98": 0.00199
      },
      "maj_gouv": {
        "Gazole": "2026-05-21 07:30:19",
        "SP95": "2026-05-21 14:33:07",
        "SP98": "2026-05-21 14:33:07"
      }
    },
    {
      "id": "15600003",
      "lat": 44.714,
      "lon": 2.203,
      "cp": "15600",
      "ville": "Saint-Étienne-de-Maurs",
      "prix": {
        "Gazole": 0.002149,
        "E85": 0.000819,
        "E10": 0.002084,
        "SP98": 0.002193
      },
      "maj_gouv": {
        "Gazole": "2026-05-21 07:43:22",
        "E85": "2026-04-16 07:46:47",
        "E10": "2026-05-21 07:43:23",
        "SP98": "2026-05-21 07:43:23"
      }
    },
    {
      "id": "15210001",
      "lat": 45.34,
      "lon": 2.434,
      "cp": "15210",
      "ville": "Ydes",
      "prix": {
        "Gazole": 0.002139,
        "E85": 0.000769,
        "E10": 0.002099,
        "SP98": 0.002179
      },
      "maj_gouv": {
        "Gazole": "2026-05-19 05:03:19",
        "E85": "2026-05-19 05:03:19",
        "E10": "2026-05-22 05:11:47",
        "SP98": "2026-05-22 05:11:47"
      }
    },
    {
      "id": "15500008",
      "lat": 45.254,
      "lon": 3.197,
      "cp": "15500",
      "ville": "MASSIAC",
      "prix": {
        "Gazole": 0.002195,
        "SP95": 0.0021349999999999997,
        "SP98": 0.002225
      },
      "maj_gouv": {
        "Gazole": "2026-05-15 09:45:45",
        "SP95": "2026-05-15 09:45:45",
        "SP98": "2026-05-15 09:45:45"
      }
    },
    {
      "id": "15300007",
      "lat": 45.079,
      "lon": 2.937,
      "cp": "15300",
      "ville": "USSEL",
      "prix": {
        "Gazole": 0.00228,
        "SP95": 0.00216
      },
      "maj_gouv": {
        "Gazole": "2026-05-09 15:32:04",
        "SP95": "2026-05-09 15:32:40"
      }
    },
    {
      "id": "15004002",
      "lat": 44.914,
      "lon": 2.441,
      "cp": "15000",
      "ville": "AURILLAC",
      "prix": {
        "Gazole": 0.00213,
        "SP95": 0.002121,
        "E85": 0.000785,
        "E10": 0.002085
      },
      "maj_gouv": {
        "Gazole": "2026-05-21 09:00:00",
        "SP95": "2026-05-21 09:00:00",
        "E85": "2026-05-20 08:25:30",
        "E10": "2026-05-21 09:00:00"
      }
    },
    {
      "id": "15000016",
      "lat": 44.908,
      "lon": 2.421,
      "cp": "15000",
      "ville": "AURILLAC",
      "prix": {
        "Gazole": 0.002093,
        "E10": 0.00199,
        "SP98": 0.00199
      },
      "maj_gouv": {
        "Gazole": "2026-05-22 00:01:00",
        "E10": "2026-05-22 00:01:00",
        "SP98": "2026-05-22 00:01:00"
      }
    }
  ]
}