{
  "departement": "51",
  "date": "2026-05-22",
  "stations": [
    {
      "id": "51240002",
      "lat": 48.861,
      "lon": 4.485,
      "cp": "51240",
      "ville": "Pogny",
      "prix": {
        "Gazole": 0.0021379999999999997,
        "E10": 0.002055,
        "SP98": 0.002164
      },
      "maj_gouv": {
        "Gazole": "2026-05-19 07:40:08",
        "E10": "2026-05-19 07:40:09",
        "SP98": "2026-05-19 07:40:09"
      }
    },
    {
      "id": "51000005",
      "lat": 48.955,
      "lon": 4.332,
      "cp": "51000",
      "ville": "Châlons-en-Champagne",
      "prix": {
        "Gazole": 0.002093,
        "E10": 0.002061,
        "SP98": 0.002141
      },
      "maj_gouv": {
        "Gazole": "2026-05-21 07:50:00",
        "E10": "2026-05-21 07:50:00",
        "SP98": "2026-05-21 07:50:00"
      }
    },
    {
      "id": "51350001",
      "lat": 49.216,
      "lon": 4.057,
      "cp": "51350",
      "ville": "CORMONTREUIL",
      "prix": {
        "Gazole": 0.0021190000000000002,
        "E85": 0.000799,
        "GPLc": 0.000995,
        "E10": 0.002076,
        "SP98": 0.002159
      },
      "maj_gouv": {
        "Gazole": "2026-05-20 10:38:34",
        "E85": "2026-05-20 10:38:34",
        "GPLc": "2026-05-18 10:25:46",
        "E10": "2026-05-21 10:47:47",
        "SP98": "2026-05-21 10:47:47"
      }
    },
    {
      "id": "51300006",
      "lat": 48.712604588400005,
      "lon": 4.59023351401,
      "cp": "51300",
      "ville": "FRIGNICOURT",
      "prix": {
        "Gazole": 0.002115,
        "E10": 0.002095,
        "SP98": 0.002169
      },
      "maj_gouv": {
        "Gazole": "2026-05-13 12:42:00",
        "E10": "2026-05-13 12:42:01",
        "SP98": "2026-05-13 12:42:01"
      }
    },
    {
      "id": "51340003",
      "lat": 48.768916720338,
      "lon": 4.844073806546,
      "cp": "51340",
      "ville": "Pargny-sur-Saulx",
      "prix": {
        "Gazole": 0.002169,
        "E10": 0.00199,
        "SP98": 0.00199
      },
      "maj_gouv": {
        "Gazole": "2026-05-21 07:33:12",
        "E10": "2026-05-20 07:27:49",
        "SP98": "2026-05-20 07:27:49"
      }
    },
    {
      "id": "51430002",
      "lat": 49.254,
      "lon": 3.976,
      "cp": "51430",
      "ville": "TINQUEUX",
      "prix": {
        "Gazole": 0.002114,
        "SP95": 0.0021720000000000003,
        "E85": 0.0008309999999999999,
        "GPLc": 0.000995,
        "E10": 0.002074,
        "SP98": 0.002214
      },
      "maj_gouv": {
        "Gazole": "2026-05-22 00:41:00",
        "SP95": "2026-05-22 00:41:00",
        "E85": "2026-05-22 00:41:00",
        "GPLc": "2026-04-23 00:40:00",
        "E10": "2026-05-22 00:41:00",
        "SP98": "2026-05-22 00:41:00"
      }
    },
    {
      "id": "51480001",
      "lat": 49.072,
      "lon": 3.882,
      "cp": "51480",
      "ville": "Damery",
      "prix": {
        "Gazole": 0.00225,
        "SP95": 0.00199
      },
      "maj_gouv": {
        "Gazole": "2026-04-14 10:02:20",
        "SP95": "2026-05-19 11:15:08"
      }
    },
    {
      "id": "51110006",
      "lat": 49.362,
      "lon": 4.176,
      "cp": "51110",
      "ville": "Bazancourt",
      "prix": {
        "Gazole": 0.00221,
        "SP95": 0.002155,
        "E85": 0.000905,
        "SP98": 0.002245
      },
      "maj_gouv": {
        "Gazole": "2026-05-19 10:09:05",
        "SP95": "2026-05-19 10:09:05",
        "E85": "2026-05-19 10:09:06",
        "SP98": "2026-05-19 10:09:06"
      }
    },
    {
      "id": "51430004",
      "lat": 49.025,
      "lon": 3.944,
      "cp": "51530",
      "ville": "PIERRY",
      "prix": {
        "Gazole": 0.00213,
        "E85": 0.0008449999999999999,
        "GPLc": 0.000998,
        "E10": 0.002065,
        "SP98": 0.002139
      },
      "maj_gouv": {
        "Gazole": "2026-05-22 01:16:00",
        "E85": "2026-05-22 01:16:00",
        "GPLc": "2026-05-22 01:16:00",
        "E10": "2026-05-22 01:16:00",
        "SP98": "2026-05-22 01:16:00"
      }
    },
    {
      "id": "51390002",
      "lat": 49.244642982916005,
      "lon": 3.9234151280944003,
      "cp": "51390",
      "ville": "Gueux",
      "prix": {
        "Gazole": 0.0024289999999999997,
        "GPLc": 0.001149,
        "E10": 0.002359,
        "SP98": 0.0024289999999999997
      },
      "maj_gouv": {
        "Gazole": "2026-05-21 21:00:00",
        "GPLc": "2026-05-21 21:00:00",
        "E10": "2026-05-21 21:00:00",
        "SP98": "2026-05-21 21:00:00"
      }
    },
    {
      "id": "51700006",
      "lat": 49.08766,
      "lon": 3.76238,
      "cp": "51700",
      "ville": "Châtillon-sur-Marne",
      "prix": {
        "Gazole": 0.0021190000000000002,
        "E10": 0.002089,
        "SP98": 0.002199
      },
      "maj_gouv": {
        "Gazole": "2026-05-19 05:20:20",
        "E10": "2026-05-19 05:20:21",
        "SP98": "2026-05-19 05:20:21"
      }
    },
    {
      "id": "51400010",
      "lat": 49.12029,
      "lon": 4.24286,
      "cp": "51400",
      "ville": "LES PETITES LOGES",
      "prix": {
        "Gazole": 0.002173,
        "E85": 0.000999,
        "GPLc": 0.001129,
        "E10": 0.00199,
        "SP98": 0.00199
      },
      "maj_gouv": {
        "Gazole": "2026-05-22 00:01:00",
        "E85": "2026-05-22 00:01:00",
        "GPLc": "2026-05-22 00:01:00",
        "E10": "2026-05-22 00:01:00",
        "SP98": "2026-05-22 00:01:00"
      }
    },
    {
      "id": "51600004",
      "lat": 49.128002,
      "lon": 4.5354790000000005,
      "cp": "51600",
      "ville": "SUIPPES",
      "prix": {
        "Gazole": 0.002142,
        "SP95": 0.002149,
        "SP98": 0.002235
      },
      "maj_gouv": {
        "Gazole": "2026-05-18 06:19:36",
        "SP95": "2026-05-18 06:19:36",
        "SP98": "2026-05-18 06:19:36"
      }
    },
    {
      "id": "51390003",
      "lat": 49.245,
      "lon": 3.915,
      "cp": "51390",
      "ville": "Gueux",
      "prix": {
        "Gazole": 0.00225,
        "SP95": 0.00199,
        "SP98": 0.00199
      },
      "maj_gouv": {
        "Gazole": "2026-05-20 08:05:45",
        "SP95": "2026-05-20 08:05:45",
        "SP98": "2026-05-20 08:05:45"
      }
    },
    {
      "id": "51067001",
      "lat": 49.26,
      "lon": 4.063,
      "cp": "51100",
      "ville": "REIMS",
      "prix": {
        "Gazole": 0.002099,
        "SP95": 0.002099,
        "E10": 0.002077,
        "SP98": 0.002159
      },
      "maj_gouv": {
        "Gazole": "2026-05-21 09:03:21",
        "SP95": "2026-05-21 09:03:21",
        "E10": "2026-05-21 09:03:21",
        "SP98": "2026-05-21 09:03:21"
      }
    },
    {
      "id": "51100029",
      "lat": 49.27198,
      "lon": 4.02634,
      "cp": "51100",
      "ville": "Reims",
      "prix": {
        "Gazole": 0.002199,
        "SP95": 0.002099,
        "SP98": 0.002129
      },
      "maj_gouv": {
        "Gazole": "2026-05-20 08:44:18",
        "SP95": "2026-05-20 08:44:18",
        "SP98": "2026-05-20 08:44:19"
      }
    },
    {
      "id": "51100048",
      "lat": 49.25775,
      "lon": 4.01178,
      "cp": "51100",
      "ville": "REIMS",
      "prix": {
        "Gazole": 0.002093,
        "E85": 0.000839,
        "GPLc": 0.000995,
        "E10": 0.00199
      },
      "maj_gouv": {
        "Gazole": "2026-05-22 00:01:00",
        "E85": "2026-05-22 00:01:00",
        "GPLc": "2026-05-22 00:01:00",
        "E10": "2026-05-22 00:01:00"
      }
    },
    {
      "id": "51800001",
      "lat": 49.09,
      "lon": 4.903,
      "cp": "51800",
      "ville": "SAINTE-MENEHOULD",
      "prix": {
        "Gazole": 0.002149,
        "E85": 0.000799,
        "E10": 0.002099,
        "SP98": 0.002149
      },
      "maj_gouv": {
        "Gazole": "2026-05-13 08:03:30",
        "E85": "2026-04-24 08:34:26",
        "E10": "2026-05-20 08:59:27",
        "SP98": "2026-05-20 08:59:28"
      }
    },
    {
      "id": "51100045",
      "lat": 49.2646,
      "lon": 4.05954,
      "cp": "51100",
      "ville": "REIMS",
      "prix": {
        "Gazole": 0.002093,
        "E85": 0.000839
      },
      "maj_gouv": {
        "Gazole": "2026-05-22 00:01:00",
        "E85": "2026-05-22 00:01:00"
      }
    },
    {
      "id": "51120003",
      "lat": 48.709,
      "lon": 3.734,
      "cp": "51120",
      "ville": "SEZANNE",
      "prix": {
        "Gazole": 0.0021349999999999997,
        "E85": 0.000786,
        "GPLc": 0.001008,
        "E10": 0.0020659999999999997,
        "SP98": 0.002149
      },
      "maj_gouv": {
        "Gazole": "2026-05-22 01:15:00",
        "E85": "2026-05-22 01:15:00",
        "GPLc": "2026-05-22 01:15:00",
        "E10": "2026-05-22 01:15:00",
        "SP98": "2026-05-22 01:15:00"
      }
    },
    {
      "id": "51130002",
      "lat": 48.899,
      "lon": 4.009,
      "cp": "51130",
      "ville": "blancs coteaux",
      "prix": {
        "Gazole": 0.0021309999999999996,
        "E85": 0.000804,
        "E10": 0.0020729999999999998,
        "SP98": 0.002159
      },
      "maj_gouv": {
        "Gazole": "2026-05-22 01:15:00",
        "E85": "2026-05-22 01:15:00",
        "E10": "2026-05-22 01:15:00",
        "SP98": "2026-05-22 01:15:00"
      }
    },
    {
      "id": "51470001",
      "lat": 48.953,
      "lon": 4.382,
      "cp": "51470",
      "ville": "SAINT-MEMMIE",
      "prix": {
        "Gazole": 0.0022890000000000002,
        "SP95": 0.002169,
        "SP98": 0.002199
      },
      "maj_gouv": {
        "Gazole": "2026-04-23 07:30:00",
        "SP95": "2026-04-23 07:30:00",
        "SP98": "2026-04-23 07:30:00"
      }
    },
    {
      "id": "51400011",
      "lat": 49.118815358985,
      "lon": 4.2465627917213,
      "cp": "51400",
      "ville": "LES PETITES LOGES",
      "prix": {
        "Gazole": 0.002173,
        "E85": 0.000999,
        "GPLc": 0.0011279999999999999,
        "E10": 0.00199,
        "SP98": 0.00199
      },
      "maj_gouv": {
        "Gazole": "2026-05-22 00:01:00",
        "E85": "2026-05-22 00:01:00",
        "GPLc": "2026-05-22 00:01:00",
        "E10": "2026-05-22 00:01:00",
        "SP98": "2026-05-22 00:01:00"
      }
    },
    {
      "id": "51500003",
      "lat": 49.19134,
      "lon": 4.14837,
      "cp": "51500",
      "ville": "Sillery",
      "prix": {
        "Gazole": 0.002139,
        "E85": 0.0008179999999999999,
        "E10": 0.002065,
        "SP98": 0.002199
      },
      "maj_gouv": {
        "Gazole": "2026-05-21 09:42:33",
        "E85": "2026-05-13 14:07:48",
        "E10": "2026-05-21 09:42:33",
        "SP98": "2026-05-21 09:42:33"
      }
    },
    {
      "id": "51000013",
      "lat": 48.935,
      "lon": 4.402,
      "cp": "51000",
      "ville": "Châlons-en-Champagne",
      "prix": {
        "Gazole": 0.002093,
        "GPLc": 0.000995,
        "E10": 0.00199
      },
      "maj_gouv": {
        "Gazole": "2026-05-22 00:01:00",
        "GPLc": "2026-05-22 00:01:00",
        "E10": "2026-05-22 00:01:00"
      }
    },
    {
      "id": "51500002",
      "lat": 49.2,
      "lon": 4.016,
      "cp": "51500",
      "ville": "CHAMPFLEURY",
      "prix": {
        "Gazole": 0.00211,
        "E85": 0.000798,
        "E10": 0.0020729999999999998,
        "SP98": 0.002149
      },
      "maj_gouv": {
        "Gazole": "2026-05-22 01:16:00",
        "E85": "2026-05-22 01:16:00",
        "E10": "2026-05-22 01:16:00",
        "SP98": "2026-05-22 01:16:00"
      }
    },
    {
      "id": "51400004",
      "lat": 49.135,
      "lon": 4.366,
      "cp": "51400",
      "ville": "Mourmelon-le-Grand",
      "prix": {
        "Gazole": 0.002139,
        "E85": 0.0008179999999999999,
        "E10": 0.002079,
        "SP98": 0.002189
      },
      "maj_gouv": {
        "Gazole": "2026-05-20 10:57:18",
        "E85": "2026-04-17 08:36:02",
        "E10": "2026-05-20 10:57:18",
        "SP98": "2026-05-20 10:57:18"
      }
    },
    {
      "id": "51210004",
      "lat": 48.873,
      "lon": 3.54,
      "cp": "51210",
      "ville": "Montmirail",
      "prix": {
        "Gazole": 0.0021190000000000002,
        "E10": 0.002059,
        "SP98": 0.0021190000000000002
      },
      "maj_gouv": {
        "Gazole": "2026-05-22 01:16:00",
        "E10": "2026-05-22 01:16:00",
        "SP98": "2026-05-22 01:16:00"
      }
    },
    {
      "id": "51100055",
      "lat": 49.225,
      "lon": 4.025,
      "cp": "51100",
      "ville": "REIMS",
      "prix": {
        "Gazole": 0.002189,
        "E85": 0.001109,
        "E10": 0.002169,
        "SP98": 0.002299
      },
      "maj_gouv": {
        "Gazole": "2026-05-22 06:22:15",
        "E85": "2026-05-22 06:22:15",
        "E10": "2026-05-22 06:22:15",
        "SP98": "2026-05-22 06:22:15"
      }
    },
    {
      "id": "51068001",
      "lat": 49.287,
      "lon": 4.026,
      "cp": "51100",
      "ville": "Reims",
      "prix": {
        "Gazole": 0.002096,
        "E85": 0.00082,
        "GPLc": 0.001028,
        "E10": 0.002052,
        "SP98": 0.0021680000000000002
      },
      "maj_gouv": {
        "Gazole": "2026-05-20 11:36:20",
        "E85": "2026-05-20 11:36:20",
        "GPLc": "2026-05-11 11:05:32",
        "E10": "2026-05-20 11:36:21",
        "SP98": "2026-05-15 15:23:48"
      }
    },
    {
      "id": "51260005",
      "lat": 48.589,
      "lon": 3.813,
      "cp": "51260",
      "ville": "Anglure",
      "prix": {
        "Gazole": 0.002199,
        "SP95": 0.002179,
        "SP98": 0.002229
      },
      "maj_gouv": {
        "Gazole": "2026-05-16 11:30:54",
        "SP95": "2026-05-16 11:30:54",
        "SP98": "2026-05-16 13:00:00"
      }
    },
    {
      "id": "51300014",
      "lat": 48.72504,
      "lon": 4.58843,
      "cp": "51300",
      "ville": "Vitry-le-François",
      "prix": {
        "Gazole": 0.002156,
        "E85": 0.000866,
        "E10": 0.00199
      },
      "maj_gouv": {
        "Gazole": "2026-05-22 00:01:00",
        "E85": "2026-05-22 00:01:00",
        "E10": "2026-05-22 00:01:00"
      }
    },
    {
      "id": "51370002",
      "lat": 49.281,
      "lon": 4.004,
      "cp": "51370",
      "ville": "SAINT-BRICE-COURCELLES",
      "prix": {
        "Gazole": 0.002112,
        "E85": 0.000798,
        "GPLc": 0.000995,
        "E10": 0.0020729999999999998,
        "SP98": 0.002146
      },
      "maj_gouv": {
        "Gazole": "2026-05-22 01:15:00",
        "E85": "2026-05-22 01:15:00",
        "GPLc": "2026-05-22 01:15:00",
        "E10": "2026-05-22 01:15:00",
        "SP98": "2026-05-22 01:15:00"
      }
    },
    {
      "id": "51700001",
      "lat": 49.072,
      "lon": 3.638,
      "cp": "51700",
      "ville": "DORMANS",
      "prix": {
        "Gazole": 0.002165,
        "SP95": 0.002121,
        "SP98": 0.002206
      },
      "maj_gouv": {
        "Gazole": "2026-05-21 09:01:31",
        "SP95": "2026-05-21 09:01:31",
        "SP98": "2026-05-21 09:01:31"
      }
    },
    {
      "id": "51120004",
      "lat": 48.72683,
      "lon": 3.67583,
      "cp": "51120",
      "ville": "Moeurs-verdey",
      "prix": {
        "Gazole": 0.002093,
        "E10": 0.00199,
        "SP98": 0.00199
      },
      "maj_gouv": {
        "Gazole": "2026-05-22 00:01:00",
        "E10": "2026-05-22 00:01:00",
        "SP98": "2026-05-22 00:01:00"
      }
    },
    {
      "id": "51170001",
      "lat": 49.309610628899996,
      "lon": 3.68670452849,
      "cp": "51170",
      "ville": "FISMES",
      "prix": {
        "Gazole": 0.002159,
        "E10": 0.002089,
        "SP98": 0.0022299999999999998
      },
      "maj_gouv": {
        "Gazole": "2026-05-21 00:01:00",
        "E10": "2026-05-21 00:01:00",
        "SP98": "2026-05-21 00:01:00"
      }
    },
    {
      "id": "51190001",
      "lat": 48.9775240381,
      "lon": 4.03031448288,
      "cp": "51190",
      "ville": "AVIZE",
      "prix": {
        "Gazole": 0.0021309999999999996,
        "E10": 0.002054,
        "SP98": 0.00217
      },
      "maj_gouv": {
        "Gazole": "2026-05-20 05:44:47",
        "E10": "2026-05-20 05:44:47",
        "SP98": "2026-05-20 05:44:47"
      }
    },
    {
      "id": "51100044",
      "lat": 49.275,
      "lon": 4.017,
      "cp": "51100",
      "ville": "REIMS",
      "prix": {
        "Gazole": 0.002165,
        "E85": 0.000859,
        "E10": 0.00199,
        "SP98": 0.00199
      },
      "maj_gouv": {
        "Gazole": "2026-05-21 21:00:00",
        "E85": "2026-05-21 21:00:00",
        "E10": "2026-05-21 21:00:00",
        "SP98": "2026-05-21 21:00:00"
      }
    },
    {
      "id": "51390001",
      "lat": 49.244,
      "lon": 3.921,
      "cp": "51390",
      "ville": "VRIGNY",
      "prix": {
        "Gazole": 0.0024089999999999997,
        "GPLc": 0.001109,
        "E10": 0.002431,
        "SP98": 0.002581
      },
      "maj_gouv": {
        "Gazole": "2026-05-21 09:30:00",
        "GPLc": "2026-05-21 09:30:00",
        "E10": "2026-05-21 09:30:00",
        "SP98": "2026-05-21 09:30:00"
      }
    },
    {
      "id": "51000006",
      "lat": 48.963,
      "lon": 4.367,
      "cp": "51000",
      "ville": "Châlons-en-Champagne",
      "prix": {
        "Gazole": 0.002093,
        "E10": 0.0020859999999999997,
        "SP98": 0.002166
      },
      "maj_gouv": {
        "Gazole": "2026-05-21 07:51:00",
        "E10": "2026-05-21 07:51:00",
        "SP98": "2026-05-21 07:51:00"
      }
    },
    {
      "id": "51200006",
      "lat": 49.046,
      "lon": 3.956,
      "cp": "51200",
      "ville": "EPERNAY",
      "prix": {
        "Gazole": 0.002093,
        "E85": 0.000846,
        "GPLc": 0.000999,
        "E10": 0.00199
      },
      "maj_gouv": {
        "Gazole": "2026-05-22 00:01:00",
        "E85": "2026-05-22 00:01:00",
        "GPLc": "2026-05-22 00:01:00",
        "E10": "2026-05-22 00:01:00"
      }
    },
    {
      "id": "51510001",
      "lat": 48.941847431102005,
      "lon": 4.341183424164,
      "cp": "51510",
      "ville": "Fagnières",
      "prix": {
        "Gazole": 0.002093,
        "E85": 0.0009310000000000001,
        "E10": 0.002083,
        "SP98": 0.002163
      },
      "maj_gouv": {
        "Gazole": "2026-05-21 07:51:00",
        "E85": "2026-05-21 07:51:00",
        "E10": "2026-05-21 07:51:00",
        "SP98": "2026-05-21 07:51:00"
      }
    },
    {
      "id": "51100056",
      "lat": 49.227,
      "lon": 4.108,
      "cp": "51100",
      "ville": "REIMS",
      "prix": {
        "Gazole": 0.002199,
        "E10": 0.002169,
        "SP98": 0.002299
      },
      "maj_gouv": {
        "Gazole": "2026-05-22 06:19:36",
        "E10": "2026-05-22 06:19:36",
        "SP98": "2026-05-22 06:19:36"
      }
    },
    {
      "id": "51520002",
      "lat": 48.991,
      "lon": 4.342,
      "cp": "51520",
      "ville": "Saint-Martin-sur-le-Pré",
      "prix": {
        "Gazole": 0.002093,
        "E85": 0.000869,
        "GPLc": 0.000989,
        "E10": 0.00199,
        "SP98": 0.00199
      },
      "maj_gouv": {
        "Gazole": "2026-05-22 00:01:00",
        "E85": "2026-05-22 00:01:00",
        "GPLc": "2026-05-22 00:01:00",
        "E10": "2026-05-22 00:01:00",
        "SP98": "2026-05-22 00:01:00"
      }
    },
    {
      "id": "51100047",
      "lat": 49.23929,
      "lon": 4.04547,
      "cp": "51100",
      "ville": "REIMS",
      "prix": {
        "Gazole": 0.002093,
        "E85": 0.0008489999999999999,
        "GPLc": 0.000995
      },
      "maj_gouv": {
        "Gazole": "2026-05-22 00:01:00",
        "E85": "2026-05-22 00:01:00",
        "GPLc": "2026-05-22 00:01:00"
      }
    },
    {
      "id": "51320003",
      "lat": 48.7319488344,
      "lon": 4.205154643659999,
      "cp": "51320",
      "ville": "SOMMESOUS",
      "prix": {
        "Gazole": 0.002093,
        "E85": 0.0008810000000000001,
        "E10": 0.00199,
        "SP98": 0.00199
      },
      "maj_gouv": {
        "Gazole": "2026-05-22 00:01:00",
        "E85": "2026-05-22 00:01:00",
        "E10": "2026-05-22 00:01:00",
        "SP98": "2026-05-22 00:01:00"
      }
    },
    {
      "id": "51100002",
      "lat": 49.26584,
      "lon": 4.0395,
      "cp": "51100",
      "ville": "Reims",
      "prix": {
        "Gazole": 0.002115,
        "SP95": 0.002109,
        "SP98": 0.0021680000000000002
      },
      "maj_gouv": {
        "Gazole": "2026-05-20 12:36:42",
        "SP95": "2026-05-20 12:36:43",
        "SP98": "2026-05-20 12:36:43"
      }
    },
    {
      "id": "51220001",
      "lat": 49.37051,
      "lon": 3.88976,
      "cp": "51220",
      "ville": "CORMICY",
      "prix": {
        "Gazole": 0.002178,
        "E10": 0.002041,
        "SP98": 0.002149
      },
      "maj_gouv": {
        "Gazole": "2026-05-19 11:17:26",
        "E10": "2026-05-19 11:17:26",
        "SP98": "2026-05-19 11:17:26"
      }
    },
    {
      "id": "51100033",
      "lat": 49.047,
      "lon": 4.115,
      "cp": "51150",
      "ville": "Tours-sur-Marne",
      "prix": {
        "Gazole": 0.0021360000000000003,
        "E10": 0.002059,
        "SP98": 0.002169
      },
      "maj_gouv": {
        "Gazole": "2026-05-20 08:54:21",
        "E10": "2026-05-20 08:54:21",
        "SP98": "2026-05-20 08:54:21"
      }
    },
    {
      "id": "51310001",
      "lat": 48.722,
      "lon": 3.553,
      "cp": "51310",
      "ville": "Esternay",
      "prix": {
        "Gazole": 0.002099,
        "SP95": 0.002089,
        "E85": 0.0008179999999999999,
        "E10": 0.001999
      },
      "maj_gouv": {
        "Gazole": "2026-05-21 08:43:12",
        "SP95": "2026-05-21 08:43:12",
        "E85": "2026-04-28 08:50:20",
        "E10": "2026-05-21 08:43:13"
      }
    },
    {
      "id": "51303001",
      "lat": 48.731,
      "lon": 4.6,
      "cp": "51300",
      "ville": "Vitry-le-François",
      "prix": {
        "Gazole": 0.002112,
        "SP95": 0.002115,
        "E85": 0.000829,
        "GPLc": 0.001082,
        "E10": 0.002089,
        "SP98": 0.002159
      },
      "maj_gouv": {
        "Gazole": "2026-05-22 01:16:00",
        "SP95": "2026-05-22 01:16:00",
        "E85": "2026-05-22 01:16:00",
        "GPLc": "2026-05-22 01:16:00",
        "E10": "2026-05-22 01:16:00",
        "SP98": "2026-05-22 01:16:00"
      }
    },
    {
      "id": "51510002",
      "lat": 48.959,
      "lon": 4.314,
      "cp": "51510",
      "ville": "FAGNIèRES",
      "prix": {
        "Gazole": 0.0021190000000000002,
        "E85": 0.00088,
        "GPLc": 0.000995,
        "E10": 0.002078,
        "SP98": 0.002146
      },
      "maj_gouv": {
        "Gazole": "2026-05-22 01:15:00",
        "E85": "2026-05-22 01:15:00",
        "GPLc": "2026-05-22 01:15:00",
        "E10": "2026-05-22 01:15:00",
        "SP98": "2026-05-22 01:15:00"
      }
    },
    {
      "id": "51140005",
      "lat": 49.274863981363,
      "lon": 3.869878999253,
      "cp": "51140",
      "ville": "MUIZON",
      "prix": {
        "Gazole": 0.002157,
        "E10": 0.00199,
        "SP98": 0.00199
      },
      "maj_gouv": {
        "Gazole": "2026-05-22 05:57:31",
        "E10": "2026-05-22 05:57:31",
        "SP98": "2026-05-22 05:57:31"
      }
    },
    {
      "id": "51800012",
      "lat": 49.074,
      "lon": 4.791,
      "cp": "51800",
      "ville": "Valmy",
      "prix": {
        "Gazole": 0.0022280000000000004,
        "E85": 0.000999,
        "GPLc": 0.00116,
        "E10": 0.002149,
        "SP98": 0.002216
      },
      "maj_gouv": {
        "Gazole": "2026-05-21 09:13:45",
        "E85": "2026-05-21 09:13:45",
        "GPLc": "2026-05-21 09:13:45",
        "E10": "2026-05-21 09:13:45",
        "SP98": "2026-05-21 09:13:45"
      }
    },
    {
      "id": "51490001",
      "lat": 49.302,
      "lon": 4.323,
      "cp": "51490",
      "ville": "Pontfaverger-Moronvilliers",
      "prix": {
        "Gazole": 0.002189,
        "E85": 0.0008179999999999999,
        "E10": 0.0020299999999999997,
        "SP98": 0.0021379999999999997
      },
      "maj_gouv": {
        "Gazole": "2026-04-28 17:09:00",
        "E85": "2026-04-17 10:59:15",
        "E10": "2026-05-12 10:55:11",
        "SP98": "2026-05-12 10:55:12"
      }
    },
    {
      "id": "51100051",
      "lat": 49.242,
      "lon": 4.082,
      "cp": "51100",
      "ville": "Reims",
      "prix": {
        "Gazole": 0.0021190000000000002,
        "E85": 0.000819,
        "E10": 0.002099,
        "SP98": 0.002189
      },
      "maj_gouv": {
        "Gazole": "2026-05-21 12:20:31",
        "E85": "2026-05-15 08:23:42",
        "E10": "2026-05-21 12:20:31",
        "SP98": "2026-05-21 12:20:31"
      }
    },
    {
      "id": "51000009",
      "lat": 48.979,
      "lon": 4.357,
      "cp": "51000",
      "ville": "CHALONS-EN-CHAMPAGNE",
      "prix": {
        "Gazole": 0.00218,
        "E10": 0.002059,
        "SP98": 0.0021680000000000002
      },
      "maj_gouv": {
        "Gazole": "2026-05-15 10:15:00",
        "E10": "2026-05-18 16:10:14",
        "SP98": "2026-05-18 16:10:14"
      }
    },
    {
      "id": "51140003",
      "lat": 49.285,
      "lon": 3.808,
      "cp": "51140",
      "ville": "JONCHERY-SUR-VESLE",
      "prix": {
        "Gazole": 0.002149,
        "E85": 0.000798,
        "E10": 0.002072,
        "SP98": 0.002164
      },
      "maj_gouv": {
        "Gazole": "2026-05-22 01:16:00",
        "E85": "2026-05-22 01:16:00",
        "E10": "2026-05-22 01:16:00",
        "SP98": "2026-05-22 01:16:00"
      }
    },
    {
      "id": "51100001",
      "lat": 49.25166,
      "lon": 4.04689,
      "cp": "51100",
      "ville": "REIMS",
      "prix": {
        "Gazole": 0.002129,
        "SP95": 0.0021190000000000002,
        "SP98": 0.002165
      },
      "maj_gouv": {
        "Gazole": "2026-05-19 12:05:59",
        "SP95": "2026-05-19 12:05:59",
        "SP98": "2026-05-19 12:05:59"
      }
    },
    {
      "id": "51230004",
      "lat": 48.729,
      "lon": 4.228,
      "cp": "51320",
      "ville": "Sommesous",
      "prix": {
        "Gazole": 0.002197,
        "GPLc": 0.0011799999999999998,
        "E10": 0.002153,
        "SP98": 0.00225
      },
      "maj_gouv": {
        "Gazole": "2026-05-19 09:30:00",
        "GPLc": "2026-05-19 09:30:00",
        "E10": "2026-05-19 09:30:00",
        "SP98": "2026-05-19 09:30:00"
      }
    },
    {
      "id": "51110002",
      "lat": 49.349,
      "lon": 4.209,
      "cp": "51110",
      "ville": "Warmeriville",
      "prix": {
        "Gazole": 0.002124,
        "SP95": 0.0021160000000000003,
        "E85": 0.000819,
        "GPLc": 0.001109,
        "E10": 0.0020659999999999997,
        "SP98": 0.002176
      },
      "maj_gouv": {
        "Gazole": "2026-05-19 23:59:00",
        "SP95": "2026-05-19 23:59:00",
        "E85": "2026-04-14 14:45:00",
        "GPLc": "2026-04-13 11:28:23",
        "E10": "2026-05-19 23:59:00",
        "SP98": "2026-05-19 23:59:00"
      }
    },
    {
      "id": "51370005",
      "lat": 49.264752,
      "lon": 3.9898559999999996,
      "cp": "51370",
      "ville": "saint brice courcelles",
      "prix": {
        "Gazole": 0.002181,
        "E85": 0.000859
      },
      "maj_gouv": {
        "Gazole": "2026-05-21 08:41:17",
        "E85": "2026-05-21 08:41:17"
      }
    },
    {
      "id": "51160002",
      "lat": 49.054,
      "lon": 4.004,
      "cp": "51160",
      "ville": "AY",
      "prix": {
        "Gazole": 0.00213,
        "E10": 0.00207,
        "SP98": 0.002134
      },
      "maj_gouv": {
        "Gazole": "2026-05-22 01:15:00",
        "E10": "2026-05-22 01:15:00",
        "SP98": "2026-05-22 01:15:00"
      }
    },
    {
      "id": "51210005",
      "lat": 48.876,
      "lon": 3.538,
      "cp": "51210",
      "ville": "MONTMIRAIL",
      "prix": {
        "Gazole": 0.002093,
        "E85": 0.0008219999999999999,
        "SP98": 0.00199
      },
      "maj_gouv": {
        "Gazole": "2026-05-22 00:01:00",
        "E85": "2026-05-22 00:01:00",
        "SP98": "2026-05-22 00:01:00"
      }
    },
    {
      "id": "51460003",
      "lat": 48.988,
      "lon": 4.503,
      "cp": "51460",
      "ville": "COURTISOLS",
      "prix": {
        "Gazole": 0.002145,
        "E85": 0.000798,
        "E10": 0.002055,
        "SP98": 0.002195
      },
      "maj_gouv": {
        "Gazole": "2026-05-15 05:40:43",
        "E85": "2026-05-15 05:40:43",
        "E10": "2026-05-15 05:40:43",
        "SP98": "2026-05-15 05:40:43"
      }
    },
    {
      "id": "51210001",
      "lat": 48.873,
      "lon": 3.54,
      "cp": "51210",
      "ville": "MONTMIRAIL",
      "prix": {
        "Gazole": 0.002129,
        "E10": 0.002059,
        "SP98": 0.002159
      },
      "maj_gouv": {
        "Gazole": "2026-05-18 11:50:37",
        "E10": "2026-05-21 08:00:34",
        "SP98": "2026-05-18 11:50:38"
      }
    },
    {
      "id": "51100046",
      "lat": 49.228,
      "lon": 4.038,
      "cp": "51100",
      "ville": "REIMS",
      "prix": {
        "Gazole": 0.002093,
        "E10": 0.00199,
        "SP98": 0.00199
      },
      "maj_gouv": {
        "Gazole": "2026-05-22 00:01:00",
        "E10": "2026-05-22 00:01:00",
        "SP98": "2026-05-22 00:01:00"
      }
    },
    {
      "id": "51230001",
      "lat": 48.759,
      "lon": 3.986,
      "cp": "51230",
      "ville": "FèRE-CHAMPENOISE",
      "prix": {
        "Gazole": 0.002099,
        "E10": 0.002057,
        "SP98": 0.002159
      },
      "maj_gouv": {
        "Gazole": "2026-05-19 07:10:20",
        "E10": "2026-05-19 07:10:20",
        "SP98": "2026-05-19 07:10:21"
      }
    },
    {
      "id": "51370003",
      "lat": 49.21872,
      "lon": 3.96403,
      "cp": "51370",
      "ville": "Les Mesneux",
      "prix": {
        "Gazole": 0.002128,
        "E10": 0.0020510000000000003,
        "SP98": 0.0021880000000000003
      },
      "maj_gouv": {
        "Gazole": "2026-05-15 08:47:11",
        "E10": "2026-05-15 08:47:11",
        "SP98": "2026-05-15 08:47:12"
      }
    },
    {
      "id": "51420001",
      "lat": 49.285,
      "lon": 4.109,
      "cp": "51420",
      "ville": "WITRY-LèS-REIMS",
      "prix": {
        "Gazole": 0.0021230000000000003,
        "SP95": 0.002108,
        "E10": 0.002061,
        "SP98": 0.002144
      },
      "maj_gouv": {
        "Gazole": "2026-05-21 08:45:57",
        "SP95": "2026-05-21 08:45:57",
        "E10": "2026-05-21 08:45:57",
        "SP98": "2026-05-21 08:45:57"
      }
    },
    {
      "id": "51360001",
      "lat": 49.1736,
      "lon": 4.1837,
      "cp": "51360",
      "ville": "Beaumont-sur-Vesle",
      "prix": {
        "Gazole": 0.0022280000000000004,
        "E10": 0.00199
      },
      "maj_gouv": {
        "Gazole": "2026-05-20 07:44:57",
        "E10": "2026-05-20 07:44:57"
      }
    },
    {
      "id": "51200004",
      "lat": 49.047,
      "lon": 3.95,
      "cp": "51200",
      "ville": "Épernay",
      "prix": {
        "Gazole": 0.0021019999999999997,
        "E10": 0.002092,
        "SP98": 0.0021720000000000003
      },
      "maj_gouv": {
        "Gazole": "2026-05-21 07:50:00",
        "E10": "2026-05-21 07:50:00",
        "SP98": "2026-05-21 07:50:00"
      }
    },
    {
      "id": "51100015",
      "lat": 49.256,
      "lon": 4.047,
      "cp": "51100",
      "ville": "Reims",
      "prix": {
        "Gazole": 0.0021019999999999997,
        "E10": 0.002078,
        "SP98": 0.0021579999999999998
      },
      "maj_gouv": {
        "Gazole": "2026-05-21 07:51:00",
        "E10": "2026-05-21 07:51:00",
        "SP98": "2026-05-21 07:51:00"
      }
    },
    {
      "id": "51300013",
      "lat": 48.735,
      "lon": 4.59,
      "cp": "51300",
      "ville": "Vitry-le-François",
      "prix": {
        "Gazole": 0.002093,
        "E85": 0.000839,
        "E10": 0.00199,
        "SP98": 0.00199
      },
      "maj_gouv": {
        "Gazole": "2026-05-22 00:01:00",
        "E85": "2026-05-22 00:01:00",
        "E10": "2026-05-22 00:01:00",
        "SP98": "2026-05-22 00:01:00"
      }
    },
    {
      "id": "51430007",
      "lat": 49.249,
      "lon": 3.992,
      "cp": "51430",
      "ville": "TINQUEUX",
      "prix": {
        "Gazole": 0.002093,
        "E85": 0.000843,
        "E10": 0.00199,
        "SP98": 0.00199
      },
      "maj_gouv": {
        "Gazole": "2026-05-22 00:01:00",
        "E85": "2026-05-22 00:01:00",
        "E10": "2026-05-22 00:01:00",
        "SP98": "2026-05-22 00:01:00"
      }
    },
    {
      "id": "51800004",
      "lat": 49.087,
      "lon": 4.88,
      "cp": "51800",
      "ville": "SAINTE-MENEHOULD",
      "prix": {
        "Gazole": 0.002199,
        "SP95": 0.002169,
        "E85": 0.000879,
        "GPLc": 0.0013289999999999999,
        "SP98": 0.002199
      },
      "maj_gouv": {
        "Gazole": "2026-05-21 07:00:00",
        "SP95": "2026-05-21 07:00:00",
        "E85": "2026-05-14 07:00:00",
        "GPLc": "2026-04-03 14:14:26",
        "SP98": "2026-05-21 07:00:00"
      }
    },
    {
      "id": "51170002",
      "lat": 49.309,
      "lon": 3.697,
      "cp": "51170",
      "ville": "FISMES",
      "prix": {
        "Gazole": 0.0021720000000000003,
        "E10": 0.00199,
        "SP98": 0.00199
      },
      "maj_gouv": {
        "Gazole": "2026-05-22 04:00:00",
        "E10": "2026-05-19 06:02:48",
        "SP98": "2026-05-19 06:02:48"
      }
    },
    {
      "id": "51200005",
      "lat": 49.0632528,
      "lon": 3.9601343,
      "cp": "51200",
      "ville": "ÉPERNAY",
      "prix": {
        "Gazole": 0.00213,
        "SP95": 0.0021160000000000003,
        "E85": 0.0008449999999999999,
        "E10": 0.00206,
        "SP98": 0.002134
      },
      "maj_gouv": {
        "Gazole": "2026-05-22 01:15:00",
        "SP95": "2026-05-22 01:15:00",
        "E85": "2026-05-22 01:15:00",
        "E10": "2026-05-22 01:15:00",
        "SP98": "2026-05-22 01:15:00"
      }
    },
    {
      "id": "51200001",
      "lat": 49.049,
      "lon": 3.963,
      "cp": "51200",
      "ville": "ÉPERNAY",
      "prix": {
        "Gazole": 0.0021349999999999997,
        "SP95": 0.0021190000000000002,
        "E10": 0.002065,
        "SP98": 0.0021349999999999997
      },
      "maj_gouv": {
        "Gazole": "2026-05-21 11:42:47",
        "SP95": "2026-05-21 11:42:47",
        "E10": "2026-05-21 11:42:47",
        "SP98": "2026-05-21 11:42:47"
      }
    },
    {
      "id": "51400003",
      "lat": 49.139,
      "lon": 4.366,
      "cp": "51400",
      "ville": "MOURMELON-LE-GRAND",
      "prix": {
        "Gazole": 0.002229,
        "SP95": 0.002199,
        "SP98": 0.002229
      },
      "maj_gouv": {
        "Gazole": "2026-05-21 22:42:00",
        "SP95": "2026-05-21 22:42:00",
        "SP98": "2026-05-21 22:42:00"
      }
    },
    {
      "id": "51000001",
      "lat": 48.942,
      "lon": 4.389,
      "cp": "51000",
      "ville": "CHâLONS-EN-CHAMPAGNE",
      "prix": {
        "Gazole": 0.002118,
        "E85": 0.000889,
        "E10": 0.0020729999999999998,
        "SP98": 0.002235
      },
      "maj_gouv": {
        "Gazole": "2026-05-22 04:04:08",
        "E85": "2026-05-22 04:04:08",
        "E10": "2026-05-22 04:04:08",
        "SP98": "2026-05-22 04:04:08"
      }
    },
    {
      "id": "51170003",
      "lat": 49.308,
      "lon": 3.668,
      "cp": "51170",
      "ville": "FISMES",
      "prix": {
        "Gazole": 0.002089,
        "E85": 0.000798,
        "GPLc": 0.001099,
        "E10": 0.002029,
        "SP98": 0.002169
      },
      "maj_gouv": {
        "Gazole": "2026-05-15 12:17:33",
        "E85": "2026-05-19 10:18:09",
        "GPLc": "2026-05-06 07:14:19",
        "E10": "2026-05-15 12:17:34",
        "SP98": "2026-05-15 12:17:34"
      }
    },
    {
      "id": "51130001",
      "lat": 48.899,
      "lon": 4.006,
      "cp": "51130",
      "ville": "VERTUS",
      "prix": {
        "Gazole": 0.0021309999999999996,
        "E85": 0.000804,
        "E10": 0.0020729999999999998,
        "SP98": 0.002159
      },
      "maj_gouv": {
        "Gazole": "2026-05-20 11:30:17",
        "E85": "2026-05-19 11:30:51",
        "E10": "2026-05-21 11:01:33",
        "SP98": "2026-05-20 11:30:18"
      }
    },
    {
      "id": "51800014",
      "lat": 49.095920119844,
      "lon": 4.9235629037049,
      "cp": "51800",
      "ville": "SAINTE MENEHOULD",
      "prix": {
        "Gazole": 0.002129,
        "E85": 0.0008179999999999999,
        "E10": 0.002079,
        "SP98": 0.0021190000000000002
      },
      "maj_gouv": {
        "Gazole": "2026-05-13 11:20:09",
        "E85": "2026-04-30 09:15:41",
        "E10": "2026-05-21 08:40:00",
        "SP98": "2026-05-07 13:00:13"
      }
    },
    {
      "id": "51700007",
      "lat": 49.081,
      "lon": 3.65,
      "cp": "51700",
      "ville": "DORMANS",
      "prix": {
        "Gazole": 0.002093
      },
      "maj_gouv": {
        "Gazole": "2026-05-22 00:01:00"
      }
    },
    {
      "id": "51100060",
      "lat": 49.241461288036,
      "lon": 4.017586872860201,
      "cp": "51100",
      "ville": "Reims",
      "prix": {
        "Gazole": 0.002169,
        "E85": 0.000798,
        "E10": 0.002099
      },
      "maj_gouv": {
        "Gazole": "2026-05-21 11:44:56",
        "E85": "2026-05-21 11:44:56",
        "E10": "2026-05-21 11:44:56"
      }
    },
    {
      "id": "51500007",
      "lat": 49.161872,
      "lon": 4.080778,
      "cp": "51500",
      "ville": "LUDES",
      "prix": {
        "Gazole": 0.002184,
        "SP95": 0.00216,
        "E85": 0.0008489999999999999,
        "SP98": 0.0022400000000000002
      },
      "maj_gouv": {
        "Gazole": "2026-05-15 16:05:37",
        "SP95": "2026-05-15 16:05:37",
        "E85": "2026-05-09 09:37:40",
        "SP98": "2026-05-15 16:05:37"
      }
    },
    {
      "id": "51800015",
      "lat": 49.07228,
      "lon": 4.788,
      "cp": "51800",
      "ville": "Valmy",
      "prix": {
        "Gazole": 0.002159,
        "E85": 0.000999,
        "GPLc": 0.001129,
        "E10": 0.002076,
        "SP98": 0.002146
      },
      "maj_gouv": {
        "Gazole": "2026-05-21 20:00:00",
        "E85": "2026-05-21 20:00:00",
        "GPLc": "2026-05-21 20:00:00",
        "E10": "2026-05-21 20:00:00",
        "SP98": "2026-05-21 20:00:00"
      }
    }
  ]
}