{
  "departement": "17",
  "date": "2026-05-22",
  "stations": [
    {
      "id": "17220002",
      "lat": 46.084,
      "lon": -1.074,
      "cp": "17220",
      "ville": "Salles-sur-Mer",
      "prix": {
        "Gazole": 0.002091,
        "E10": 0.002032,
        "SP98": 0.002175
      },
      "maj_gouv": {
        "Gazole": "2026-05-21 12:16:20",
        "E10": "2026-05-21 12:16:20",
        "SP98": "2026-05-21 12:16:20"
      }
    },
    {
      "id": "17600004",
      "lat": 45.6656317,
      "lon": -0.943392,
      "cp": "17600",
      "ville": "Medis",
      "prix": {
        "Gazole": 0.002085,
        "SP95": 0.002115,
        "E10": 0.002079
      },
      "maj_gouv": {
        "Gazole": "2026-05-20 07:01:41",
        "SP95": "2026-05-20 07:01:41",
        "E10": "2026-05-20 07:01:41"
      }
    },
    {
      "id": "17201001",
      "lat": 45.632,
      "lon": -0.992,
      "cp": "17200",
      "ville": "ROYAN",
      "prix": {
        "Gazole": 0.002085,
        "E85": 0.0007790000000000001,
        "GPLc": 0.001095,
        "E10": 0.002079,
        "SP98": 0.002159
      },
      "maj_gouv": {
        "Gazole": "2026-05-20 07:00:55",
        "E85": "2026-04-18 07:22:41",
        "GPLc": "2026-05-05 07:20:51",
        "E10": "2026-05-20 07:00:55",
        "SP98": "2026-05-20 07:00:56"
      }
    },
    {
      "id": "17580002",
      "lat": 46.177710860263,
      "lon": -1.3721589695779002,
      "cp": "17580",
      "ville": "Le-Bois-Plage-En-Ré",
      "prix": {
        "Gazole": 0.002099,
        "SP95": 0.002047,
        "SP98": 0.002099
      },
      "maj_gouv": {
        "Gazole": "2026-05-13 08:23:46",
        "SP95": "2026-05-13 08:23:46",
        "SP98": "2026-05-13 08:23:46"
      }
    },
    {
      "id": "17470001",
      "lat": 46.029,
      "lon": -0.351,
      "cp": "17470",
      "ville": "Aulnay",
      "prix": {
        "Gazole": 0.002095,
        "E10": 0.0020350000000000004,
        "SP98": 0.002159
      },
      "maj_gouv": {
        "Gazole": "2026-05-21 09:00:00",
        "E10": "2026-05-21 08:22:46",
        "SP98": "2026-05-21 09:00:00"
      }
    },
    {
      "id": "17120004",
      "lat": 45.506,
      "lon": -0.757,
      "cp": "17120",
      "ville": "BOUTENAC TOUVENT",
      "prix": {},
      "maj_gouv": {}
    },
    {
      "id": "17150001",
      "lat": 45.378,
      "lon": -0.57,
      "cp": "17150",
      "ville": "Mirambeau",
      "prix": {
        "Gazole": 0.002079,
        "E85": 0.000759,
        "E10": 0.002069,
        "SP98": 0.002149
      },
      "maj_gouv": {
        "Gazole": "2026-05-22 06:12:50",
        "E85": "2026-04-29 07:29:54",
        "E10": "2026-05-20 06:53:17",
        "SP98": "2026-05-20 06:53:17"
      }
    },
    {
      "id": "17220003",
      "lat": 46.1505429,
      "lon": -1.0765411900000001,
      "cp": "17220",
      "ville": "Saint-Rogatien",
      "prix": {
        "Gazole": 0.002069,
        "E10": 0.002049,
        "SP98": 0.002129
      },
      "maj_gouv": {
        "Gazole": "2026-05-21 09:05:46",
        "E10": "2026-05-21 09:05:46",
        "SP98": "2026-05-21 09:05:46"
      }
    },
    {
      "id": "17520002",
      "lat": 45.558,
      "lon": -0.402,
      "cp": "17520",
      "ville": "Jarnac-Champagne",
      "prix": {
        "Gazole": 0.0022299999999999998,
        "SP98": 0.00199
      },
      "maj_gouv": {
        "Gazole": "2026-05-21 15:16:15",
        "SP98": "2026-05-21 15:16:15"
      }
    },
    {
      "id": "17430007",
      "lat": 45.95,
      "lon": -0.926,
      "cp": "17430",
      "ville": "Tonnay-Charente",
      "prix": {
        "Gazole": 0.002093,
        "E85": 0.000829,
        "GPLc": 0.000999,
        "E10": 0.00199
      },
      "maj_gouv": {
        "Gazole": "2026-05-22 00:01:00",
        "E85": "2026-05-22 00:01:00",
        "GPLc": "2026-05-22 00:01:00",
        "E10": "2026-05-22 00:01:00"
      }
    },
    {
      "id": "17350001",
      "lat": 45.892307179057,
      "lon": -0.6041038262695699,
      "cp": "17350",
      "ville": "Fenioux",
      "prix": {
        "Gazole": 0.002407,
        "E10": 0.0024289999999999997,
        "SP98": 0.002579
      },
      "maj_gouv": {
        "Gazole": "2026-05-21 09:30:00",
        "E10": "2026-05-21 09:30:00",
        "SP98": "2026-05-21 09:30:00"
      }
    },
    {
      "id": "17220001",
      "lat": 46.135631223332,
      "lon": -1.0081144671220001,
      "cp": "17220",
      "ville": "La Jarrie",
      "prix": {
        "Gazole": 0.0021219999999999998,
        "E85": 0.000798,
        "GPLc": 0.000999,
        "E10": 0.0020510000000000003,
        "SP98": 0.00217
      },
      "maj_gouv": {
        "Gazole": "2026-05-20 08:38:36",
        "E85": "2026-05-16 08:37:59",
        "GPLc": "2026-05-12 16:11:18",
        "E10": "2026-05-20 08:38:41",
        "SP98": "2026-05-20 08:38:45"
      }
    },
    {
      "id": "17600006",
      "lat": 45.733,
      "lon": -0.96,
      "cp": "17600",
      "ville": "Le Gua",
      "prix": {
        "Gazole": 0.002089,
        "E85": 0.000869,
        "E10": 0.002079,
        "SP98": 0.002139
      },
      "maj_gouv": {
        "Gazole": "2026-05-15 11:29:26",
        "E85": "2026-05-15 11:29:26",
        "E10": "2026-05-20 10:06:47",
        "SP98": "2026-05-20 10:06:48"
      }
    },
    {
      "id": "17138007",
      "lat": 46.177,
      "lon": -1.103,
      "cp": "17138",
      "ville": "PUILBOREAU",
      "prix": {
        "Gazole": 0.002093,
        "E10": 0.00199,
        "SP98": 0.00199
      },
      "maj_gouv": {
        "Gazole": "2026-05-22 00:01:00",
        "E10": "2026-05-22 00:01:00",
        "SP98": "2026-05-22 00:01:00"
      }
    },
    {
      "id": "17300006",
      "lat": 45.948,
      "lon": -0.976,
      "cp": "17300",
      "ville": "ROCHEFORT",
      "prix": {
        "Gazole": 0.002109,
        "E10": 0.002079,
        "SP98": 0.002229
      },
      "maj_gouv": {
        "Gazole": "2026-05-21 12:08:57",
        "E10": "2026-05-21 12:08:57",
        "SP98": "2026-05-21 12:08:57"
      }
    },
    {
      "id": "17800001",
      "lat": 45.609,
      "lon": -0.597,
      "cp": "17800",
      "ville": "Saint-Léger",
      "prix": {
        "Gazole": 0.002274,
        "E10": 0.002214,
        "SP98": 0.0023740000000000002
      },
      "maj_gouv": {
        "Gazole": "2026-05-19 11:26:56",
        "E10": "2026-05-19 11:26:56",
        "SP98": "2026-05-19 11:26:56"
      }
    },
    {
      "id": "17250002",
      "lat": 45.83,
      "lon": -0.877,
      "cp": "17250",
      "ville": "PONT-L'ABBE-D'ARNOULT",
      "prix": {
        "Gazole": 0.002089,
        "SP95": 0.002089,
        "SP98": 0.002175
      },
      "maj_gouv": {
        "Gazole": "2026-05-12 07:40:52",
        "SP95": "2026-05-20 08:11:32",
        "SP98": "2026-05-04 08:53:59"
      }
    },
    {
      "id": "17320002",
      "lat": 45.823,
      "lon": -1.103,
      "cp": "17320",
      "ville": "MARENNES",
      "prix": {
        "Gazole": 0.002089,
        "SP95": 0.002089,
        "SP98": 0.002139
      },
      "maj_gouv": {
        "Gazole": "2026-05-12 08:21:11",
        "SP95": "2026-05-20 10:10:19",
        "SP98": "2026-05-20 10:10:19"
      }
    },
    {
      "id": "17400006",
      "lat": 45.93,
      "lon": -0.527,
      "cp": "17400",
      "ville": "ST JEAN D'ANGELY",
      "prix": {
        "Gazole": 0.002299,
        "E85": 0.000919,
        "GPLc": 0.00108,
        "E10": 0.002179
      },
      "maj_gouv": {
        "Gazole": "2026-05-18 13:59:23",
        "E85": "2026-03-09 13:05:21",
        "GPLc": "2026-05-18 13:59:23",
        "E10": "2026-05-18 13:59:24"
      }
    },
    {
      "id": "17550001",
      "lat": 45.9046154635,
      "lon": -1.2588914413299999,
      "cp": "17550",
      "ville": "DOLUS-D'OLéRON",
      "prix": {
        "Gazole": 0.002055,
        "E10": 0.002049,
        "SP98": 0.00211
      },
      "maj_gouv": {
        "Gazole": "2026-05-21 10:40:39",
        "E10": "2026-05-21 10:40:46",
        "SP98": "2026-05-21 10:40:51"
      }
    },
    {
      "id": "17530001",
      "lat": 45.757,
      "lon": -1.14,
      "cp": "17530",
      "ville": "ARVERT",
      "prix": {
        "Gazole": 0.0021190000000000002,
        "E10": 0.002099,
        "SP98": 0.002199
      },
      "maj_gouv": {
        "Gazole": "2026-05-21 09:18:48",
        "E10": "2026-05-19 10:12:32",
        "SP98": "2026-05-21 09:18:48"
      }
    },
    {
      "id": "17300004",
      "lat": 45.9567589967,
      "lon": -0.977776716334,
      "cp": "17300",
      "ville": "ROCHEFORT",
      "prix": {
        "Gazole": 0.002079,
        "E85": 0.000819,
        "GPLc": 0.000999,
        "E10": 0.002029,
        "SP98": 0.002139
      },
      "maj_gouv": {
        "Gazole": "2026-05-21 07:33:34",
        "E85": "2026-04-15 07:23:31",
        "GPLc": "2026-04-14 08:01:12",
        "E10": "2026-05-20 07:28:01",
        "SP98": "2026-05-20 07:28:15"
      }
    },
    {
      "id": "17230002",
      "lat": 46.3113113409,
      "lon": -0.9918259519560001,
      "cp": "17230",
      "ville": "MARANS",
      "prix": {
        "Gazole": 0.002069,
        "E10": 0.002069,
        "SP98": 0.002159
      },
      "maj_gouv": {
        "Gazole": "2026-05-22 05:55:42",
        "E10": "2026-05-22 05:55:42",
        "SP98": "2026-05-22 05:55:42"
      }
    },
    {
      "id": "17137002",
      "lat": 46.20265,
      "lon": -1.17434,
      "cp": "17137",
      "ville": "Nieul-sur-Mer",
      "prix": {
        "Gazole": 0.002064,
        "SP95": 0.002089,
        "E10": 0.00206,
        "SP98": 0.0021349999999999997
      },
      "maj_gouv": {
        "Gazole": "2026-05-21 08:30:00",
        "SP95": "2026-05-21 08:30:00",
        "E10": "2026-05-21 08:30:00",
        "SP98": "2026-05-21 08:30:00"
      }
    },
    {
      "id": "17600005",
      "lat": 45.74625835,
      "lon": -0.81248551349124,
      "cp": "17600",
      "ville": "CORME ROYAL",
      "prix": {
        "Gazole": 0.0022,
        "SP95": 0.002145
      },
      "maj_gouv": {
        "Gazole": "2026-05-18 15:21:51",
        "SP95": "2026-05-18 15:21:51"
      }
    },
    {
      "id": "17100011",
      "lat": 45.739,
      "lon": -0.642,
      "cp": "17100",
      "ville": "SAINTES",
      "prix": {
        "Gazole": 0.002169,
        "E10": 0.002159,
        "SP98": 0.0022890000000000002
      },
      "maj_gouv": {
        "Gazole": "2026-05-20 16:48:34",
        "E10": "2026-05-20 16:48:35",
        "SP98": "2026-05-20 16:48:34"
      }
    },
    {
      "id": "17200003",
      "lat": 45.64756295629999,
      "lon": -1.02447404804,
      "cp": "17200",
      "ville": "ROYAN",
      "prix": {
        "Gazole": 0.002145,
        "SP98": 0.00199
      },
      "maj_gouv": {
        "Gazole": "2026-05-21 09:28:02",
        "SP98": "2026-05-21 09:28:02"
      }
    },
    {
      "id": "17690002",
      "lat": 46.1,
      "lon": -1.092,
      "cp": "17690",
      "ville": "ANGOULINS",
      "prix": {
        "Gazole": 0.002093,
        "E10": 0.00199,
        "SP98": 0.00199
      },
      "maj_gouv": {
        "Gazole": "2026-05-21 06:54:00",
        "E10": "2026-05-21 06:54:00",
        "SP98": "2026-05-21 06:54:00"
      }
    },
    {
      "id": "17330001",
      "lat": 46.09855,
      "lon": -0.50192,
      "cp": "17330",
      "ville": "VILLENEUVE-LA-COMTESSE",
      "prix": {
        "SP95": 0.0018
      },
      "maj_gouv": {
        "SP95": "2026-02-09 09:46:27"
      }
    },
    {
      "id": "17130001",
      "lat": 45.286078695023,
      "lon": -0.39297323215008,
      "cp": "17130",
      "ville": "Montendre",
      "prix": {
        "Gazole": 0.0021190000000000002,
        "E10": 0.002078,
        "SP98": 0.002198
      },
      "maj_gouv": {
        "Gazole": "2026-05-21 14:26:50",
        "E10": "2026-05-20 17:24:47",
        "SP98": "2026-05-20 17:24:47"
      }
    },
    {
      "id": "17000010",
      "lat": 46.162,
      "lon": -1.203,
      "cp": "17000",
      "ville": "LA ROCHELLE",
      "prix": {
        "Gazole": 0.002159,
        "E10": 0.002099,
        "SP98": 0.002219
      },
      "maj_gouv": {
        "Gazole": "2026-05-21 12:08:04",
        "E10": "2026-05-21 12:08:04",
        "SP98": "2026-05-21 12:08:04"
      }
    },
    {
      "id": "17350005",
      "lat": 45.86492,
      "lon": -0.65451,
      "cp": "17350",
      "ville": "Saint-Savinien",
      "prix": {
        "Gazole": 0.002079,
        "E10": 0.002069,
        "SP98": 0.002149
      },
      "maj_gouv": {
        "Gazole": "2026-05-19 17:19:56",
        "E10": "2026-05-19 17:19:56",
        "SP98": "2026-05-19 17:19:56"
      }
    },
    {
      "id": "17130003",
      "lat": 45.281,
      "lon": -0.394,
      "cp": "17130",
      "ville": "Montendre",
      "prix": {
        "Gazole": 0.002191,
        "E10": 0.0019790000000000003
      },
      "maj_gouv": {
        "Gazole": "2026-05-19 11:04:48",
        "E10": "2026-05-19 11:04:48"
      }
    },
    {
      "id": "17230004",
      "lat": 46.259352845312996,
      "lon": -1.0145328124164998,
      "cp": "17230",
      "ville": "Andilly",
      "prix": {
        "Gazole": 0.002049,
        "E85": 0.000819,
        "GPLc": 0.000955,
        "E10": 0.002016,
        "SP98": 0.002089
      },
      "maj_gouv": {
        "Gazole": "2026-05-16 10:22:18",
        "E85": "2026-05-16 10:22:18",
        "GPLc": "2026-04-10 09:37:29",
        "E10": "2026-05-16 10:22:19",
        "SP98": "2026-04-30 09:38:36"
      }
    },
    {
      "id": "17800005",
      "lat": 45.613,
      "lon": -0.604,
      "cp": "17800",
      "ville": "Saint-Léger",
      "prix": {
        "Gazole": 0.0024790000000000003,
        "GPLc": 0.001339,
        "E10": 0.002379,
        "SP98": 0.002529
      },
      "maj_gouv": {
        "Gazole": "2026-05-21 12:25:43",
        "GPLc": "2026-05-21 12:25:43",
        "E10": "2026-05-21 12:25:43",
        "SP98": "2026-05-21 12:25:43"
      }
    },
    {
      "id": "17520001",
      "lat": 45.528,
      "lon": -0.304,
      "cp": "17520",
      "ville": "Archiac",
      "prix": {
        "Gazole": 0.002155,
        "SP95": 0.0021230000000000003,
        "SP98": 0.002211
      },
      "maj_gouv": {
        "Gazole": "2026-05-20 10:31:20",
        "SP95": "2026-05-20 10:31:20",
        "SP98": "2026-05-20 10:31:20"
      }
    },
    {
      "id": "17530003",
      "lat": 45.742,
      "lon": -1.121,
      "cp": "17530",
      "ville": "ARVERT",
      "prix": {
        "Gazole": 0.0021190000000000002,
        "SP95": 0.002185,
        "SP98": 0.002199
      },
      "maj_gouv": {
        "Gazole": "2026-05-21 10:50:02",
        "SP95": "2026-05-21 10:50:02",
        "SP98": "2026-05-21 10:50:02"
      }
    },
    {
      "id": "17410002",
      "lat": 46.19834,
      "lon": -1.35416,
      "cp": "17410",
      "ville": "Saint-Martin-de-Ré",
      "prix": {
        "Gazole": 0.0020670000000000003,
        "E85": 0.000798,
        "E10": 0.002052,
        "SP98": 0.002129
      },
      "maj_gouv": {
        "Gazole": "2026-05-20 09:16:44",
        "E85": "2026-05-18 09:06:32",
        "E10": "2026-05-21 09:40:03",
        "SP98": "2026-05-21 09:40:03"
      }
    },
    {
      "id": "17600003",
      "lat": 45.666763810757,
      "lon": -0.94629032870432,
      "cp": "17600",
      "ville": "Saujon",
      "prix": {
        "Gazole": 0.002089,
        "E85": 0.000798,
        "E10": 0.002079,
        "SP98": 0.002159
      },
      "maj_gouv": {
        "Gazole": "2026-05-20 08:29:01",
        "E85": "2026-05-15 09:00:15",
        "E10": "2026-05-20 08:29:02",
        "SP98": "2026-05-20 08:29:02"
      }
    },
    {
      "id": "17210006",
      "lat": 45.173121499096,
      "lon": -0.33316234673913997,
      "cp": "17210",
      "ville": "Bedenac",
      "prix": {
        "Gazole": 0.002269,
        "E85": 0.000885,
        "GPLc": 0.001089,
        "E10": 0.002199,
        "SP98": 0.0022890000000000002
      },
      "maj_gouv": {
        "Gazole": "2026-05-20 08:55:35",
        "E85": "2026-05-20 08:55:35",
        "GPLc": "2026-05-20 08:55:35",
        "E10": "2026-05-20 08:55:35",
        "SP98": "2026-05-20 08:55:35"
      }
    },
    {
      "id": "17440001",
      "lat": 46.131,
      "lon": -1.099,
      "cp": "17440",
      "ville": "AYTRE",
      "prix": {
        "Gazole": 0.0021360000000000003,
        "E10": 0.00199
      },
      "maj_gouv": {
        "Gazole": "2026-05-21 06:48:18",
        "E10": "2026-05-19 13:05:55"
      }
    },
    {
      "id": "17140001",
      "lat": 46.1739427831,
      "lon": -1.16766879889,
      "cp": "17140",
      "ville": "LAGORD",
      "prix": {
        "Gazole": 0.002064,
        "SP95": 0.002085,
        "E10": 0.002049,
        "SP98": 0.002112
      },
      "maj_gouv": {
        "Gazole": "2026-05-21 08:58:17",
        "SP95": "2026-05-20 08:41:35",
        "E10": "2026-05-21 08:58:17",
        "SP98": "2026-05-20 08:41:35"
      }
    },
    {
      "id": "17440003",
      "lat": 46.1386,
      "lon": -1.13925,
      "cp": "17440",
      "ville": "AYTRé",
      "prix": {
        "Gazole": 0.0021160000000000003,
        "SP95": 0.0020859999999999997,
        "SP98": 0.002169
      },
      "maj_gouv": {
        "Gazole": "2026-05-19 11:41:35",
        "SP95": "2026-05-19 11:41:35",
        "SP98": "2026-05-19 11:41:35"
      }
    },
    {
      "id": "17160002",
      "lat": 45.87435,
      "lon": -0.31139,
      "cp": "17160",
      "ville": "Matha",
      "prix": {
        "Gazole": 0.00222,
        "E10": 0.00206,
        "SP98": 0.0021230000000000003
      },
      "maj_gouv": {
        "Gazole": "2026-05-05 15:34:09",
        "E10": "2026-05-05 15:34:10",
        "SP98": "2026-05-05 15:34:10"
      }
    },
    {
      "id": "17620002",
      "lat": 45.90695,
      "lon": -0.96161,
      "cp": "17620",
      "ville": "ECHILLAIS",
      "prix": {
        "Gazole": 0.002079,
        "E85": 0.000789,
        "E10": 0.002049,
        "SP98": 0.002139
      },
      "maj_gouv": {
        "Gazole": "2026-05-13 10:58:53",
        "E85": "2026-05-18 17:42:17",
        "E10": "2026-05-21 08:39:58",
        "SP98": "2026-05-21 08:39:58"
      }
    },
    {
      "id": "17690001",
      "lat": 46.111,
      "lon": -1.103,
      "cp": "17690",
      "ville": "ANGOULINS",
      "prix": {
        "Gazole": 0.002053,
        "SP95": 0.002113,
        "E85": 0.000769,
        "GPLc": 0.001029,
        "E10": 0.00202,
        "SP98": 0.002212
      },
      "maj_gouv": {
        "Gazole": "2026-05-22 00:41:00",
        "SP95": "2026-05-22 00:41:00",
        "E85": "2026-05-22 00:41:00",
        "GPLc": "2026-05-22 00:41:00",
        "E10": "2026-05-22 00:41:00",
        "SP98": "2026-05-22 00:41:00"
      }
    },
    {
      "id": "17210007",
      "lat": 45.170103998994,
      "lon": -0.33449343450863,
      "cp": "17210",
      "ville": "bedenac",
      "prix": {
        "Gazole": 0.002269,
        "E85": 0.000885,
        "E10": 0.002199,
        "SP98": 0.0022890000000000002
      },
      "maj_gouv": {
        "Gazole": "2026-05-12 08:29:16",
        "E85": "2026-05-15 00:01:00",
        "E10": "2026-05-15 00:01:00",
        "SP98": "2026-05-15 00:01:00"
      }
    },
    {
      "id": "17138006",
      "lat": 46.177,
      "lon": -1.103,
      "cp": "17138",
      "ville": "PUILBOREAU",
      "prix": {
        "Gazole": 0.002093,
        "E85": 0.0008169999999999999,
        "GPLc": 0.000989,
        "E10": 0.00199,
        "SP98": 0.00199
      },
      "maj_gouv": {
        "Gazole": "2026-05-22 00:01:00",
        "E85": "2026-05-22 00:01:00",
        "GPLc": "2026-05-22 00:01:00",
        "E10": "2026-05-22 00:01:00",
        "SP98": "2026-05-22 00:01:00"
      }
    },
    {
      "id": "17480003",
      "lat": 45.879273256827,
      "lon": -1.2196129659261,
      "cp": "17480",
      "ville": "Le Château-d'Oléron",
      "prix": {
        "Gazole": 0.002055,
        "SP95": 0.002099,
        "E10": 0.002049,
        "SP98": 0.00211
      },
      "maj_gouv": {
        "Gazole": "2026-05-20 08:52:47",
        "SP95": "2026-05-20 08:52:47",
        "E10": "2026-05-20 08:52:47",
        "SP98": "2026-05-20 08:52:48"
      }
    },
    {
      "id": "17350006",
      "lat": 45.894721569803,
      "lon": -0.60338845634462,
      "cp": "17350",
      "ville": "FENIOUX",
      "prix": {
        "Gazole": 0.002454,
        "E85": 0.0010940000000000001,
        "GPLc": 0.001149,
        "E10": 0.002354,
        "SP98": 0.002424
      },
      "maj_gouv": {
        "Gazole": "2026-05-22 00:01:00",
        "E85": "2026-05-22 00:01:00",
        "GPLc": "2026-05-22 00:01:00",
        "E10": "2026-05-22 00:01:00",
        "SP98": "2026-05-22 00:01:00"
      }
    },
    {
      "id": "17780001",
      "lat": 45.922142802672006,
      "lon": -1.002564339813,
      "cp": "17780",
      "ville": "SOUBISE",
      "prix": {
        "Gazole": 0.002089,
        "E10": 0.002009
      },
      "maj_gouv": {
        "Gazole": "2026-05-15 17:49:43",
        "E10": "2026-05-15 17:49:43"
      }
    },
    {
      "id": "17200008",
      "lat": 45.62357,
      "lon": -1.01317,
      "cp": "17200",
      "ville": "ROYAN",
      "prix": {
        "Gazole": 0.002093,
        "E85": 0.0008489999999999999,
        "E10": 0.00199
      },
      "maj_gouv": {
        "Gazole": "2026-05-22 00:01:00",
        "E85": "2026-05-22 00:01:00",
        "E10": "2026-05-22 00:01:00"
      }
    },
    {
      "id": "17320003",
      "lat": 45.82747,
      "lon": -1.09838,
      "cp": "17320",
      "ville": "Marennes",
      "prix": {
        "Gazole": 0.002089,
        "E10": 0.002049,
        "SP98": 0.002139
      },
      "maj_gouv": {
        "Gazole": "2026-05-21 12:14:56",
        "E10": "2026-05-07 09:57:42",
        "SP98": "2026-05-21 12:15:11"
      }
    },
    {
      "id": "17200009",
      "lat": 45.624728149199996,
      "lon": -1.01645691284,
      "cp": "17200",
      "ville": "ROYAN",
      "prix": {
        "Gazole": 0.002093,
        "E10": 0.00199
      },
      "maj_gouv": {
        "Gazole": "2026-05-22 00:01:00",
        "E10": "2026-05-22 00:01:00"
      }
    },
    {
      "id": "17350003",
      "lat": 45.87419,
      "lon": -0.67693,
      "cp": "17350",
      "ville": "Saint-Savinien",
      "prix": {
        "Gazole": 0.002129,
        "E10": 0.00199
      },
      "maj_gouv": {
        "Gazole": "2026-05-21 16:57:23",
        "E10": "2026-05-21 16:57:23"
      }
    },
    {
      "id": "17410001",
      "lat": 46.198,
      "lon": -1.355,
      "cp": "17410",
      "ville": "SAINT-MARTIN-DE-Ré",
      "prix": {
        "Gazole": 0.0020659999999999997,
        "SP95": 0.0020870000000000003,
        "GPLc": 0.000999,
        "E10": 0.002062,
        "SP98": 0.0021360000000000003
      },
      "maj_gouv": {
        "Gazole": "2026-05-21 09:08:33",
        "SP95": "2026-05-20 08:54:00",
        "GPLc": "2026-04-10 07:16:57",
        "E10": "2026-05-21 09:08:33",
        "SP98": "2026-05-20 08:54:00"
      }
    },
    {
      "id": "17430001",
      "lat": 45.946,
      "lon": -0.889,
      "cp": "17430",
      "ville": "Tonnay-Charente",
      "prix": {
        "Gazole": 0.002079,
        "E85": 0.000789,
        "E10": 0.002039,
        "SP98": 0.002139
      },
      "maj_gouv": {
        "Gazole": "2026-05-21 09:00:51",
        "E85": "2026-05-21 09:00:51",
        "E10": "2026-05-21 09:00:51",
        "SP98": "2026-05-21 09:00:51"
      }
    },
    {
      "id": "17300003",
      "lat": 45.929,
      "lon": -0.958,
      "cp": "17300",
      "ville": "ROCHEFORT",
      "prix": {
        "Gazole": 0.002089,
        "E85": 0.00079,
        "E10": 0.002052,
        "SP98": 0.002139
      },
      "maj_gouv": {
        "Gazole": "2026-05-13 10:30:00",
        "E85": "2026-05-02 09:11:23",
        "E10": "2026-05-21 07:50:45",
        "SP98": "2026-05-21 07:50:46"
      }
    },
    {
      "id": "17100007",
      "lat": 45.739,
      "lon": -0.603,
      "cp": "17100",
      "ville": "Saintes",
      "prix": {
        "Gazole": 0.002072,
        "E85": 0.0008179999999999999,
        "E10": 0.002024,
        "SP98": 0.002115
      },
      "maj_gouv": {
        "Gazole": "2026-05-19 08:50:55",
        "E85": "2026-04-16 09:44:52",
        "E10": "2026-05-19 08:50:55",
        "SP98": "2026-05-19 08:50:56"
      }
    },
    {
      "id": "17740001",
      "lat": 46.158,
      "lon": -1.324,
      "cp": "17740",
      "ville": "Sainte-Marie-de-Ré",
      "prix": {
        "Gazole": 0.0021309999999999996,
        "E10": 0.00199,
        "SP98": 0.00199
      },
      "maj_gouv": {
        "Gazole": "2026-05-21 00:01:00",
        "E10": "2026-05-21 00:01:00",
        "SP98": "2026-05-21 13:43:53"
      }
    },
    {
      "id": "17210004",
      "lat": 45.2935182,
      "lon": -0.23916880000000001,
      "cp": "17210",
      "ville": "Chevanceaux",
      "prix": {
        "Gazole": 0.00212,
        "E10": 0.00207,
        "SP98": 0.00215
      },
      "maj_gouv": {
        "Gazole": "2026-05-18 16:00:12",
        "E10": "2026-05-13 09:51:09",
        "SP98": "2026-05-13 09:51:09"
      }
    },
    {
      "id": "17920001",
      "lat": 45.699,
      "lon": -1.053,
      "cp": "17920",
      "ville": "BREUILLET",
      "prix": {
        "Gazole": 0.002179,
        "GPLc": 0.001089,
        "E10": 0.002129,
        "SP98": 0.002229
      },
      "maj_gouv": {
        "Gazole": "2026-05-21 23:05:00",
        "GPLc": "2026-05-21 23:05:00",
        "E10": "2026-05-21 23:05:00",
        "SP98": "2026-05-21 23:05:00"
      }
    },
    {
      "id": "17200006",
      "lat": 45.669,
      "lon": -1.01,
      "cp": "17200",
      "ville": "SAINT-SULPICE-DE-ROYAN",
      "prix": {
        "Gazole": 0.002099,
        "E10": 0.0020499999999999997,
        "SP98": 0.00217
      },
      "maj_gouv": {
        "Gazole": "2026-05-20 16:55:01",
        "E10": "2026-05-20 16:55:01",
        "SP98": "2026-05-20 16:55:01"
      }
    },
    {
      "id": "17570001",
      "lat": 45.687,
      "lon": -1.171,
      "cp": "17570",
      "ville": "LES MATHES",
      "prix": {
        "Gazole": 0.00225
      },
      "maj_gouv": {
        "Gazole": "2026-05-19 11:27:59"
      }
    },
    {
      "id": "17170003",
      "lat": 46.2265632575,
      "lon": -0.8715297856259999,
      "cp": "17170",
      "ville": "Ferrières",
      "prix": {
        "Gazole": 0.002113,
        "SP95": 0.002083,
        "GPLc": 0.0010400000000000001,
        "SP98": 0.002181
      },
      "maj_gouv": {
        "Gazole": "2026-05-21 09:12:39",
        "SP95": "2026-05-18 10:35:16",
        "GPLc": "2026-05-07 12:20:55",
        "SP98": "2026-05-21 09:13:31"
      }
    },
    {
      "id": "17450001",
      "lat": 45.99074,
      "lon": -1.0762,
      "cp": "17450",
      "ville": "FOURAS",
      "prix": {
        "Gazole": 0.0020729999999999998,
        "E10": 0.002039,
        "SP98": 0.002142
      },
      "maj_gouv": {
        "Gazole": "2026-05-18 08:18:28",
        "E10": "2026-05-18 08:18:28",
        "SP98": "2026-05-19 09:20:00"
      }
    },
    {
      "id": "17290003",
      "lat": 46.11624,
      "lon": -0.93553,
      "cp": "17290",
      "ville": "AIGREFEUILLE-D'AUNIS",
      "prix": {
        "Gazole": 0.002089,
        "E85": 0.000819,
        "E10": 0.002039,
        "SP98": 0.002149
      },
      "maj_gouv": {
        "Gazole": "2026-05-21 12:59:10",
        "E85": "2026-04-20 13:02:57",
        "E10": "2026-05-21 12:59:10",
        "SP98": "2026-05-21 12:59:11"
      }
    },
    {
      "id": "17500002",
      "lat": 45.4551675,
      "lon": -0.4409149,
      "cp": "17500",
      "ville": "JONZAC",
      "prix": {
        "Gazole": 0.002095,
        "E85": 0.0008169999999999999,
        "GPLc": 0.001098,
        "E10": 0.00206,
        "SP98": 0.002182
      },
      "maj_gouv": {
        "Gazole": "2026-05-20 09:27:02",
        "E85": "2026-05-11 09:21:41",
        "GPLc": "2026-05-11 09:21:41",
        "E10": "2026-05-20 09:27:02",
        "SP98": "2026-05-20 09:27:02"
      }
    },
    {
      "id": "17160001",
      "lat": 45.869,
      "lon": -0.305,
      "cp": "17160",
      "ville": "Matha",
      "prix": {
        "Gazole": 0.002099,
        "E85": 0.0008179999999999999,
        "E10": 0.002049,
        "SP98": 0.002159
      },
      "maj_gouv": {
        "Gazole": "2026-05-20 08:30:00",
        "E85": "2026-05-07 08:34:27",
        "E10": "2026-05-20 08:30:00",
        "SP98": "2026-05-20 08:30:00"
      }
    },
    {
      "id": "17630001",
      "lat": 46.179,
      "lon": -1.328,
      "cp": "17630",
      "ville": "La Flotte",
      "prix": {
        "Gazole": 0.002039,
        "SP95": 0.002059,
        "E10": 0.001999,
        "SP98": 0.00209
      },
      "maj_gouv": {
        "Gazole": "2026-05-19 09:11:58",
        "SP95": "2026-05-18 09:11:40",
        "E10": "2026-05-15 11:09:24",
        "SP98": "2026-05-15 11:09:24"
      }
    },
    {
      "id": "17000012",
      "lat": 46.156,
      "lon": -1.119,
      "cp": "17000",
      "ville": "La Rochelle",
      "prix": {
        "Gazole": 0.002117,
        "E85": 0.0008309999999999999,
        "E10": 0.00199,
        "SP98": 0.00199
      },
      "maj_gouv": {
        "Gazole": "2026-05-22 00:01:00",
        "E85": "2026-05-22 00:01:00",
        "E10": "2026-05-22 00:01:00",
        "SP98": "2026-05-22 00:01:00"
      }
    },
    {
      "id": "17770002",
      "lat": 45.77508103751399,
      "lon": -0.42216137321515,
      "cp": "17770",
      "ville": "Burie",
      "prix": {
        "Gazole": 0.002111,
        "SP95": 0.002084,
        "SP98": 0.002156
      },
      "maj_gouv": {
        "Gazole": "2026-05-18 07:14:23",
        "SP95": "2026-05-18 07:14:23",
        "SP98": "2026-05-18 07:14:23"
      }
    },
    {
      "id": "17640002",
      "lat": 45.647,
      "lon": -1.049,
      "cp": "17640",
      "ville": "Vaux-sur-Mer",
      "prix": {
        "Gazole": 0.00212,
        "SP95": 0.002132,
        "E85": 0.000799,
        "E10": 0.0020710000000000004
      },
      "maj_gouv": {
        "Gazole": "2026-05-20 09:00:00",
        "SP95": "2026-05-20 09:00:00",
        "E85": "2026-05-19 19:45:00",
        "E10": "2026-05-20 09:00:00"
      }
    },
    {
      "id": "17690004",
      "lat": 46.102,
      "lon": -1.093,
      "cp": "17690",
      "ville": "Angoulins",
      "prix": {
        "Gazole": 0.002179,
        "E85": 0.000855,
        "E10": 0.002129,
        "SP98": 0.002229
      },
      "maj_gouv": {
        "Gazole": "2026-05-21 23:57:00",
        "E85": "2026-05-21 23:57:00",
        "E10": "2026-05-21 23:57:00",
        "SP98": "2026-05-21 23:57:00"
      }
    },
    {
      "id": "17000007",
      "lat": 46.171,
      "lon": -1.204,
      "cp": "17000",
      "ville": "LA ROCHELLE",
      "prix": {
        "Gazole": 0.002209,
        "E85": 0.0008349999999999999,
        "E10": 0.0021190000000000002,
        "SP98": 0.002229
      },
      "maj_gouv": {
        "Gazole": "2026-05-21 23:59:00",
        "E85": "2026-05-21 23:59:00",
        "E10": "2026-05-21 23:59:00",
        "SP98": "2026-05-21 23:59:00"
      }
    },
    {
      "id": "17700001",
      "lat": 46.104,
      "lon": -0.754,
      "cp": "17700",
      "ville": "Surgères",
      "prix": {
        "Gazole": 0.002098,
        "E10": 0.002112,
        "SP98": 0.002164
      },
      "maj_gouv": {
        "Gazole": "2026-05-20 10:30:15",
        "E10": "2026-05-20 10:30:15",
        "SP98": "2026-05-20 10:30:16"
      }
    },
    {
      "id": "17360001",
      "lat": 45.159,
      "lon": -0.019,
      "cp": "17360",
      "ville": "SAINT-AIGULIN",
      "prix": {
        "Gazole": 0.0021190000000000002,
        "E10": 0.002109,
        "SP98": 0.002189
      },
      "maj_gouv": {
        "Gazole": "2026-05-20 06:23:09",
        "E10": "2026-05-20 06:23:09",
        "SP98": "2026-05-20 06:23:09"
      }
    },
    {
      "id": "17260001",
      "lat": 45.576,
      "lon": -0.678,
      "cp": "17260",
      "ville": "GEMOZAC",
      "prix": {
        "Gazole": 0.002089,
        "E85": 0.0007790000000000001,
        "E10": 0.002085,
        "SP98": 0.002149
      },
      "maj_gouv": {
        "Gazole": "2026-05-21 09:58:55",
        "E85": "2026-04-24 09:03:15",
        "E10": "2026-05-21 09:58:55",
        "SP98": "2026-05-21 09:58:55"
      }
    },
    {
      "id": "17320004",
      "lat": 45.83164173,
      "lon": -1.1235933,
      "cp": "17320",
      "ville": "Marennes",
      "prix": {
        "Gazole": 0.002089,
        "SP95": 0.002089,
        "E85": 0.000869,
        "SP98": 0.002139
      },
      "maj_gouv": {
        "Gazole": "2026-05-12 08:21:34",
        "SP95": "2026-05-20 10:04:20",
        "E85": "2026-04-21 09:02:37",
        "SP98": "2026-05-20 10:04:20"
      }
    },
    {
      "id": "17270001",
      "lat": 45.2121397979,
      "lon": -0.177197722832,
      "cp": "17270",
      "ville": "MONTGUYON",
      "prix": {
        "Gazole": 0.0021190000000000002,
        "E85": 0.000798,
        "E10": 0.002029,
        "SP98": 0.002139
      },
      "maj_gouv": {
        "Gazole": "2026-05-18 08:51:33",
        "E85": "2026-05-16 08:50:09",
        "E10": "2026-05-18 08:51:34",
        "SP98": "2026-05-18 08:51:34"
      }
    },
    {
      "id": "17800004",
      "lat": 45.579,
      "lon": -0.558,
      "cp": "17800",
      "ville": "PONS",
      "prix": {
        "Gazole": 0.002089,
        "E85": 0.0007790000000000001,
        "GPLc": 0.001089,
        "E10": 0.002085,
        "SP98": 0.002149
      },
      "maj_gouv": {
        "Gazole": "2026-05-21 09:15:16",
        "E85": "2026-05-16 08:52:16",
        "GPLc": "2026-05-16 08:52:16",
        "E10": "2026-05-21 09:15:16",
        "SP98": "2026-05-21 09:15:16"
      }
    },
    {
      "id": "17139001",
      "lat": 46.189331689999996,
      "lon": -1.0693078599999999,
      "cp": "17139",
      "ville": "DOMPIERRE-SUR-MER",
      "prix": {
        "Gazole": 0.002039,
        "SP95": 0.002109,
        "SP98": 0.0021190000000000002
      },
      "maj_gouv": {
        "Gazole": "2026-05-19 09:00:56",
        "SP95": "2026-05-19 09:00:56",
        "SP98": "2026-05-19 09:00:56"
      }
    },
    {
      "id": "17285001",
      "lat": 46.1736460061,
      "lon": -1.11758831845,
      "cp": "17138",
      "ville": "PUILBOREAU",
      "prix": {
        "Gazole": 0.002068,
        "E85": 0.00075,
        "GPLc": 0.001093,
        "E10": 0.00207,
        "SP98": 0.002149
      },
      "maj_gouv": {
        "Gazole": "2026-05-21 08:44:37",
        "E85": "2026-05-18 09:47:43",
        "GPLc": "2026-05-06 09:02:30",
        "E10": "2026-05-21 08:44:38",
        "SP98": "2026-05-21 08:44:38"
      }
    },
    {
      "id": "17137001",
      "lat": 46.198,
      "lon": -1.158,
      "cp": "17137",
      "ville": "NIEUL-SUR-MER",
      "prix": {
        "Gazole": 0.0022040000000000002,
        "SP95": 0.00199
      },
      "maj_gouv": {
        "Gazole": "2026-05-18 08:17:39",
        "SP95": "2026-05-20 08:15:25"
      }
    },
    {
      "id": "17120002",
      "lat": 45.585,
      "lon": -0.835,
      "cp": "17120",
      "ville": "COZES",
      "prix": {
        "Gazole": 0.002089,
        "E85": 0.0007790000000000001,
        "E10": 0.002085,
        "SP98": 0.002149
      },
      "maj_gouv": {
        "Gazole": "2026-05-21 17:35:28",
        "E85": "2026-04-30 10:29:15",
        "E10": "2026-05-21 17:35:28",
        "SP98": "2026-05-19 10:25:01"
      }
    },
    {
      "id": "17100005",
      "lat": 45.746,
      "lon": -0.674,
      "cp": "17100",
      "ville": "Saintes",
      "prix": {
        "Gazole": 0.002065,
        "E85": 0.00073,
        "E10": 0.002079,
        "SP98": 0.002159
      },
      "maj_gouv": {
        "Gazole": "2026-05-21 09:26:10",
        "E85": "2026-05-19 09:15:04",
        "E10": "2026-05-20 09:20:40",
        "SP98": "2026-05-20 09:20:40"
      }
    },
    {
      "id": "17000005",
      "lat": 46.17,
      "lon": -1.127,
      "cp": "17000",
      "ville": "La Rochelle",
      "prix": {
        "Gazole": 0.002064,
        "E85": 0.00075,
        "E10": 0.002049,
        "SP98": 0.002112
      },
      "maj_gouv": {
        "Gazole": "2026-05-21 08:30:00",
        "E85": "2026-05-20 08:30:00",
        "E10": "2026-05-21 08:30:00",
        "SP98": "2026-05-20 08:30:00"
      }
    },
    {
      "id": "17240001",
      "lat": 45.489,
      "lon": -0.566,
      "cp": "17240",
      "ville": "SAINT-GENIS-DE-SAINTONGE",
      "prix": {
        "Gazole": 0.002093,
        "E85": 0.000864,
        "E10": 0.00199
      },
      "maj_gouv": {
        "Gazole": "2026-05-21 05:58:27",
        "E85": "2026-04-28 05:57:37",
        "E10": "2026-05-18 16:17:45"
      }
    },
    {
      "id": "17500003",
      "lat": 45.4382966,
      "lon": -0.4515224,
      "cp": "17500",
      "ville": "Jonzac",
      "prix": {
        "Gazole": 0.002096,
        "E85": 0.0008179999999999999,
        "GPLc": 0.001099,
        "E10": 0.002061,
        "SP98": 0.002183
      },
      "maj_gouv": {
        "Gazole": "2026-05-21 09:08:01",
        "E85": "2026-05-21 09:08:01",
        "GPLc": "2026-05-21 09:08:01",
        "E10": "2026-05-21 09:08:01",
        "SP98": "2026-05-21 09:08:01"
      }
    },
    {
      "id": "17700002",
      "lat": 46.109,
      "lon": -0.754,
      "cp": "17700",
      "ville": "Surgères",
      "prix": {
        "Gazole": 0.002128,
        "SP95": 0.00199
      },
      "maj_gouv": {
        "Gazole": "2026-05-21 07:13:19",
        "SP95": "2026-05-21 07:13:19"
      }
    },
    {
      "id": "17120005",
      "lat": 45.604,
      "lon": -0.914,
      "cp": "17120",
      "ville": "SEMUSSAC",
      "prix": {
        "Gazole": 0.002095,
        "E10": 0.002112,
        "SP98": 0.002198
      },
      "maj_gouv": {
        "Gazole": "2026-05-21 07:05:24",
        "E10": "2026-05-21 07:05:25",
        "SP98": "2026-05-21 07:05:25"
      }
    },
    {
      "id": "17200001",
      "lat": 45.62955,
      "lon": -1.03904,
      "cp": "17200",
      "ville": "Royan",
      "prix": {
        "Gazole": 0.002129,
        "E85": 0.0007790000000000001,
        "E10": 0.002069,
        "SP98": 0.002149
      },
      "maj_gouv": {
        "Gazole": "2026-05-15 08:33:26",
        "E85": "2026-05-11 08:00:48",
        "E10": "2026-05-15 08:33:26",
        "SP98": "2026-05-15 08:33:26"
      }
    },
    {
      "id": "17640003",
      "lat": 45.637093,
      "lon": -1.0635259,
      "cp": "17640",
      "ville": "Vaux-sur-Mer",
      "prix": {
        "Gazole": 0.00212,
        "E10": 0.0020710000000000004,
        "SP98": 0.002145
      },
      "maj_gouv": {
        "Gazole": "2026-05-16 08:47:27",
        "E10": "2026-05-07 19:23:06",
        "SP98": "2026-05-07 19:23:07"
      }
    },
    {
      "id": "17700003",
      "lat": 46.111,
      "lon": -0.739,
      "cp": "17700",
      "ville": "SURGERES",
      "prix": {
        "Gazole": 0.0020729999999999998,
        "E85": 0.000747,
        "GPLc": 0.001029,
        "E10": 0.002043,
        "SP98": 0.002145
      },
      "maj_gouv": {
        "Gazole": "2026-05-21 08:56:28",
        "E85": "2026-05-21 08:56:29",
        "GPLc": "2026-05-16 19:00:00",
        "E10": "2026-05-21 08:56:29",
        "SP98": "2026-05-21 08:56:29"
      }
    },
    {
      "id": "17420001",
      "lat": 45.651,
      "lon": -1.085,
      "cp": "17420",
      "ville": "SAINT-PALAIS-SUR-MER",
      "prix": {
        "Gazole": 0.002099,
        "E10": 0.002089,
        "SP98": 0.00214
      },
      "maj_gouv": {
        "Gazole": "2026-05-16 11:38:14",
        "E10": "2026-05-20 10:21:47",
        "SP98": "2026-05-19 16:48:19"
      }
    },
    {
      "id": "17560004",
      "lat": 45.854735999999995,
      "lon": -1.167256,
      "cp": "17560",
      "ville": "Bourcefranc le chapus",
      "prix": {
        "Gazole": 0.002089,
        "SP95": 0.002089
      },
      "maj_gouv": {
        "Gazole": "2026-05-20 10:12:35",
        "SP95": "2026-05-20 10:12:35"
      }
    },
    {
      "id": "17100008",
      "lat": 45.736,
      "lon": -0.649,
      "cp": "17100",
      "ville": "Saintes",
      "prix": {
        "Gazole": 0.002089,
        "E85": 0.0008179999999999999,
        "E10": 0.002079,
        "SP98": 0.002149
      },
      "maj_gouv": {
        "Gazole": "2026-05-20 10:59:30",
        "E85": "2026-04-18 13:49:36",
        "E10": "2026-05-20 10:59:30",
        "SP98": "2026-05-19 10:06:28"
      }
    },
    {
      "id": "17138010",
      "lat": 46.205937848928,
      "lon": -1.0938859977731,
      "cp": "17138",
      "ville": "Saint-Xandre",
      "prix": {
        "Gazole": 0.002129,
        "E10": 0.002079,
        "SP98": 0.002179
      },
      "maj_gouv": {
        "Gazole": "2026-05-21 10:15:55",
        "E10": "2026-05-21 10:15:56",
        "SP98": "2026-05-21 10:15:56"
      }
    },
    {
      "id": "17310001",
      "lat": 45.93945,
      "lon": -1.3082,
      "cp": "17310",
      "ville": "SAINT-PIERRE-D'OLERON",
      "prix": {
        "Gazole": 0.002055,
        "E85": 0.0007289999999999999,
        "E10": 0.002059,
        "SP98": 0.00211
      },
      "maj_gouv": {
        "Gazole": "2026-05-20 09:43:02",
        "E85": "2026-05-21 14:06:04",
        "E10": "2026-05-21 14:06:05",
        "SP98": "2026-05-20 09:43:03"
      }
    },
    {
      "id": "17100013",
      "lat": 45.741,
      "lon": -0.625,
      "cp": "17100",
      "ville": "SAINTES",
      "prix": {
        "Gazole": 0.002093,
        "E85": 0.000825
      },
      "maj_gouv": {
        "Gazole": "2026-05-22 00:01:00",
        "E85": "2026-05-22 00:01:00"
      }
    },
    {
      "id": "17130004",
      "lat": 45.29,
      "lon": -0.41,
      "cp": "17130",
      "ville": "Montendre",
      "prix": {
        "Gazole": 0.0021190000000000002,
        "E85": 0.000798,
        "E10": 0.002079,
        "SP98": 0.002199
      },
      "maj_gouv": {
        "Gazole": "2026-05-21 09:02:28",
        "E85": "2026-05-20 15:38:45",
        "E10": "2026-05-20 16:50:28",
        "SP98": "2026-05-20 16:50:45"
      }
    },
    {
      "id": "17100006",
      "lat": 45.741008800341,
      "lon": -0.62603359222409,
      "cp": "17100",
      "ville": "Saintes",
      "prix": {
        "Gazole": 0.00209,
        "E85": 0.00076,
        "GPLc": 0.0011799999999999998,
        "E10": 0.002047,
        "SP98": 0.00215
      },
      "maj_gouv": {
        "Gazole": "2026-05-21 10:48:07",
        "E85": "2026-05-21 10:48:07",
        "GPLc": "2026-04-20 09:37:20",
        "E10": "2026-05-15 08:42:07",
        "SP98": "2026-05-21 10:48:08"
      }
    },
    {
      "id": "17110001",
      "lat": 45.612,
      "lon": -0.991,
      "cp": "17110",
      "ville": "SAINT-GEORGES-DE-DIDONNE",
      "prix": {
        "Gazole": 0.002085,
        "E85": 0.000785,
        "E10": 0.002085,
        "SP98": 0.002165
      },
      "maj_gouv": {
        "Gazole": "2026-05-20 15:15:39",
        "E85": "2026-05-20 15:15:39",
        "E10": "2026-05-20 15:15:39",
        "SP98": "2026-05-20 15:15:39"
      }
    },
    {
      "id": "17310003",
      "lat": 45.935,
      "lon": -1.3,
      "cp": "17310",
      "ville": "SAINT-PIERRE-D'OLéRON",
      "prix": {
        "Gazole": 0.00225
      },
      "maj_gouv": {
        "Gazole": "2026-05-18 08:12:18"
      }
    },
    {
      "id": "17390002",
      "lat": 45.76,
      "lon": -1.129,
      "cp": "17390",
      "ville": "La Tremblade",
      "prix": {
        "Gazole": 0.0021190000000000002,
        "E85": 0.000798,
        "E10": 0.002099,
        "SP98": 0.002139
      },
      "maj_gouv": {
        "Gazole": "2026-05-21 12:40:40",
        "E85": "2026-05-15 07:56:43",
        "E10": "2026-05-21 12:45:54",
        "SP98": "2026-05-15 07:56:43"
      }
    },
    {
      "id": "17540001",
      "lat": 46.2129641345,
      "lon": -0.9541196059763399,
      "cp": "17540",
      "ville": "ANGLIERS",
      "prix": {
        "Gazole": 0.00225,
        "SP98": 0.00199
      },
      "maj_gouv": {
        "Gazole": "2026-05-13 10:12:48",
        "SP98": "2026-05-13 10:12:48"
      }
    },
    {
      "id": "17102001",
      "lat": 45.756247447199996,
      "lon": -0.65210476871,
      "cp": "17100",
      "ville": "SAINTES",
      "prix": {
        "Gazole": 0.002065,
        "E85": 0.00073,
        "GPLc": 0.001099,
        "E10": 0.002079,
        "SP98": 0.002159
      },
      "maj_gouv": {
        "Gazole": "2026-05-21 09:27:27",
        "E85": "2026-05-19 09:20:49",
        "GPLc": "2026-05-05 08:42:50",
        "E10": "2026-05-20 09:16:22",
        "SP98": "2026-05-20 09:16:23"
      }
    },
    {
      "id": "17400002",
      "lat": 45.944,
      "lon": -0.505,
      "cp": "17400",
      "ville": "SAINT-JEAN-D'ANGéLY",
      "prix": {
        "Gazole": 0.0021190000000000002,
        "SP95": 0.002159,
        "GPLc": 0.00117,
        "SP98": 0.002209
      },
      "maj_gouv": {
        "Gazole": "2026-05-20 08:57:07",
        "SP95": "2026-05-20 08:57:07",
        "GPLc": "2026-04-30 09:29:46",
        "SP98": "2026-05-20 08:57:07"
      }
    },
    {
      "id": "17132001",
      "lat": 45.559,
      "lon": -0.954,
      "cp": "17132",
      "ville": "MESCHERS-SUR-GIRONDE",
      "prix": {
        "Gazole": 0.002106,
        "E10": 0.002105,
        "SP98": 0.002186
      },
      "maj_gouv": {
        "Gazole": "2026-05-20 12:25:56",
        "E10": "2026-05-20 12:25:56",
        "SP98": "2026-05-20 12:25:56"
      }
    },
    {
      "id": "17590002",
      "lat": 46.204,
      "lon": -1.512,
      "cp": "17590",
      "ville": "Ars-en-Ré",
      "prix": {
        "Gazole": 0.002127,
        "SP95": 0.002133,
        "SP98": 0.002176
      },
      "maj_gouv": {
        "Gazole": "2026-05-20 08:30:41",
        "SP95": "2026-05-20 08:30:41",
        "SP98": "2026-05-20 08:30:41"
      }
    },
    {
      "id": "17400003",
      "lat": 45.95287,
      "lon": -0.52991,
      "cp": "17400",
      "ville": "Saint-Jean-d'Angély",
      "prix": {
        "Gazole": 0.0021190000000000002,
        "E10": 0.002125,
        "SP98": 0.002209
      },
      "maj_gouv": {
        "Gazole": "2026-05-20 09:27:02",
        "E10": "2026-05-19 09:28:17",
        "SP98": "2026-05-20 09:27:03"
      }
    },
    {
      "id": "17700004",
      "lat": 46.106628368687,
      "lon": -0.76915309298864,
      "cp": "17700",
      "ville": "Surgères",
      "prix": {
        "Gazole": 0.002093,
        "E85": 0.000819,
        "E10": 0.002028,
        "SP98": 0.0021469999999999996
      },
      "maj_gouv": {
        "Gazole": "2026-05-20 09:01:14",
        "E85": "2026-04-23 15:45:00",
        "E10": "2026-05-20 09:01:14",
        "SP98": "2026-05-20 09:01:14"
      }
    },
    {
      "id": "17100014",
      "lat": 45.747474000000004,
      "lon": -0.6394869999999999,
      "cp": "17100",
      "ville": "Saintes",
      "prix": {},
      "maj_gouv": {}
    },
    {
      "id": "17250003",
      "lat": 45.814,
      "lon": -0.774,
      "cp": "17250",
      "ville": "Saint-Porchaire",
      "prix": {
        "Gazole": 0.002079,
        "E10": 0.002009,
        "SP98": 0.002115
      },
      "maj_gouv": {
        "Gazole": "2026-05-19 15:24:18",
        "E10": "2026-05-19 15:24:18",
        "SP98": "2026-05-19 15:24:18"
      }
    },
    {
      "id": "17400008",
      "lat": 45.948327878707,
      "lon": -0.49988837365251,
      "cp": "17400",
      "ville": "SAINT JEAN D'ANGELY",
      "prix": {
        "Gazole": 0.0021190000000000002,
        "E10": 0.002125,
        "SP98": 0.002209
      },
      "maj_gouv": {
        "Gazole": "2026-05-20 08:58:23",
        "E10": "2026-05-20 08:58:24",
        "SP98": "2026-05-20 08:58:24"
      }
    },
    {
      "id": "17600001",
      "lat": 45.679,
      "lon": -0.915,
      "cp": "17600",
      "ville": "Saujon",
      "prix": {
        "Gazole": 0.002089,
        "E10": 0.002079,
        "SP98": 0.002159
      },
      "maj_gouv": {
        "Gazole": "2026-05-20 07:38:12",
        "E10": "2026-05-20 07:38:13",
        "SP98": "2026-05-20 07:38:13"
      }
    },
    {
      "id": "17100001",
      "lat": 45.719,
      "lon": -0.636,
      "cp": "17100",
      "ville": "LES GONDS",
      "prix": {
        "Gazole": 0.0021349999999999997,
        "E10": 0.00199,
        "SP98": 0.00199
      },
      "maj_gouv": {
        "Gazole": "2026-05-22 06:03:35",
        "E10": "2026-05-22 06:03:35",
        "SP98": "2026-05-22 06:03:35"
      }
    },
    {
      "id": "17310004",
      "lat": 45.943,
      "lon": -1.321,
      "cp": "17310",
      "ville": "SAINT-PIERRE-D'OLéRON",
      "prix": {
        "Gazole": 0.002055,
        "SP95": 0.002099,
        "E85": 0.0007149999999999999,
        "SP98": 0.00211
      },
      "maj_gouv": {
        "Gazole": "2026-05-20 08:53:34",
        "SP95": "2026-05-20 08:53:34",
        "E85": "2026-05-20 08:53:35",
        "SP98": "2026-05-20 08:53:35"
      }
    }
  ]
}