{
  "departement": "90",
  "date": "2026-04-29",
  "stations": [
    {
      "id": "90500001",
      "lat": 47.48973,
      "lon": 6.92225,
      "cp": "90500",
      "ville": "Beaucourt",
      "prix": {
        "Gazole": 0.00228,
        "SP95": 0.00209,
        "SP98": 0.00219
      },
      "maj_gouv": {
        "Gazole": "2026-04-24 07:30:00",
        "SP95": "2026-04-15 08:50:36",
        "SP98": "2026-04-07 16:11:36"
      }
    },
    {
      "id": "90000015",
      "lat": 47.636,
      "lon": 6.838,
      "cp": "90000",
      "ville": "BELFORT",
      "prix": {
        "Gazole": 0.0021379999999999997,
        "E10": 0.001966,
        "SP98": 0.00199
      },
      "maj_gouv": {
        "Gazole": "2026-04-29 00:01:00",
        "E10": "2026-04-29 00:01:00",
        "SP98": "2026-04-29 00:01:00"
      }
    },
    {
      "id": "90008001",
      "lat": 47.628,
      "lon": 6.862,
      "cp": "90000",
      "ville": "Belfort",
      "prix": {
        "Gazole": 0.002157,
        "SP95": 0.001997,
        "E85": 0.000859,
        "E10": 0.001967,
        "SP98": 0.002028
      },
      "maj_gouv": {
        "Gazole": "2026-04-29 09:07:00",
        "SP95": "2026-04-29 09:07:00",
        "E85": "2026-04-29 09:07:00",
        "E10": "2026-04-29 09:07:00",
        "SP98": "2026-04-29 09:07:00"
      }
    },
    {
      "id": "90500002",
      "lat": 47.49,
      "lon": 6.922,
      "cp": "90500",
      "ville": "BEAUCOURT",
      "prix": {
        "Gazole": 0.00219,
        "SP95": 0.0020440000000000002,
        "E10": 0.002011,
        "SP98": 0.002065
      },
      "maj_gouv": {
        "Gazole": "2026-04-29 10:37:18",
        "SP95": "2026-04-29 10:37:18",
        "E10": "2026-04-29 10:37:18",
        "SP98": "2026-04-29 10:37:50"
      }
    },
    {
      "id": "90000009",
      "lat": 47.636,
      "lon": 6.873,
      "cp": "90000",
      "ville": "Belfort",
      "prix": {
        "Gazole": 0.0023490000000000004,
        "SP95": 0.002169,
        "E85": 0.000959,
        "SP98": 0.002199
      },
      "maj_gouv": {
        "Gazole": "2026-04-03 11:20:13",
        "SP95": "2026-04-03 11:20:14",
        "E85": "2026-04-03 11:20:14",
        "SP98": "2026-04-03 11:20:14"
      }
    },
    {
      "id": "90100004",
      "lat": 47.511,
      "lon": 7.001,
      "cp": "90100",
      "ville": "Delle",
      "prix": {
        "Gazole": 0.002269,
        "SP95": 0.002099,
        "GPLc": 0.00109,
        "SP98": 0.002199
      },
      "maj_gouv": {
        "Gazole": "2026-04-28 12:09:05",
        "SP95": "2026-04-23 16:43:39",
        "GPLc": "2026-04-23 16:43:39",
        "SP98": "2026-04-23 16:43:39"
      }
    },
    {
      "id": "90300004",
      "lat": 47.658916,
      "lon": 6.866529,
      "cp": "90300",
      "ville": "OFFEMONT",
      "prix": {
        "Gazole": 0.002149,
        "E85": 0.000819,
        "E10": 0.0019590000000000002
      },
      "maj_gouv": {
        "Gazole": "2026-04-29 09:50:02",
        "E85": "2026-04-29 09:50:02",
        "E10": "2026-04-29 09:50:03"
      }
    },
    {
      "id": "90300002",
      "lat": 47.66862601099999,
      "lon": 6.842203087160001,
      "cp": "90300",
      "ville": "VALDOIE",
      "prix": {
        "Gazole": 0.002105,
        "SP95": 0.001997,
        "GPLc": 0.001059,
        "SP98": 0.002024
      },
      "maj_gouv": {
        "Gazole": "2026-04-23 19:47:14",
        "SP95": "2026-04-23 19:47:15",
        "GPLc": "2026-04-17 20:16:31",
        "SP98": "2026-04-23 19:47:15"
      }
    },
    {
      "id": "90100003",
      "lat": 47.512,
      "lon": 6.999,
      "cp": "90100",
      "ville": "DELLE",
      "prix": {
        "Gazole": 0.002165,
        "E85": 0.000819,
        "E10": 0.0019619999999999998,
        "SP98": 0.002069
      },
      "maj_gouv": {
        "Gazole": "2026-04-28 08:30:00",
        "E85": "2026-04-17 08:07:38",
        "E10": "2026-04-28 08:30:00",
        "SP98": "2026-04-28 08:30:00"
      }
    },
    {
      "id": "90150001",
      "lat": 47.688,
      "lon": 6.955,
      "cp": "90150",
      "ville": "MENONCOURT",
      "prix": {
        "Gazole": 0.002229,
        "E10": 0.00199,
        "SP98": 0.00199
      },
      "maj_gouv": {
        "Gazole": "2026-04-28 19:02:09",
        "E10": "2026-04-22 14:08:48",
        "SP98": "2026-04-22 14:08:49"
      }
    },
    {
      "id": "90200003",
      "lat": 47.735,
      "lon": 6.83,
      "cp": "90200",
      "ville": "GIROMAGNY",
      "prix": {
        "Gazole": 0.002229,
        "E10": 0.00199,
        "SP98": 0.00199
      },
      "maj_gouv": {
        "Gazole": "2026-04-29 07:11:58",
        "E10": "2026-04-28 07:17:52",
        "SP98": "2026-04-28 07:17:52"
      }
    },
    {
      "id": "90000014",
      "lat": 47.626,
      "lon": 6.86,
      "cp": "90000",
      "ville": "BELFORT",
      "prix": {
        "Gazole": 0.0021379999999999997,
        "E85": 0.000875,
        "E10": 0.001966,
        "SP98": 0.00199
      },
      "maj_gouv": {
        "Gazole": "2026-04-29 00:01:00",
        "E85": "2026-04-29 00:01:00",
        "E10": "2026-04-29 00:01:00",
        "SP98": "2026-04-29 00:01:00"
      }
    },
    {
      "id": "90400001",
      "lat": 47.6,
      "lon": 6.862,
      "cp": "90400",
      "ville": "ANDELNANS",
      "prix": {
        "Gazole": 0.0021579999999999998,
        "E85": 0.000859,
        "E10": 0.001968,
        "SP98": 0.0020670000000000003
      },
      "maj_gouv": {
        "Gazole": "2026-04-29 11:46:07",
        "E85": "2026-04-27 10:40:47",
        "E10": "2026-04-29 11:46:08",
        "SP98": "2026-04-29 11:46:08"
      }
    },
    {
      "id": "90160001",
      "lat": 47.641,
      "lon": 6.916,
      "cp": "90160",
      "ville": "BESSONCOURT",
      "prix": {
        "Gazole": 0.0021579999999999998,
        "GPLc": 0.001055,
        "E10": 0.001968,
        "SP98": 0.0020670000000000003
      },
      "maj_gouv": {
        "Gazole": "2026-04-29 14:40:29",
        "GPLc": "2026-04-18 09:55:20",
        "E10": "2026-04-29 14:40:29",
        "SP98": "2026-04-29 14:40:29"
      }
    },
    {
      "id": "90200002",
      "lat": 47.737,
      "lon": 6.836,
      "cp": "90200",
      "ville": "GIROMAGNY",
      "prix": {
        "Gazole": 0.0021520000000000003,
        "SP95": 0.0019950000000000002,
        "SP98": 0.002036
      },
      "maj_gouv": {
        "Gazole": "2026-04-28 18:32:23",
        "SP95": "2026-04-27 08:40:55",
        "SP98": "2026-04-27 08:40:55"
      }
    },
    {
      "id": "90000002",
      "lat": 47.64,
      "lon": 6.868,
      "cp": "90000",
      "ville": "Belfort",
      "prix": {
        "Gazole": 0.002229,
        "E10": 0.00199,
        "SP98": 0.00199
      },
      "maj_gouv": {
        "Gazole": "2026-04-28 08:51:43",
        "E10": "2026-04-28 08:51:43",
        "SP98": "2026-04-28 08:51:43"
      }
    },
    {
      "id": "90000013",
      "lat": 47.631,
      "lon": 6.867,
      "cp": "90000",
      "ville": "BELFORT",
      "prix": {
        "Gazole": 0.0022229999999999997,
        "E85": 0.000879,
        "GPLc": 0.001055,
        "E10": 0.00199,
        "SP98": 0.00199
      },
      "maj_gouv": {
        "Gazole": "2026-04-29 13:25:31",
        "E85": "2026-04-29 00:01:00",
        "GPLc": "2026-04-29 00:01:00",
        "E10": "2026-04-29 13:48:42",
        "SP98": "2026-04-29 13:48:42"
      }
    },
    {
      "id": "90130002",
      "lat": 47.606879000000006,
      "lon": 7.004091,
      "cp": "90130",
      "ville": "MONTREUX CHATEAU",
      "prix": {
        "Gazole": 0.002149,
        "E10": 0.001965
      },
      "maj_gouv": {
        "Gazole": "2026-04-28 15:54:40",
        "E10": "2026-04-29 09:27:55"
      }
    }
  ]
}