{
  "departement": "14",
  "date": "2026-04-29",
  "stations": [
    {
      "id": "14400004",
      "lat": 49.271,
      "lon": -0.694,
      "cp": "14400",
      "ville": "Bayeux",
      "prix": {
        "Gazole": 0.002173,
        "E10": 0.00199,
        "SP98": 0.00207
      },
      "maj_gouv": {
        "Gazole": "2026-04-29 10:46:00",
        "E10": "2026-04-29 10:46:00",
        "SP98": "2026-04-29 10:46:00"
      }
    },
    {
      "id": "14470001",
      "lat": 49.324,
      "lon": -0.457,
      "cp": "14470",
      "ville": "COURSEULLES-SUR-MER",
      "prix": {
        "Gazole": 0.00225,
        "E10": 0.00199
      },
      "maj_gouv": {
        "Gazole": "2026-04-28 08:09:50",
        "E10": "2026-04-21 08:02:19"
      }
    },
    {
      "id": "14130010",
      "lat": 49.336906,
      "lon": 0.308019,
      "cp": "14130",
      "ville": "QUETTEVILLE",
      "prix": {
        "Gazole": 0.00212,
        "SP95": 0.0020099999999999996
      },
      "maj_gouv": {
        "Gazole": "2026-03-16 07:56:13",
        "SP95": "2026-03-16 07:56:13"
      }
    },
    {
      "id": "14404001",
      "lat": 49.277,
      "lon": -0.719,
      "cp": "14400",
      "ville": "BAYEUX",
      "prix": {
        "Gazole": 0.002099,
        "E85": 0.0007149999999999999,
        "GPLc": 0.00076,
        "E10": 0.001987,
        "SP98": 0.002025
      },
      "maj_gouv": {
        "Gazole": "2026-04-29 09:11:19",
        "E85": "2026-04-17 08:30:00",
        "GPLc": "2026-02-20 00:01:00",
        "E10": "2026-04-29 09:11:19",
        "SP98": "2026-04-24 09:05:22"
      }
    },
    {
      "id": "14500012",
      "lat": 48.855352304616005,
      "lon": -0.86509947100102,
      "cp": "14500",
      "ville": "Vire Normandie",
      "prix": {
        "Gazole": 0.002137,
        "E85": 0.000819,
        "E10": 0.0019479999999999999,
        "SP98": 0.0020150000000000003
      },
      "maj_gouv": {
        "Gazole": "2026-04-28 09:36:35",
        "E85": "2026-04-28 09:36:35",
        "E10": "2026-04-28 09:36:35",
        "SP98": "2026-04-28 09:36:35"
      }
    },
    {
      "id": "14100003",
      "lat": 49.143,
      "lon": 0.266,
      "cp": "14100",
      "ville": "LISIEUX",
      "prix": {
        "Gazole": 0.0020870000000000003,
        "E85": 0.000819,
        "GPLc": 0.0010869999999999999,
        "E10": 0.001963,
        "SP98": 0.002022
      },
      "maj_gouv": {
        "Gazole": "2026-04-29 09:49:00",
        "E85": "2026-04-29 09:49:00",
        "GPLc": "2026-04-29 09:49:00",
        "E10": "2026-04-29 09:49:00",
        "SP98": "2026-04-29 09:49:00"
      }
    },
    {
      "id": "14440001",
      "lat": 49.289,
      "lon": -0.378,
      "cp": "14440",
      "ville": "Douvres-la-Délivrande",
      "prix": {
        "Gazole": 0.00225,
        "E10": 0.00199
      },
      "maj_gouv": {
        "Gazole": "2026-04-28 07:54:16",
        "E10": "2026-04-28 07:54:17"
      }
    },
    {
      "id": "14210001",
      "lat": 49.10372,
      "lon": -0.50006,
      "cp": "14210",
      "ville": "Évrecy",
      "prix": {
        "Gazole": 0.002199,
        "E10": 0.001999,
        "SP98": 0.002099
      },
      "maj_gouv": {
        "Gazole": "2026-04-29 11:16:45",
        "E10": "2026-04-29 11:16:45",
        "SP98": "2026-04-29 11:16:46"
      }
    },
    {
      "id": "14320003",
      "lat": 49.114,
      "lon": -0.374,
      "cp": "14320",
      "ville": "SAINT-MARTIN-DE-FONTENAY",
      "prix": {
        "Gazole": 0.002209,
        "SP95": 0.002079,
        "SP98": 0.002159
      },
      "maj_gouv": {
        "Gazole": "2026-04-28 11:09:37",
        "SP95": "2026-04-28 11:09:37",
        "SP98": "2026-04-28 11:09:37"
      }
    },
    {
      "id": "14200006",
      "lat": 49.189,
      "lon": -0.333,
      "cp": "14200",
      "ville": "Hérouville-Saint-Clair",
      "prix": {
        "Gazole": 0.002169,
        "E85": 0.000769,
        "E10": 0.0019890000000000003,
        "SP98": 0.002099
      },
      "maj_gouv": {
        "Gazole": "2026-04-28 15:04:49",
        "E85": "2026-04-28 15:04:50",
        "E10": "2026-04-28 15:04:50",
        "SP98": "2026-04-28 15:04:50"
      }
    },
    {
      "id": "14250002",
      "lat": 49.17918,
      "lon": -0.62255,
      "cp": "14250",
      "ville": "Tilly-sur-Seulles",
      "prix": {
        "Gazole": 0.002153,
        "SP95": 0.002029
      },
      "maj_gouv": {
        "Gazole": "2026-04-24 10:13:45",
        "SP95": "2026-04-24 10:13:45"
      }
    },
    {
      "id": "14100009",
      "lat": 49.138,
      "lon": 0.172,
      "cp": "14100",
      "ville": "Saint-Désir",
      "prix": {
        "Gazole": 0.002232,
        "E10": 0.00199,
        "SP98": 0.00199
      },
      "maj_gouv": {
        "Gazole": "2026-04-29 00:01:00",
        "E10": "2026-04-29 00:01:00",
        "SP98": "2026-04-29 00:01:00"
      }
    },
    {
      "id": "14520004",
      "lat": 49.34231,
      "lon": -0.75209000000004,
      "cp": "14520",
      "ville": "Port-en-Bessin-Huppain",
      "prix": {
        "Gazole": 0.002099,
        "E10": 0.0019590000000000002,
        "SP98": 0.002029
      },
      "maj_gouv": {
        "Gazole": "2026-04-23 08:02:33",
        "E10": "2026-04-28 07:50:16",
        "SP98": "2026-04-21 08:40:00"
      }
    },
    {
      "id": "14200010",
      "lat": 49.20478556147,
      "lon": -0.32786151201342,
      "cp": "14200",
      "ville": "Hérouville Saint Clair",
      "prix": {
        "Gazole": 0.002169,
        "SP95": 0.002045,
        "E10": 0.0019890000000000003,
        "SP98": 0.002099
      },
      "maj_gouv": {
        "Gazole": "2026-04-29 12:47:24",
        "SP95": "2026-04-29 12:47:24",
        "E10": "2026-04-29 12:47:25",
        "SP98": "2026-04-29 12:47:25"
      }
    },
    {
      "id": "14520003",
      "lat": 48.981,
      "lon": -0.477,
      "cp": "14220",
      "ville": "Thury-Harcourt",
      "prix": {
        "Gazole": 0.002189,
        "SP95": 0.002149,
        "E85": 0.000799,
        "SP98": 0.002199
      },
      "maj_gouv": {
        "Gazole": "2026-04-29 07:13:36",
        "SP95": "2026-04-29 07:13:36",
        "E85": "2026-04-29 07:13:37",
        "SP98": "2026-04-29 07:13:37"
      }
    },
    {
      "id": "14053001",
      "lat": 49.21,
      "lon": -0.366,
      "cp": "14000",
      "ville": "CAEN",
      "prix": {
        "Gazole": 0.0021669999999999997,
        "SP95": 0.0020369999999999997,
        "E85": 0.0009080000000000001,
        "GPLc": 0.001,
        "E10": 0.002002,
        "SP98": 0.002112
      },
      "maj_gouv": {
        "Gazole": "2026-04-28 08:19:00",
        "SP95": "2026-04-28 08:19:00",
        "E85": "2026-04-28 08:19:00",
        "GPLc": "2026-04-28 08:19:00",
        "E10": "2026-04-28 08:19:00",
        "SP98": "2026-04-28 08:19:00"
      }
    },
    {
      "id": "14130004",
      "lat": 49.2854059,
      "lon": 0.20427899000000002,
      "cp": "14130",
      "ville": "Pont-l'Évêque",
      "prix": {
        "Gazole": 0.0021349999999999997,
        "SP95": 0.002029,
        "E85": 0.000819,
        "E10": 0.001935,
        "SP98": 0.002049
      },
      "maj_gouv": {
        "Gazole": "2026-04-29 07:33:47",
        "SP95": "2026-04-01 07:08:09",
        "E85": "2026-04-16 13:09:17",
        "E10": "2026-04-18 07:56:07",
        "SP98": "2026-04-01 07:08:09"
      }
    },
    {
      "id": "14980007",
      "lat": 49.198,
      "lon": -0.461,
      "cp": "14980",
      "ville": "Rots",
      "prix": {
        "Gazole": 0.002189,
        "E10": 0.002029,
        "SP98": 0.002179
      },
      "maj_gouv": {
        "Gazole": "2026-04-29 10:23:01",
        "E10": "2026-04-29 10:23:01",
        "SP98": "2026-04-29 10:23:00"
      }
    },
    {
      "id": "14500008",
      "lat": 48.8467,
      "lon": -0.88722,
      "cp": "14500",
      "ville": "VIRE",
      "prix": {
        "Gazole": 0.002249,
        "SP95": 0.002049
      },
      "maj_gouv": {
        "Gazole": "2026-04-20 11:44:21",
        "SP95": "2026-04-20 11:44:21"
      }
    },
    {
      "id": "14270003",
      "lat": 49.073489241999,
      "lon": -0.073233903014066,
      "cp": "14270",
      "ville": "MEZIDON VALLEE D'AUGE",
      "prix": {
        "Gazole": 0.002213,
        "SP95": 0.002069,
        "SP98": 0.0021520000000000003
      },
      "maj_gouv": {
        "Gazole": "2026-04-27 08:56:10",
        "SP95": "2026-04-27 08:56:10",
        "SP98": "2026-04-27 08:56:10"
      }
    },
    {
      "id": "14112001",
      "lat": 49.241,
      "lon": -0.327,
      "cp": "14112",
      "ville": "BIEVILLE-BEUVILLE",
      "prix": {
        "Gazole": 0.002299,
        "SP95": 0.002057,
        "SP98": 0.002141
      },
      "maj_gouv": {
        "Gazole": "2026-04-29 09:29:45",
        "SP95": "2026-04-29 09:29:45",
        "SP98": "2026-04-29 09:29:46"
      }
    },
    {
      "id": "14550001",
      "lat": 49.232,
      "lon": -0.293,
      "cp": "14550",
      "ville": "Blainville-sur-Orne",
      "prix": {
        "Gazole": 0.002169,
        "E85": 0.000769,
        "E10": 0.0019890000000000003,
        "SP98": 0.002099
      },
      "maj_gouv": {
        "Gazole": "2026-04-29 08:01:03",
        "E85": "2026-04-29 08:01:03",
        "E10": "2026-04-29 08:01:03",
        "SP98": "2026-04-29 08:01:04"
      }
    },
    {
      "id": "14680001",
      "lat": 49.045,
      "lon": -0.324,
      "cp": "14680",
      "ville": "BRETTEVILLE-SUR-LAIZE",
      "prix": {
        "Gazole": 0.002179,
        "E85": 0.000759,
        "E10": 0.001999,
        "SP98": 0.002129
      },
      "maj_gouv": {
        "Gazole": "2026-04-29 14:11:49",
        "E85": "2026-04-29 14:11:49",
        "E10": "2026-04-29 14:11:50",
        "SP98": "2026-04-29 14:11:50"
      }
    },
    {
      "id": "14240001",
      "lat": 49.08893,
      "lon": -0.8136,
      "cp": "14240",
      "ville": "CAUMONT-L'ÉVENTé",
      "prix": {
        "Gazole": 0.002219,
        "E10": 0.001999,
        "SP98": 0.0021190000000000002
      },
      "maj_gouv": {
        "Gazole": "2026-04-29 12:30:51",
        "E10": "2026-04-28 10:56:59",
        "SP98": "2026-04-29 12:30:51"
      }
    },
    {
      "id": "14380001",
      "lat": 48.84,
      "lon": -1.052,
      "cp": "14380",
      "ville": "SAINT-SEVER-CALVADOS",
      "prix": {
        "Gazole": 0.0021190000000000002,
        "SP95": 0.001992,
        "SP98": 0.0021469999999999996
      },
      "maj_gouv": {
        "Gazole": "2026-04-28 14:10:00",
        "SP95": "2026-04-28 14:10:00",
        "SP98": "2026-04-28 14:10:00"
      }
    },
    {
      "id": "14460002",
      "lat": 49.19,
      "lon": -0.299,
      "cp": "14460",
      "ville": "COLOMBELLES",
      "prix": {
        "Gazole": 0.002169,
        "SP95": 0.002049,
        "GPLc": 0.000999,
        "E10": 0.0019890000000000003
      },
      "maj_gouv": {
        "Gazole": "2026-04-29 08:16:39",
        "SP95": "2026-04-29 08:16:40",
        "GPLc": "2023-11-10 12:58:22",
        "E10": "2026-04-28 09:51:46"
      }
    },
    {
      "id": "14730004",
      "lat": 49.168217999999996,
      "lon": -0.2818181,
      "cp": "14730",
      "ville": "GIBERVILLE",
      "prix": {
        "Gazole": 0.00226,
        "GPLc": 0.001156,
        "E10": 0.0020710000000000004,
        "SP98": 0.002146
      },
      "maj_gouv": {
        "Gazole": "2026-04-29 14:00:00",
        "GPLc": "2026-04-29 14:00:00",
        "E10": "2026-04-29 14:00:00",
        "SP98": "2026-04-29 14:00:00"
      }
    },
    {
      "id": "14500003",
      "lat": 48.847,
      "lon": -0.887,
      "cp": "14500",
      "ville": "VIRE",
      "prix": {
        "Gazole": 0.0022389999999999997,
        "SP95": 0.002049,
        "SP98": 0.002149
      },
      "maj_gouv": {
        "Gazole": "2026-04-28 10:09:39",
        "SP95": "2026-04-28 10:09:39",
        "SP98": "2026-04-28 10:09:39"
      }
    },
    {
      "id": "14700001",
      "lat": 48.8962986744,
      "lon": -0.192409332928,
      "cp": "14700",
      "ville": "FALAISE",
      "prix": {
        "Gazole": 0.002229,
        "SP95": 0.002027,
        "SP98": 0.002099
      },
      "maj_gouv": {
        "Gazole": "2026-04-24 09:54:56",
        "SP95": "2026-04-28 11:10:56",
        "SP98": "2026-04-28 08:28:24"
      }
    },
    {
      "id": "14000010",
      "lat": 49.16905,
      "lon": -0.34422,
      "cp": "14000",
      "ville": "Caen",
      "prix": {
        "Gazole": 0.002129,
        "SP95": 0.002029,
        "E85": 0.000819,
        "E10": 0.001999,
        "SP98": 0.002069
      },
      "maj_gouv": {
        "Gazole": "2026-04-27 09:32:20",
        "SP95": "2026-04-27 09:32:20",
        "E85": "2026-04-17 10:22:24",
        "E10": "2026-04-27 09:32:20",
        "SP98": "2026-04-27 09:32:20"
      }
    },
    {
      "id": "14140001",
      "lat": 49.008,
      "lon": 0.151,
      "cp": "14140",
      "ville": "Livarot",
      "prix": {
        "Gazole": 0.002129,
        "GPLc": 0.001049,
        "E10": 0.0019790000000000003,
        "SP98": 0.002069
      },
      "maj_gouv": {
        "Gazole": "2026-04-29 10:30:45",
        "GPLc": "2026-04-29 13:32:02",
        "E10": "2026-04-17 09:28:35",
        "SP98": "2026-04-24 09:45:21"
      }
    },
    {
      "id": "14310004",
      "lat": 49.078,
      "lon": -0.645,
      "cp": "14310",
      "ville": "Villers-Bocage",
      "prix": {
        "Gazole": 0.002154,
        "SP95": 0.002029,
        "SP98": 0.002111
      },
      "maj_gouv": {
        "Gazole": "2026-04-29 05:46:34",
        "SP95": "2026-04-29 05:46:34",
        "SP98": "2026-04-29 05:46:34"
      }
    },
    {
      "id": "14130007",
      "lat": 49.288,
      "lon": 0.189,
      "cp": "14130",
      "ville": "Pont-l'Évêque",
      "prix": {
        "Gazole": 0.0021509999999999997,
        "E10": 0.001963,
        "SP98": 0.00199
      },
      "maj_gouv": {
        "Gazole": "2026-04-29 10:47:20",
        "E10": "2026-04-29 10:47:20",
        "SP98": "2026-04-29 10:47:20"
      }
    },
    {
      "id": "14370003",
      "lat": 49.1192,
      "lon": -0.17523,
      "cp": "14370",
      "ville": "Argences",
      "prix": {
        "Gazole": 0.0021190000000000002,
        "GPLc": 0.000999,
        "E10": 0.0019890000000000003,
        "SP98": 0.002065
      },
      "maj_gouv": {
        "Gazole": "2026-04-28 09:10:52",
        "GPLc": "2026-04-20 08:52:23",
        "E10": "2026-04-28 09:10:52",
        "SP98": "2026-04-28 09:10:52"
      }
    },
    {
      "id": "14960001",
      "lat": 49.339,
      "lon": -0.58,
      "cp": "14960",
      "ville": "Asnelles",
      "prix": {
        "Gazole": 0.002199,
        "E10": 0.0019690000000000003,
        "SP98": 0.002089
      },
      "maj_gouv": {
        "Gazole": "2026-04-24 07:49:45",
        "E10": "2026-04-24 07:49:45",
        "SP98": "2026-04-24 07:49:45"
      }
    },
    {
      "id": "14100006",
      "lat": 49.171,
      "lon": 0.217,
      "cp": "14100",
      "ville": "Ouilly-le-Vicomte",
      "prix": {
        "Gazole": 0.002095,
        "SP95": 0.002029,
        "E10": 0.0019790000000000003,
        "SP98": 0.002049
      },
      "maj_gouv": {
        "Gazole": "2026-04-24 09:59:53",
        "SP95": "2026-04-24 09:59:54",
        "E10": "2026-04-24 09:59:54",
        "SP98": "2026-04-24 09:59:54"
      }
    },
    {
      "id": "14610001",
      "lat": 49.259,
      "lon": -0.464,
      "cp": "14610",
      "ville": "Thaon",
      "prix": {
        "Gazole": 0.002159,
        "E10": 0.001933,
        "SP98": 0.00206
      },
      "maj_gouv": {
        "Gazole": "2026-04-22 13:25:20",
        "E10": "2026-04-15 08:08:48",
        "SP98": "2026-04-15 08:08:48"
      }
    },
    {
      "id": "14123004",
      "lat": 49.142,
      "lon": -0.338,
      "cp": "14123",
      "ville": "IFS",
      "prix": {
        "Gazole": 0.002149,
        "SP95": 0.002029,
        "E85": 0.000759,
        "E10": 0.0019890000000000003
      },
      "maj_gouv": {
        "Gazole": "2026-04-29 08:16:00",
        "SP95": "2026-04-29 08:16:00",
        "E85": "2026-04-28 08:30:49",
        "E10": "2026-04-29 08:16:00"
      }
    },
    {
      "id": "14000020",
      "lat": 49.173,
      "lon": -0.39,
      "cp": "14000",
      "ville": "CAEN",
      "prix": {
        "Gazole": 0.002149,
        "E10": 0.00199,
        "SP98": 0.00199
      },
      "maj_gouv": {
        "Gazole": "2026-04-29 00:01:00",
        "E10": "2026-04-29 00:01:00",
        "SP98": "2026-04-29 00:01:00"
      }
    },
    {
      "id": "14740001",
      "lat": 49.215,
      "lon": -0.505,
      "cp": "14740",
      "ville": "Bretteville-l'Orgueilleuse THUE ET MUE",
      "prix": {
        "Gazole": 0.002179,
        "SP95": 0.002059,
        "E85": 0.000749,
        "E10": 0.002029,
        "SP98": 0.002099
      },
      "maj_gouv": {
        "Gazole": "2026-04-29 12:46:53",
        "SP95": "2026-04-29 12:46:54",
        "E85": "2026-04-29 12:46:54",
        "E10": "2026-04-29 12:46:54",
        "SP98": "2026-04-29 12:46:54"
      }
    },
    {
      "id": "14120001",
      "lat": 49.17356,
      "lon": -0.32807,
      "cp": "14120",
      "ville": "Mondeville",
      "prix": {
        "Gazole": 0.002129,
        "E10": 0.001999,
        "SP98": 0.002069
      },
      "maj_gouv": {
        "Gazole": "2026-04-28 07:45:02",
        "E10": "2026-04-28 07:45:02",
        "SP98": "2026-04-28 07:45:02"
      }
    },
    {
      "id": "14110003",
      "lat": 48.855034234699005,
      "lon": -0.54190441915746,
      "cp": "14110",
      "ville": "condé en normandie",
      "prix": {
        "Gazole": 0.002153,
        "SP98": 0.00199
      },
      "maj_gouv": {
        "Gazole": "2026-04-29 08:17:52",
        "SP98": "2026-04-29 08:17:53"
      }
    },
    {
      "id": "14700005",
      "lat": 48.892,
      "lon": -0.179,
      "cp": "14700",
      "ville": "FALAISE",
      "prix": {
        "Gazole": 0.0022,
        "SP98": 0.00199
      },
      "maj_gouv": {
        "Gazole": "2026-04-29 11:41:22",
        "SP98": "2026-04-29 11:41:22"
      }
    },
    {
      "id": "14100004",
      "lat": 49.144,
      "lon": 0.222,
      "cp": "14100",
      "ville": "Lisieux",
      "prix": {
        "Gazole": 0.00233,
        "E85": 0.0011,
        "E10": 0.00213,
        "SP98": 0.00226
      },
      "maj_gouv": {
        "Gazole": "2026-04-28 12:10:00",
        "E85": "2026-04-28 12:10:00",
        "E10": "2026-04-13 12:08:08",
        "SP98": "2026-04-13 12:08:08"
      }
    },
    {
      "id": "14000003",
      "lat": 49.21,
      "lon": -0.374,
      "cp": "14000",
      "ville": "Caen",
      "prix": {
        "Gazole": 0.00225,
        "E10": 0.00199,
        "SP98": 0.00199
      },
      "maj_gouv": {
        "Gazole": "2026-04-29 12:04:08",
        "E10": "2026-04-29 12:04:08",
        "SP98": "2026-04-29 12:04:08"
      }
    },
    {
      "id": "14400010",
      "lat": 49.285,
      "lon": -0.736,
      "cp": "14400",
      "ville": "VAUCELLES",
      "prix": {
        "Gazole": 0.002153,
        "E85": 0.000842,
        "GPLc": 0.001011,
        "E10": 0.001971
      },
      "maj_gouv": {
        "Gazole": "2026-04-29 00:01:00",
        "E85": "2026-04-29 00:01:00",
        "GPLc": "2026-04-29 00:01:00",
        "E10": "2026-04-29 00:01:00"
      }
    },
    {
      "id": "14880001",
      "lat": 49.29,
      "lon": -0.284,
      "cp": "14880",
      "ville": "COLLEVILLE-MONTGOMERY",
      "prix": {
        "Gazole": 0.002169,
        "E10": 0.0019890000000000003,
        "SP98": 0.002099
      },
      "maj_gouv": {
        "Gazole": "2026-04-29 09:09:45",
        "E10": "2026-04-29 09:09:45",
        "SP98": "2026-04-29 09:09:46"
      }
    },
    {
      "id": "14120002",
      "lat": 49.172,
      "lon": -0.33,
      "cp": "14120",
      "ville": "Mondeville",
      "prix": {
        "Gazole": 0.0022080000000000003,
        "E85": 0.000862,
        "E10": 0.00199,
        "SP98": 0.00199
      },
      "maj_gouv": {
        "Gazole": "2026-04-28 06:36:01",
        "E85": "2026-04-28 06:36:01",
        "E10": "2026-04-22 18:35:03",
        "SP98": "2026-04-27 06:36:59"
      }
    },
    {
      "id": "14310003",
      "lat": 49.08,
      "lon": -0.648,
      "cp": "14310",
      "ville": "VILLERS-BOCAGE",
      "prix": {
        "Gazole": 0.002219,
        "SP95": 0.002039,
        "E10": 0.001999
      },
      "maj_gouv": {
        "Gazole": "2026-04-29 09:30:43",
        "SP95": "2026-04-29 09:30:43",
        "E10": "2026-04-29 09:30:43"
      }
    },
    {
      "id": "14470002",
      "lat": 49.323,
      "lon": -0.452,
      "cp": "14470",
      "ville": "COURSEULLES-SUR-MER",
      "prix": {
        "Gazole": 0.002164,
        "E85": 0.000815,
        "GPLc": 0.001026,
        "E10": 0.0019690000000000003,
        "SP98": 0.002062
      },
      "maj_gouv": {
        "Gazole": "2026-04-28 11:45:28",
        "E85": "2026-04-27 09:47:18",
        "GPLc": "2026-04-17 12:33:31",
        "E10": "2026-04-28 11:45:28",
        "SP98": "2026-04-28 11:45:29"
      }
    },
    {
      "id": "14290001",
      "lat": 49.024,
      "lon": 0.413,
      "cp": "14290",
      "ville": "ORBEC",
      "prix": {
        "Gazole": 0.002219,
        "E85": 0.000859,
        "E10": 0.001999,
        "SP98": 0.002089
      },
      "maj_gouv": {
        "Gazole": "2026-04-28 16:51:10",
        "E85": "2026-04-07 18:19:12",
        "E10": "2026-04-28 16:51:10",
        "SP98": "2026-04-28 16:51:10"
      }
    },
    {
      "id": "14500005",
      "lat": 48.842,
      "lon": -0.886,
      "cp": "14500",
      "ville": "VIRE",
      "prix": {
        "Gazole": 0.002134,
        "E85": 0.000764,
        "E10": 0.001949,
        "SP98": 0.001992
      },
      "maj_gouv": {
        "Gazole": "2026-04-29 09:50:00",
        "E85": "2026-04-29 09:50:00",
        "E10": "2026-04-29 09:50:00",
        "SP98": "2026-04-29 09:50:00"
      }
    },
    {
      "id": "14800005",
      "lat": 49.35023,
      "lon": 0.09044,
      "cp": "14800",
      "ville": "TOUQUES",
      "prix": {
        "Gazole": 0.002193,
        "E85": 0.0007790000000000001,
        "E10": 0.002018,
        "SP98": 0.002092
      },
      "maj_gouv": {
        "Gazole": "2026-04-29 08:30:00",
        "E85": "2026-04-29 08:31:00",
        "E10": "2026-04-29 08:30:00",
        "SP98": "2026-04-29 08:30:00"
      }
    },
    {
      "id": "14220002",
      "lat": 48.979,
      "lon": -0.475,
      "cp": "14220",
      "ville": "Thury-Harcourt",
      "prix": {
        "Gazole": 0.002157,
        "SP95": 0.002068,
        "E10": 0.002018
      },
      "maj_gouv": {
        "Gazole": "2026-04-22 14:36:30",
        "SP95": "2026-04-13 10:06:55",
        "E10": "2026-04-13 10:06:55"
      }
    },
    {
      "id": "14000014",
      "lat": 49.186,
      "lon": -0.381,
      "cp": "14000",
      "ville": "CAEN",
      "prix": {
        "Gazole": 0.002175,
        "SP95": 0.002045,
        "SP98": 0.002075
      },
      "maj_gouv": {
        "Gazole": "2026-04-29 11:15:58",
        "SP95": "2026-04-29 11:15:58",
        "SP98": "2026-04-29 11:15:58"
      }
    },
    {
      "id": "14000019",
      "lat": 49.18856,
      "lon": -0.35025,
      "cp": "14000",
      "ville": "CAEN",
      "prix": {
        "Gazole": 0.00225,
        "GPLc": 0.001029,
        "E10": 0.00199,
        "SP98": 0.00199
      },
      "maj_gouv": {
        "Gazole": "2026-04-29 00:01:00",
        "GPLc": "2026-04-29 00:01:00",
        "E10": "2026-04-29 00:01:00",
        "SP98": "2026-04-29 00:01:00"
      }
    },
    {
      "id": "14150001",
      "lat": 49.269,
      "lon": -0.258,
      "cp": "14150",
      "ville": "Ouistreham",
      "prix": {
        "Gazole": 0.002178,
        "E10": 0.001998,
        "SP98": 0.002078
      },
      "maj_gouv": {
        "Gazole": "2026-04-29 10:45:00",
        "E10": "2026-04-29 10:45:00",
        "SP98": "2026-04-29 10:45:00"
      }
    },
    {
      "id": "14123008",
      "lat": 49.15400414,
      "lon": -0.34387913999999997,
      "cp": "14123",
      "ville": "IFS",
      "prix": {
        "Gazole": 0.00225,
        "E85": 0.000829,
        "E10": 0.00199,
        "SP98": 0.00199
      },
      "maj_gouv": {
        "Gazole": "2026-04-29 00:01:00",
        "E85": "2026-04-29 00:01:00",
        "E10": "2026-04-29 00:01:00",
        "SP98": "2026-04-29 00:01:00"
      }
    },
    {
      "id": "14123007",
      "lat": 49.1421,
      "lon": -0.337385,
      "cp": "14123",
      "ville": "IFS",
      "prix": {
        "Gazole": 0.002149,
        "E10": 0.001981,
        "SP98": 0.00199
      },
      "maj_gouv": {
        "Gazole": "2026-04-29 00:01:00",
        "E10": "2026-04-29 00:01:00",
        "SP98": "2026-04-29 00:01:00"
      }
    },
    {
      "id": "14760002",
      "lat": 49.16575,
      "lon": -0.41597,
      "cp": "14760",
      "ville": "Bretteville-sur-Odon",
      "prix": {
        "Gazole": 0.002149,
        "GPLc": 0.000999,
        "E10": 0.00199
      },
      "maj_gouv": {
        "Gazole": "2026-04-29 00:01:00",
        "GPLc": "2026-04-29 00:01:00",
        "E10": "2026-04-29 00:01:00"
      }
    },
    {
      "id": "14920001",
      "lat": 49.242,
      "lon": -0.372,
      "cp": "14920",
      "ville": "Mathieu",
      "prix": {
        "Gazole": 0.002164,
        "E10": 0.001986,
        "SP98": 0.0020659999999999997
      },
      "maj_gouv": {
        "Gazole": "2026-04-29 07:46:00",
        "E10": "2026-04-29 07:46:00",
        "SP98": "2026-04-29 07:46:00"
      }
    },
    {
      "id": "14730001",
      "lat": 49.166,
      "lon": -0.276,
      "cp": "14730",
      "ville": "Giberville",
      "prix": {
        "Gazole": 0.0023090000000000003,
        "E85": 0.000999,
        "GPLc": 0.001206,
        "E10": 0.00212,
        "SP98": 0.002175
      },
      "maj_gouv": {
        "Gazole": "2026-04-28 11:59:59",
        "E85": "2026-04-28 12:00:00",
        "GPLc": "2026-04-28 11:59:59",
        "E10": "2026-04-28 11:59:59",
        "SP98": "2026-04-28 11:59:59"
      }
    },
    {
      "id": "14290002",
      "lat": 49.024017,
      "lon": 0.404082,
      "cp": "14290",
      "ville": "Orbec",
      "prix": {
        "Gazole": 0.002249,
        "E10": 0.001999,
        "SP98": 0.002089
      },
      "maj_gouv": {
        "Gazole": "2026-04-16 10:59:06",
        "E10": "2026-04-02 07:31:51",
        "SP98": "2026-04-16 11:01:49"
      }
    },
    {
      "id": "14700007",
      "lat": 48.887,
      "lon": -0.191,
      "cp": "14700",
      "ville": "FALAISE",
      "prix": {
        "Gazole": 0.002189,
        "E10": 0.002069,
        "SP98": 0.002199
      },
      "maj_gouv": {
        "Gazole": "2026-04-21 11:26:13",
        "E10": "2026-04-21 11:26:13",
        "SP98": "2026-04-21 11:26:13"
      }
    },
    {
      "id": "14125001",
      "lat": 49.163,
      "lon": -0.298,
      "cp": "14120",
      "ville": "Mondeville",
      "prix": {
        "Gazole": 0.0021669999999999997,
        "SP95": 0.0020369999999999997,
        "E10": 0.002003,
        "SP98": 0.002112
      },
      "maj_gouv": {
        "Gazole": "2026-04-28 00:40:00",
        "SP95": "2026-04-28 00:40:00",
        "E10": "2026-04-28 00:40:00",
        "SP98": "2026-04-28 00:40:00"
      }
    },
    {
      "id": "14160002",
      "lat": 49.276,
      "lon": -0.103,
      "cp": "14160",
      "ville": "DIVES-SUR-MER",
      "prix": {
        "Gazole": 0.002139,
        "GPLc": 0.000999,
        "E10": 0.001999,
        "SP98": 0.002069
      },
      "maj_gouv": {
        "Gazole": "2026-04-28 10:34:09",
        "GPLc": "2026-04-17 09:31:49",
        "E10": "2026-04-14 09:40:25",
        "SP98": "2026-04-14 09:40:26"
      }
    },
    {
      "id": "14123001",
      "lat": 49.157273112235,
      "lon": -0.36860834399018,
      "cp": "14123",
      "ville": "Fleury-sur-Orne",
      "prix": {
        "Gazole": 0.0021190000000000002,
        "E10": 0.0019690000000000003,
        "SP98": 0.002043
      },
      "maj_gouv": {
        "Gazole": "2026-04-28 10:21:53",
        "E10": "2026-04-28 10:21:53",
        "SP98": "2026-04-28 10:21:53"
      }
    },
    {
      "id": "14230003",
      "lat": 49.3186292,
      "lon": -1.1008957000000001,
      "cp": "14230",
      "ville": "Isigny-sur-Mer",
      "prix": {
        "Gazole": 0.002129,
        "SP95": 0.0019790000000000003,
        "SP98": 0.002059
      },
      "maj_gouv": {
        "Gazole": "2026-04-22 09:10:47",
        "SP95": "2026-04-22 09:10:47",
        "SP98": "2026-04-22 09:10:47"
      }
    },
    {
      "id": "14320001",
      "lat": 49.11493,
      "lon": -0.37436,
      "cp": "14320",
      "ville": "SAINT-MARTIN-DE-FONTENAY",
      "prix": {
        "Gazole": 0.00225,
        "E10": 0.00199
      },
      "maj_gouv": {
        "Gazole": "2026-04-27 07:56:47",
        "E10": "2026-04-24 15:31:31"
      }
    },
    {
      "id": "14123005",
      "lat": 49.15,
      "lon": -0.352,
      "cp": "14123",
      "ville": "IFS",
      "prix": {
        "Gazole": 0.002099,
        "SP95": 0.001999,
        "E85": 0.000759,
        "E10": 0.0019690000000000003
      },
      "maj_gouv": {
        "Gazole": "2026-04-23 07:26:29",
        "SP95": "2026-04-17 07:13:38",
        "E85": "2026-04-21 07:08:07",
        "E10": "2026-04-28 08:04:29"
      }
    },
    {
      "id": "14000009",
      "lat": 49.183,
      "lon": -0.403,
      "cp": "14000",
      "ville": "Caen",
      "prix": {
        "Gazole": 0.002189,
        "SP95": 0.002049,
        "E10": 0.0019890000000000003
      },
      "maj_gouv": {
        "Gazole": "2026-04-29 11:35:24",
        "SP95": "2026-04-29 11:35:24",
        "E10": "2026-04-29 11:35:24"
      }
    },
    {
      "id": "14600004",
      "lat": 49.397,
      "lon": 0.211,
      "cp": "14600",
      "ville": "Équemauville",
      "prix": {
        "Gazole": 0.002149,
        "E85": 0.000819,
        "E10": 0.002019,
        "SP98": 0.002089
      },
      "maj_gouv": {
        "Gazole": "2026-04-27 09:47:00",
        "E85": "2026-04-16 09:39:44",
        "E10": "2026-04-27 09:47:00",
        "SP98": "2026-04-29 09:42:45"
      }
    },
    {
      "id": "14111001",
      "lat": 49.161,
      "lon": -0.4,
      "cp": "14111",
      "ville": "Louvigny",
      "prix": {
        "Gazole": 0.002179,
        "E85": 0.0008179999999999999,
        "E10": 0.0019890000000000003,
        "SP98": 0.002079
      },
      "maj_gouv": {
        "Gazole": "2026-04-29 08:58:00",
        "E85": "2026-04-21 09:00:00",
        "E10": "2026-04-29 08:58:00",
        "SP98": "2026-04-29 08:58:00"
      }
    },
    {
      "id": "14123010",
      "lat": 49.15769717388,
      "lon": -0.32601015714723,
      "cp": "14123",
      "ville": "Cormelles-le-Royal",
      "prix": {
        "Gazole": 0.002169,
        "SP95": 0.002039,
        "SP98": 0.002069
      },
      "maj_gouv": {
        "Gazole": "2026-04-28 11:23:45",
        "SP95": "2026-04-28 11:23:45",
        "SP98": "2026-04-17 08:28:57"
      }
    },
    {
      "id": "14200008",
      "lat": 49.213346526429,
      "lon": -0.34202803125476,
      "cp": "14200",
      "ville": "Hérouville-Saint-Clair",
      "prix": {
        "Gazole": 0.0021520000000000003,
        "E10": 0.001986,
        "SP98": 0.002013
      },
      "maj_gouv": {
        "Gazole": "2026-04-29 09:26:30",
        "E10": "2026-04-29 09:26:30",
        "SP98": "2026-04-29 09:26:30"
      }
    },
    {
      "id": "14400011",
      "lat": 49.274,
      "lon": -0.685,
      "cp": "14400",
      "ville": "SAINT-VIGOR-LE-GRAND",
      "prix": {
        "Gazole": 0.002173,
        "E85": 0.0008179999999999999,
        "E10": 0.00199,
        "SP98": 0.0020659999999999997
      },
      "maj_gouv": {
        "Gazole": "2026-04-29 10:54:31",
        "E85": "2026-04-29 10:54:32",
        "E10": "2026-04-29 10:54:32",
        "SP98": "2026-04-29 10:54:32"
      }
    },
    {
      "id": "14200009",
      "lat": 49.2002530377,
      "lon": -0.34489711733600004,
      "cp": "14200",
      "ville": "Hérouville-Saint-Clair",
      "prix": {
        "Gazole": 0.0021520000000000003,
        "GPLc": 0.001009,
        "E10": 0.001986,
        "SP98": 0.00199
      },
      "maj_gouv": {
        "Gazole": "2026-04-29 00:01:00",
        "GPLc": "2026-04-29 00:01:00",
        "E10": "2026-04-29 00:01:00",
        "SP98": "2026-04-29 00:01:00"
      }
    },
    {
      "id": "14160003",
      "lat": 49.281,
      "lon": -0.1,
      "cp": "14160",
      "ville": "DIVES-SUR-MER",
      "prix": {
        "Gazole": 0.0021379999999999997,
        "E10": 0.001998,
        "SP98": 0.002068
      },
      "maj_gouv": {
        "Gazole": "2026-04-28 12:28:35",
        "E10": "2026-04-28 12:28:35",
        "SP98": "2026-04-28 12:28:35"
      }
    },
    {
      "id": "14450001",
      "lat": 49.385,
      "lon": -1.05,
      "cp": "14450",
      "ville": "GRANDCAMP-MAISY",
      "prix": {
        "Gazole": 0.002199,
        "SP95": 0.002059,
        "E10": 0.001999
      },
      "maj_gouv": {
        "Gazole": "2026-04-29 12:07:07",
        "SP95": "2026-04-29 12:07:08",
        "E10": "2026-04-29 12:07:08"
      }
    },
    {
      "id": "14710001",
      "lat": 49.314,
      "lon": -0.906,
      "cp": "14710",
      "ville": "TREVIERES",
      "prix": {
        "Gazole": 0.002275,
        "SP95": 0.002064
      },
      "maj_gouv": {
        "Gazole": "2026-04-21 09:09:27",
        "SP95": "2026-04-21 09:09:27"
      }
    },
    {
      "id": "14520002",
      "lat": 49.34761,
      "lon": -0.80672,
      "cp": "14520",
      "ville": "Sainte-Honorine-des-Pertes",
      "prix": {
        "Gazole": 0.00219,
        "SP95": 0.00199
      },
      "maj_gouv": {
        "Gazole": "2026-04-23 14:27:37",
        "SP95": "2026-04-08 14:05:26"
      }
    },
    {
      "id": "14100007",
      "lat": 49.133,
      "lon": 0.225,
      "cp": "14100",
      "ville": "LISIEUX",
      "prix": {
        "Gazole": 0.002109,
        "E10": 0.001963,
        "SP98": 0.002022
      },
      "maj_gouv": {
        "Gazole": "2026-04-29 11:53:13",
        "E10": "2026-04-29 11:53:13",
        "SP98": "2026-04-29 11:53:14"
      }
    },
    {
      "id": "14390001",
      "lat": 49.28814,
      "lon": -0.12678,
      "cp": "14390",
      "ville": "CABOURG",
      "prix": {
        "Gazole": 0.002229,
        "SP95": 0.002039,
        "SP98": 0.002069
      },
      "maj_gouv": {
        "Gazole": "2026-04-25 07:53:09",
        "SP95": "2026-04-20 12:13:30",
        "SP98": "2026-04-20 12:13:30"
      }
    },
    {
      "id": "14990002",
      "lat": 49.334,
      "lon": -0.42,
      "cp": "14990",
      "ville": "Bernières-sur-Mer",
      "prix": {
        "Gazole": 0.002169,
        "E10": 0.0019790000000000003,
        "SP98": 0.002059
      },
      "maj_gouv": {
        "Gazole": "2026-04-27 17:55:44",
        "E10": "2026-04-27 17:55:45",
        "SP98": "2026-04-16 07:58:39"
      }
    },
    {
      "id": "14380002",
      "lat": 48.938,
      "lon": -1.033,
      "cp": "14380",
      "ville": "PONT-FARCY",
      "prix": {
        "Gazole": 0.00216,
        "E10": 0.00199,
        "SP98": 0.00199
      },
      "maj_gouv": {
        "Gazole": "2026-04-23 19:30:00",
        "E10": "2026-04-23 18:24:51",
        "SP98": "2026-04-23 18:24:51"
      }
    },
    {
      "id": "14130003",
      "lat": 49.29235,
      "lon": 0.19338,
      "cp": "14130",
      "ville": "Pont-l'Évêque",
      "prix": {
        "Gazole": 0.0021349999999999997,
        "E10": 0.001935,
        "SP98": 0.002049
      },
      "maj_gouv": {
        "Gazole": "2026-04-29 07:33:23",
        "E10": "2026-04-18 07:55:30",
        "SP98": "2026-04-01 07:07:31"
      }
    },
    {
      "id": "14700004",
      "lat": 48.911,
      "lon": -0.206,
      "cp": "14700",
      "ville": "FALAISE",
      "prix": {
        "Gazole": 0.002165,
        "SP95": 0.002028,
        "E85": 0.0007099999999999999,
        "GPLc": 0.000978,
        "E10": 0.001992
      },
      "maj_gouv": {
        "Gazole": "2026-04-29 07:50:00",
        "SP95": "2026-04-27 07:50:00",
        "E85": "2026-04-15 07:50:00",
        "GPLc": "2026-04-01 19:50:59",
        "E10": "2026-04-27 07:50:00"
      }
    },
    {
      "id": "14123009",
      "lat": 49.154,
      "lon": -0.314,
      "cp": "14123",
      "ville": "Cormelles-le-Royal",
      "prix": {
        "Gazole": 0.002149,
        "E10": 0.0019890000000000003,
        "SP98": 0.002039
      },
      "maj_gouv": {
        "Gazole": "2026-04-29 08:16:29",
        "E10": "2026-04-29 08:16:29",
        "SP98": "2026-04-28 08:31:12"
      }
    },
    {
      "id": "14800008",
      "lat": 49.356,
      "lon": 0.071,
      "cp": "14800",
      "ville": "TOURGéVILLE",
      "prix": {
        "Gazole": 0.002319,
        "E85": 0.0009350000000000001,
        "GPLc": 0.001059,
        "E10": 0.002129,
        "SP98": 0.002229
      },
      "maj_gouv": {
        "Gazole": "2026-04-27 19:30:00",
        "E85": "2026-04-27 19:30:00",
        "GPLc": "2026-04-27 19:30:00",
        "E10": "2026-04-27 19:30:00",
        "SP98": "2026-04-27 19:30:00"
      }
    },
    {
      "id": "14480001",
      "lat": 49.28,
      "lon": -0.535,
      "cp": "14480",
      "ville": "Creully sur seulles",
      "prix": {
        "Gazole": 0.002159,
        "E10": 0.001939,
        "SP98": 0.002059
      },
      "maj_gouv": {
        "Gazole": "2026-04-16 15:08:01",
        "E10": "2026-04-16 15:08:01",
        "SP98": "2026-04-16 15:08:01"
      }
    },
    {
      "id": "14280002",
      "lat": 49.201,
      "lon": -0.398,
      "cp": "14280",
      "ville": "Saint-Contest",
      "prix": {
        "Gazole": 0.002199,
        "E85": 0.000819,
        "E10": 0.0019790000000000003,
        "SP98": 0.002089
      },
      "maj_gouv": {
        "Gazole": "2026-04-29 07:57:42",
        "E85": "2026-04-16 09:18:28",
        "E10": "2026-04-27 12:53:10",
        "SP98": "2026-04-29 07:57:42"
      }
    },
    {
      "id": "14400009",
      "lat": 49.288,
      "lon": -0.704,
      "cp": "14400",
      "ville": "Bayeux",
      "prix": {
        "Gazole": 0.002202,
        "E10": 0.001993,
        "SP98": 0.002141
      },
      "maj_gouv": {
        "Gazole": "2026-04-29 09:01:27",
        "E10": "2026-04-29 09:01:27",
        "SP98": "2026-04-29 09:01:27"
      }
    },
    {
      "id": "14130008",
      "lat": 49.369788938573,
      "lon": 0.20111980321583,
      "cp": "14130",
      "ville": "Saint-Gatien-des-Bois",
      "prix": {
        "Gazole": 0.00225,
        "E85": 0.000842,
        "E10": 0.00199,
        "SP98": 0.00199
      },
      "maj_gouv": {
        "Gazole": "2026-04-28 08:33:57",
        "E85": "2026-04-28 08:33:57",
        "E10": "2026-04-28 08:33:57",
        "SP98": "2026-04-28 08:33:57"
      }
    },
    {
      "id": "14500001",
      "lat": 48.858,
      "lon": -0.893,
      "cp": "14500",
      "ville": "VIRE",
      "prix": {
        "Gazole": 0.00225,
        "GPLc": 0.00107,
        "E10": 0.00199,
        "SP98": 0.00199
      },
      "maj_gouv": {
        "Gazole": "2026-04-25 12:33:45",
        "GPLc": "2026-04-25 12:33:45",
        "E10": "2026-04-25 12:33:45",
        "SP98": "2026-04-25 12:33:45"
      }
    },
    {
      "id": "14170001",
      "lat": 49.0247,
      "lon": -0.02358,
      "cp": "14170",
      "ville": "SAINT-PIERRE-SUR-DIVES",
      "prix": {
        "Gazole": 0.00225,
        "E10": 0.00199,
        "SP98": 0.00199
      },
      "maj_gouv": {
        "Gazole": "2026-04-28 07:53:12",
        "E10": "2026-04-28 07:53:13",
        "SP98": "2026-04-28 07:53:13"
      }
    },
    {
      "id": "14980002",
      "lat": 49.2,
      "lon": -0.459,
      "cp": "14980",
      "ville": "ROTS",
      "prix": {
        "Gazole": 0.0021920000000000004,
        "GPLc": 0.001082,
        "E10": 0.001972,
        "SP98": 0.002118
      },
      "maj_gouv": {
        "Gazole": "2026-04-29 10:04:54",
        "GPLc": "2026-04-29 10:04:54",
        "E10": "2026-04-29 10:04:54",
        "SP98": "2026-04-29 10:04:54"
      }
    },
    {
      "id": "14600003",
      "lat": 49.41657,
      "lon": 0.25936,
      "cp": "14600",
      "ville": "Honfleur",
      "prix": {
        "Gazole": 0.002149,
        "E10": 0.002019,
        "SP98": 0.002089
      },
      "maj_gouv": {
        "Gazole": "2026-04-27 08:42:12",
        "E10": "2026-04-29 08:36:13",
        "SP98": "2026-04-29 08:36:13"
      }
    },
    {
      "id": "14110002",
      "lat": 48.85624,
      "lon": -0.53892,
      "cp": "14110",
      "ville": "CONDE-SUR-NOIREAU",
      "prix": {
        "Gazole": 0.0020710000000000004,
        "SP95": 0.001991,
        "SP98": 0.0020310000000000003
      },
      "maj_gouv": {
        "Gazole": "2026-04-28 08:55:39",
        "SP95": "2026-04-17 09:03:14",
        "SP98": "2026-04-17 09:03:15"
      }
    },
    {
      "id": "14130001",
      "lat": 49.28865,
      "lon": 0.19554,
      "cp": "14130",
      "ville": "PONT L EVEQUE",
      "prix": {
        "Gazole": 0.002249,
        "E10": 0.00199,
        "SP98": 0.00199
      },
      "maj_gouv": {
        "Gazole": "2026-04-29 06:31:11",
        "E10": "2026-04-29 06:31:12",
        "SP98": "2026-04-29 06:31:12"
      }
    },
    {
      "id": "14170006",
      "lat": 49.024864919680006,
      "lon": -0.026257792195654002,
      "cp": "14170",
      "ville": "SAINT PIERRE SUR DIVES",
      "prix": {
        "Gazole": 0.002139,
        "E85": 0.000819,
        "E10": 0.0019890000000000003,
        "SP98": 0.002079
      },
      "maj_gouv": {
        "Gazole": "2026-04-21 18:06:05",
        "E85": "2026-04-28 09:20:38",
        "E10": "2026-04-16 10:13:27",
        "SP98": "2026-04-17 09:46:45"
      }
    },
    {
      "id": "14670001",
      "lat": 49.182,
      "lon": -0.182,
      "cp": "14670",
      "ville": "Troarn",
      "prix": {
        "Gazole": 0.002139,
        "SP95": 0.002009,
        "E10": 0.0019690000000000003,
        "SP98": 0.002039
      },
      "maj_gouv": {
        "Gazole": "2026-04-28 10:34:34",
        "SP95": "2026-04-17 09:23:14",
        "E10": "2026-04-17 09:21:47",
        "SP98": "2026-04-17 09:21:47"
      }
    },
    {
      "id": "14780003",
      "lat": 49.301827,
      "lon": -0.318643,
      "cp": "14780",
      "ville": "Lion-sur-Mer",
      "prix": {
        "Gazole": 0.002399,
        "SP95": 0.002079,
        "SP98": 0.00216
      },
      "maj_gouv": {
        "Gazole": "2026-04-14 10:44:41",
        "SP95": "2026-04-14 10:44:41",
        "SP98": "2026-04-14 10:44:42"
      }
    },
    {
      "id": "14400003",
      "lat": 49.271,
      "lon": -0.699,
      "cp": "14400",
      "ville": "BAYEUX",
      "prix": {
        "Gazole": 0.002173,
        "E85": 0.000875,
        "E10": 0.00199,
        "SP98": 0.00199
      },
      "maj_gouv": {
        "Gazole": "2026-04-29 08:26:27",
        "E85": "2026-04-29 08:26:28",
        "E10": "2026-04-29 08:26:28",
        "SP98": "2026-04-29 08:26:28"
      }
    },
    {
      "id": "14640001",
      "lat": 49.307,
      "lon": -0.027,
      "cp": "14640",
      "ville": "Auberville",
      "prix": {
        "Gazole": 0.00225,
        "SP95": 0.00199
      },
      "maj_gouv": {
        "Gazole": "2026-04-29 11:21:41",
        "SP95": "2026-04-29 11:21:41"
      }
    },
    {
      "id": "14260002",
      "lat": 49.026,
      "lon": -0.632,
      "cp": "14260",
      "ville": "Aunay-sur-Odon",
      "prix": {
        "Gazole": 0.002175,
        "E10": 0.001982,
        "SP98": 0.002079
      },
      "maj_gouv": {
        "Gazole": "2026-04-21 10:39:25",
        "E10": "2026-04-28 07:38:11",
        "SP98": "2026-04-28 08:21:01"
      }
    },
    {
      "id": "14800006",
      "lat": 49.347,
      "lon": 0.095,
      "cp": "14800",
      "ville": "TOUQUES",
      "prix": {
        "Gazole": 0.002139,
        "SP95": 0.0019890000000000003,
        "SP98": 0.002077
      },
      "maj_gouv": {
        "Gazole": "2026-04-28 12:39:20",
        "SP95": "2026-04-28 12:39:20",
        "SP98": "2026-04-28 12:39:20"
      }
    },
    {
      "id": "14440002",
      "lat": 49.3,
      "lon": -0.382,
      "cp": "14440",
      "ville": "DOUVRES-LA-DéLIVRANDE",
      "prix": {
        "Gazole": 0.002169,
        "SP95": 0.002039,
        "E85": 0.0008990000000000001,
        "GPLc": 0.001019,
        "E10": 0.0019890000000000003,
        "SP98": 0.002079
      },
      "maj_gouv": {
        "Gazole": "2026-04-29 08:51:20",
        "SP95": "2026-04-28 15:23:02",
        "E85": "2026-04-15 08:59:32",
        "GPLc": "2026-04-15 08:59:32",
        "E10": "2026-04-28 15:23:02",
        "SP98": "2026-04-28 15:23:02"
      }
    },
    {
      "id": "14380003",
      "lat": 48.841,
      "lon": -1.043,
      "cp": "14380",
      "ville": "SAINT-SEVER-CALVADOS",
      "prix": {
        "Gazole": 0.00217,
        "SP95": 0.00211,
        "SP98": 0.00217
      },
      "maj_gouv": {
        "Gazole": "2026-04-28 17:10:40",
        "SP95": "2026-04-28 17:10:40",
        "SP98": "2026-04-28 17:10:40"
      }
    },
    {
      "id": "14350002",
      "lat": 49.011,
      "lon": -0.852,
      "cp": "14350",
      "ville": "Souleuvre en Bocage",
      "prix": {
        "Gazole": 0.00225,
        "E10": 0.00199,
        "SP98": 0.00199
      },
      "maj_gouv": {
        "Gazole": "2026-04-28 10:31:02",
        "E10": "2026-04-28 10:31:02",
        "SP98": "2026-04-28 10:31:02"
      }
    },
    {
      "id": "14500013",
      "lat": 48.826504859941,
      "lon": -0.8882993929494799,
      "cp": "14500",
      "ville": "VIRE NORMANDIE",
      "prix": {
        "Gazole": 0.002159,
        "E85": 0.000769,
        "E10": 0.0019790000000000003,
        "SP98": 0.002049
      },
      "maj_gouv": {
        "Gazole": "2026-04-28 08:44:30",
        "E85": "2026-04-28 08:44:30",
        "E10": "2026-04-28 08:44:30",
        "SP98": "2026-04-28 08:44:31"
      }
    },
    {
      "id": "14790002",
      "lat": 49.156,
      "lon": -0.45,
      "cp": "14790",
      "ville": "verson",
      "prix": {
        "Gazole": 0.00225,
        "E10": 0.00199
      },
      "maj_gouv": {
        "Gazole": "2026-04-28 07:37:40",
        "E10": "2026-04-28 07:37:40"
      }
    },
    {
      "id": "14230002",
      "lat": 49.313,
      "lon": -1.099,
      "cp": "14230",
      "ville": "ISIGNY-SUR-MER",
      "prix": {
        "Gazole": 0.002139,
        "E85": 0.0008179999999999999,
        "E10": 0.0019790000000000003,
        "SP98": 0.002089
      },
      "maj_gouv": {
        "Gazole": "2026-04-28 08:55:07",
        "E85": "2026-04-28 08:55:07",
        "E10": "2026-04-28 08:55:07",
        "SP98": "2026-04-28 08:55:07"
      }
    },
    {
      "id": "14540001",
      "lat": 49.1401163603,
      "lon": -0.300508505075,
      "cp": "14540",
      "ville": "SOLIERS",
      "prix": {
        "Gazole": 0.002169,
        "SP95": 0.002039
      },
      "maj_gouv": {
        "Gazole": "2026-04-28 11:17:27",
        "SP95": "2026-04-28 11:17:27"
      }
    },
    {
      "id": "14430001",
      "lat": 49.231,
      "lon": -0.044,
      "cp": "14430",
      "ville": "DOZULé",
      "prix": {
        "Gazole": 0.002149,
        "SP95": 0.002029,
        "SP98": 0.002069
      },
      "maj_gouv": {
        "Gazole": "2026-04-22 09:00:40",
        "SP95": "2026-04-10 16:48:29",
        "SP98": "2026-04-10 16:48:29"
      }
    },
    {
      "id": "14310002",
      "lat": 49.081,
      "lon": -0.65,
      "cp": "14310",
      "ville": "Villers-Bocage",
      "prix": {},
      "maj_gouv": {}
    },
    {
      "id": "14420003",
      "lat": 48.965376785899004,
      "lon": -0.2396715313079,
      "cp": "14420",
      "ville": "POTIGNY",
      "prix": {
        "Gazole": 0.002282,
        "SP98": 0.002109
      },
      "maj_gouv": {
        "Gazole": "2026-04-14 07:38:51",
        "SP98": "2026-04-14 07:38:51"
      }
    },
    {
      "id": "14330001",
      "lat": 49.248,
      "lon": -0.878,
      "cp": "14330",
      "ville": "LE MOLAY-LITTRY",
      "prix": {
        "Gazole": 0.002099,
        "E85": 0.0007149999999999999,
        "E10": 0.0019590000000000002,
        "SP98": 0.002029
      },
      "maj_gouv": {
        "Gazole": "2026-04-27 08:45:00",
        "E85": "2026-04-18 08:55:00",
        "E10": "2026-04-28 08:45:00",
        "SP98": "2026-04-21 08:55:00"
      }
    },
    {
      "id": "14160004",
      "lat": 49.28517,
      "lon": -0.1096,
      "cp": "14160",
      "ville": "Dives-sur-Mer",
      "prix": {
        "Gazole": 0.00225,
        "E85": 0.000869,
        "E10": 0.00199,
        "SP98": 0.00199
      },
      "maj_gouv": {
        "Gazole": "2026-04-29 00:01:00",
        "E85": "2026-04-29 14:08:35",
        "E10": "2026-04-29 14:08:35",
        "SP98": "2026-04-29 14:08:35"
      }
    },
    {
      "id": "14410004",
      "lat": 48.853616304896,
      "lon": -0.66465874603271,
      "cp": "14410",
      "ville": "VALDALLIERE",
      "prix": {
        "Gazole": 0.002186,
        "SP95": 0.0020310000000000003,
        "E10": 0.0019790000000000003
      },
      "maj_gouv": {
        "Gazole": "2026-04-25 10:11:30",
        "SP95": "2026-04-18 09:51:47",
        "E10": "2026-04-29 10:08:29"
      }
    },
    {
      "id": "14600007",
      "lat": 49.413,
      "lon": 0.25,
      "cp": "14600",
      "ville": "HONFLEUR",
      "prix": {
        "Gazole": 0.002159,
        "E85": 0.0008219999999999999,
        "GPLc": 0.001039
      },
      "maj_gouv": {
        "Gazole": "2026-04-29 00:01:00",
        "E85": "2026-04-29 00:01:00",
        "GPLc": "2026-04-29 00:01:00"
      }
    },
    {
      "id": "14000021",
      "lat": 49.19979,
      "lon": -0.36004,
      "cp": "14000",
      "ville": "CAEN",
      "prix": {
        "Gazole": 0.0021520000000000003,
        "E85": 0.000855,
        "GPLc": 0.001009,
        "E10": 0.001986,
        "SP98": 0.00199
      },
      "maj_gouv": {
        "Gazole": "2026-04-29 00:01:00",
        "E85": "2026-04-29 00:01:00",
        "GPLc": "2026-04-29 00:01:00",
        "E10": "2026-04-29 00:01:00",
        "SP98": "2026-04-29 00:01:00"
      }
    }
  ]
}