{
  "departement": "10",
  "date": "2026-06-05",
  "stations": [
    {
      "id": "10110001",
      "lat": 48.106,
      "lon": 4.377,
      "cp": "10110",
      "ville": "Bar-sur-Seine",
      "prix": {
        "Gazole": 0.002006,
        "E85": 0.00093,
        "E10": 0.00195,
        "SP98": 0.002063
      },
      "maj_gouv": {
        "Gazole": "2026-06-05 06:31:00",
        "E85": "2026-06-05 06:31:00",
        "E10": "2026-06-05 06:31:00",
        "SP98": "2026-06-05 06:31:00"
      }
    },
    {
      "id": "10340001",
      "lat": 47.99651,
      "lon": 4.36718,
      "cp": "10340",
      "ville": "Les Riceys",
      "prix": {
        "Gazole": 0.002079,
        "SP95": 0.002099,
        "SP98": 0.002149
      },
      "maj_gouv": {
        "Gazole": "2026-06-02 19:58:00",
        "SP95": "2026-06-02 19:58:00",
        "SP98": "2026-06-02 19:58:00"
      }
    },
    {
      "id": "10360001",
      "lat": 48.0606395,
      "lon": 4.5380332,
      "cp": "10360",
      "ville": "essoyes",
      "prix": {
        "Gazole": 0.002079,
        "SP95": 0.002099,
        "SP98": 0.002149
      },
      "maj_gouv": {
        "Gazole": "2026-06-03 07:26:41",
        "SP95": "2026-06-03 07:26:41",
        "SP98": "2026-06-03 07:26:41"
      }
    },
    {
      "id": "10500002",
      "lat": 48.399,
      "lon": 4.518,
      "cp": "10500",
      "ville": "Brienne-le-Château",
      "prix": {
        "Gazole": 0.001925,
        "E85": 0.000798,
        "E10": 0.00195,
        "SP98": 0.002058
      },
      "maj_gouv": {
        "Gazole": "2026-06-02 09:02:11",
        "E85": "2026-05-15 08:41:26",
        "E10": "2026-06-02 09:02:11",
        "SP98": "2026-06-02 09:02:11"
      }
    },
    {
      "id": "10000006",
      "lat": 48.289,
      "lon": 4.076,
      "cp": "10000",
      "ville": "TROYES",
      "prix": {
        "Gazole": 0.0020350000000000004,
        "E10": 0.00202,
        "SP98": 0.002121
      },
      "maj_gouv": {
        "Gazole": "2026-06-04 07:23:04",
        "E10": "2026-06-04 07:23:04",
        "SP98": "2026-06-04 07:23:04"
      }
    },
    {
      "id": "10700002",
      "lat": 48.534,
      "lon": 4.156,
      "cp": "10700",
      "ville": "ARCIS-SUR-AUBE",
      "prix": {
        "Gazole": 0.001999,
        "E85": 0.000879,
        "E10": 0.0019590000000000002,
        "SP98": 0.002049
      },
      "maj_gouv": {
        "Gazole": "2026-06-04 08:07:50",
        "E85": "2026-05-28 09:32:43",
        "E10": "2026-06-02 07:44:56",
        "SP98": "2026-06-04 08:07:51"
      }
    },
    {
      "id": "10200002",
      "lat": 48.238,
      "lon": 4.701,
      "cp": "10200",
      "ville": "Bar-sur-Aube",
      "prix": {
        "Gazole": 0.002049,
        "SP95": 0.002019,
        "E85": 0.000799,
        "E10": 0.0019790000000000003
      },
      "maj_gouv": {
        "Gazole": "2026-06-04 08:36:22",
        "SP95": "2026-06-01 08:31:18",
        "E85": "2026-05-04 08:30:00",
        "E10": "2026-06-01 08:31:18"
      }
    },
    {
      "id": "10160001",
      "lat": 48.216,
      "lon": 3.741,
      "cp": "10160",
      "ville": "AIX-EN-OTHE",
      "prix": {
        "Gazole": 0.001918,
        "E10": 0.001949,
        "SP98": 0.002089
      },
      "maj_gouv": {
        "Gazole": "2026-06-02 09:16:20",
        "E10": "2026-06-02 09:16:20",
        "SP98": "2026-06-02 09:16:20"
      }
    },
    {
      "id": "10400003",
      "lat": 48.48593,
      "lon": 3.49118,
      "cp": "10400",
      "ville": "Nogent-sur-Seine",
      "prix": {
        "Gazole": 0.00195,
        "SP95": 0.0020299999999999997,
        "E10": 0.00198,
        "SP98": 0.00209
      },
      "maj_gouv": {
        "Gazole": "2026-05-30 08:37:33",
        "SP95": "2026-05-30 08:37:33",
        "E10": "2026-05-30 08:37:33",
        "SP98": "2026-05-30 08:37:33"
      }
    },
    {
      "id": "10190001",
      "lat": 48.274,
      "lon": 3.804,
      "cp": "10190",
      "ville": "ESTISSAC",
      "prix": {
        "Gazole": 0.002079,
        "SP95": 0.002099
      },
      "maj_gouv": {
        "Gazole": "2026-06-03 00:00:00",
        "SP95": "2026-06-03 00:00:00"
      }
    },
    {
      "id": "10800006",
      "lat": 48.237,
      "lon": 4.109,
      "cp": "10800",
      "ville": "Buchères",
      "prix": {
        "Gazole": 0.001999,
        "E10": 0.0019690000000000003,
        "SP98": 0.002129
      },
      "maj_gouv": {
        "Gazole": "2026-06-03 09:39:48",
        "E10": "2026-06-03 09:39:49",
        "SP98": "2026-06-03 09:39:49"
      }
    },
    {
      "id": "10230001",
      "lat": 48.668,
      "lon": 4.192,
      "cp": "10230",
      "ville": "MAILLY-LE-CAMP",
      "prix": {
        "Gazole": 0.002079,
        "SP95": 0.002099,
        "SP98": 0.002149
      },
      "maj_gouv": {
        "Gazole": "2026-06-03 00:00:00",
        "SP95": "2026-06-03 00:00:00",
        "SP98": "2026-06-03 00:00:00"
      }
    },
    {
      "id": "10170001",
      "lat": 48.50802136869999,
      "lon": 3.87881675396,
      "cp": "10170",
      "ville": "MERY-SUR-SEINE",
      "prix": {
        "Gazole": 0.002012,
        "E85": 0.000798,
        "E10": 0.00195,
        "SP98": 0.002059
      },
      "maj_gouv": {
        "Gazole": "2026-05-30 10:33:38",
        "E85": "2026-05-22 14:02:11",
        "E10": "2026-05-30 10:33:38",
        "SP98": "2026-05-30 10:33:38"
      }
    },
    {
      "id": "10600002",
      "lat": 48.305,
      "lon": 4.027,
      "cp": "10300",
      "ville": "Sainte-Savine",
      "prix": {
        "Gazole": 0.001999,
        "SP95": 0.002019,
        "GPLc": 0.000999,
        "E10": 0.0019690000000000003,
        "SP98": 0.002099
      },
      "maj_gouv": {
        "Gazole": "2026-06-01 10:16:33",
        "SP95": "2026-06-01 10:16:33",
        "GPLc": "2026-06-01 10:16:33",
        "E10": "2026-06-01 10:16:33",
        "SP98": "2026-06-01 10:16:33"
      }
    },
    {
      "id": "10140001",
      "lat": 48.237,
      "lon": 4.467,
      "cp": "10140",
      "ville": "VENDEUVRE-SUR-BARSE",
      "prix": {
        "Gazole": 0.002079,
        "SP95": 0.002099
      },
      "maj_gouv": {
        "Gazole": "2026-06-03 00:00:00",
        "SP95": "2026-06-03 00:00:00"
      }
    },
    {
      "id": "10500001",
      "lat": 48.428,
      "lon": 4.421,
      "cp": "10500",
      "ville": "LESMONT",
      "prix": {
        "Gazole": 0.002133,
        "E10": 0.00199
      },
      "maj_gouv": {
        "Gazole": "2026-06-04 16:59:11",
        "E10": "2026-06-02 10:10:29"
      }
    },
    {
      "id": "10210001",
      "lat": 48.066,
      "lon": 4.141,
      "cp": "10210",
      "ville": "CHAOURCE",
      "prix": {
        "Gazole": 0.002039,
        "SP95": 0.002029,
        "SP98": 0.002169
      },
      "maj_gouv": {
        "Gazole": "2026-06-04 18:30:15",
        "SP95": "2026-06-04 18:30:15",
        "SP98": "2026-05-28 15:43:48"
      }
    },
    {
      "id": "10800003",
      "lat": 48.268,
      "lon": 4.089,
      "cp": "10800",
      "ville": "Saint-Julien-les-Villas",
      "prix": {
        "E10": 0.001909,
        "SP98": 0.002025
      },
      "maj_gouv": {
        "E10": "2026-06-02 11:07:02",
        "SP98": "2026-05-29 08:57:42"
      }
    },
    {
      "id": "10400007",
      "lat": 48.410008029162,
      "lon": 3.4346517846154003,
      "cp": "10400",
      "ville": "TRAINEL",
      "prix": {
        "Gazole": 0.0020499999999999997,
        "E85": 0.000864,
        "E10": 0.002074,
        "SP98": 0.00217
      },
      "maj_gouv": {
        "Gazole": "2026-06-04 06:21:10",
        "E85": "2026-05-26 22:42:08",
        "E10": "2026-05-26 22:42:08",
        "SP98": "2026-06-04 06:21:10"
      }
    },
    {
      "id": "10400002",
      "lat": 48.49240759359999,
      "lon": 3.51288606446,
      "cp": "10400",
      "ville": "NOGENT-SUR-SEINE",
      "prix": {
        "Gazole": 0.001983,
        "SP95": 0.0020299999999999997,
        "SP98": 0.00209
      },
      "maj_gouv": {
        "Gazole": "2026-06-02 09:42:35",
        "SP95": "2026-06-02 09:39:58",
        "SP98": "2026-06-02 09:39:58"
      }
    },
    {
      "id": "10350001",
      "lat": 48.406,
      "lon": 3.738,
      "cp": "10350",
      "ville": "Marigny-le-Châtel",
      "prix": {
        "Gazole": 0.001921,
        "E85": 0.000798,
        "E10": 0.0019019999999999998,
        "SP98": 0.002019
      },
      "maj_gouv": {
        "Gazole": "2026-06-03 10:11:17",
        "E85": "2026-06-02 10:50:33",
        "E10": "2026-06-03 10:11:17",
        "SP98": "2026-06-03 10:11:17"
      }
    },
    {
      "id": "10370001",
      "lat": 48.585,
      "lon": 3.561,
      "cp": "10370",
      "ville": "VILLENAUXE-LA-GRANDE",
      "prix": {
        "Gazole": 0.0019199999999999998,
        "SP95": 0.0019690000000000003,
        "E10": 0.0019190000000000001
      },
      "maj_gouv": {
        "Gazole": "2026-06-02 12:39:32",
        "SP95": "2026-06-02 07:57:32",
        "E10": "2026-06-02 07:57:32"
      }
    },
    {
      "id": "10000019",
      "lat": 48.288,
      "lon": 4.08,
      "cp": "10000",
      "ville": "TROYES",
      "prix": {
        "Gazole": 0.002012,
        "E85": 0.000819,
        "E10": 0.001913
      },
      "maj_gouv": {
        "Gazole": "2026-06-05 00:01:00",
        "E85": "2026-06-05 00:01:00",
        "E10": "2026-06-05 00:01:00"
      }
    },
    {
      "id": "10150002",
      "lat": 48.328,
      "lon": 4.113,
      "cp": "10150",
      "ville": "PONT-SAINTE-MARIE",
      "prix": {
        "Gazole": 0.001971,
        "SP95": 0.0019890000000000003,
        "E85": 0.000798,
        "E10": 0.0019190000000000001,
        "SP98": 0.002019
      },
      "maj_gouv": {
        "Gazole": "2026-06-04 09:30:53",
        "SP95": "2026-05-29 08:34:09",
        "E85": "2026-05-15 09:27:37",
        "E10": "2026-06-02 12:35:37",
        "SP98": "2026-05-29 08:34:10"
      }
    },
    {
      "id": "10123001",
      "lat": 48.281776863104,
      "lon": 4.0525774803961,
      "cp": "10120",
      "ville": "Saint-André-les-Vergers",
      "prix": {
        "Gazole": 0.001956,
        "E85": 0.000747,
        "E10": 0.001925,
        "SP98": 0.002041
      },
      "maj_gouv": {
        "Gazole": "2026-06-02 10:19:59",
        "E85": "2026-06-02 10:19:59",
        "E10": "2026-06-02 10:19:59",
        "SP98": "2026-06-02 10:19:59"
      }
    },
    {
      "id": "10270007",
      "lat": 48.214155554748004,
      "lon": 4.2409806284308,
      "cp": "10270",
      "ville": "Fresnoy-le-Château",
      "prix": {
        "Gazole": 0.002206,
        "E85": 0.000998,
        "E10": 0.00199,
        "SP98": 0.00199
      },
      "maj_gouv": {
        "Gazole": "2026-06-05 00:01:00",
        "E85": "2026-06-05 00:01:00",
        "E10": "2026-06-05 00:01:00",
        "SP98": "2026-06-05 00:01:00"
      }
    },
    {
      "id": "10300002",
      "lat": 48.293,
      "lon": 4.043,
      "cp": "10300",
      "ville": "Sainte-Savine",
      "prix": {
        "Gazole": 0.002047,
        "E10": 0.001978,
        "SP98": 0.002058
      },
      "maj_gouv": {
        "Gazole": "2026-06-04 07:41:00",
        "E10": "2026-06-04 07:41:00",
        "SP98": "2026-06-04 07:41:00"
      }
    },
    {
      "id": "10200004",
      "lat": 48.229,
      "lon": 4.717,
      "cp": "10200",
      "ville": "Bar-sur-Aube",
      "prix": {
        "Gazole": 0.002079,
        "SP95": 0.002099,
        "E85": 0.0008990000000000001
      },
      "maj_gouv": {
        "Gazole": "2026-06-03 00:00:00",
        "SP95": "2026-06-03 00:00:00",
        "E85": "2026-04-21 00:00:00"
      }
    },
    {
      "id": "10120006",
      "lat": 48.272924,
      "lon": 4.055641,
      "cp": "10120",
      "ville": "SAINT ANDRE LES VERGERS",
      "prix": {
        "Gazole": 0.002049,
        "E85": 0.0008489999999999999,
        "E10": 0.002049,
        "SP98": 0.002099
      },
      "maj_gouv": {
        "Gazole": "2026-05-29 13:04:50",
        "E85": "2026-04-08 00:00:00",
        "E10": "2026-05-29 13:04:50",
        "SP98": "2026-05-29 13:04:50"
      }
    },
    {
      "id": "10800007",
      "lat": 48.268,
      "lon": 4.088,
      "cp": "10800",
      "ville": "Saint-Julien-les-Villas",
      "prix": {
        "E85": 0.000798,
        "E10": 0.001909,
        "SP98": 0.002025
      },
      "maj_gouv": {
        "E85": "2026-05-22 07:55:32",
        "E10": "2026-06-02 11:03:11",
        "SP98": "2026-05-29 08:58:49"
      }
    },
    {
      "id": "10150001",
      "lat": 48.312,
      "lon": 4.097,
      "cp": "10150",
      "ville": "Pont-Sainte-Marie",
      "prix": {
        "Gazole": 0.002008,
        "E10": 0.001958,
        "SP98": 0.002038
      },
      "maj_gouv": {
        "Gazole": "2026-06-02 10:11:00",
        "E10": "2026-06-02 10:11:00",
        "SP98": "2026-06-02 10:11:00"
      }
    },
    {
      "id": "10000005",
      "lat": 48.283,
      "lon": 4.079,
      "cp": "10000",
      "ville": "Troyes",
      "prix": {
        "Gazole": 0.0020859999999999997,
        "E10": 0.0020369999999999997,
        "SP98": 0.002117
      },
      "maj_gouv": {
        "Gazole": "2026-06-01 07:41:00",
        "E10": "2026-06-01 07:41:00",
        "SP98": "2026-06-01 07:41:00"
      }
    },
    {
      "id": "10180001",
      "lat": 48.367,
      "lon": 3.997,
      "cp": "10180",
      "ville": "SAINT-LYE",
      "prix": {
        "Gazole": 0.001999,
        "E85": 0.000798,
        "E10": 0.0019690000000000003,
        "SP98": 0.0021190000000000002
      },
      "maj_gouv": {
        "Gazole": "2026-06-03 11:00:37",
        "E85": "2026-06-03 11:00:37",
        "E10": "2026-06-03 11:00:37",
        "SP98": "2026-06-03 11:00:37"
      }
    },
    {
      "id": "10700001",
      "lat": 48.536,
      "lon": 4.145,
      "cp": "10700",
      "ville": "ARCIS-SUR-AUBE",
      "prix": {
        "Gazole": 0.002094,
        "E10": 0.001987,
        "SP98": 0.00199
      },
      "maj_gouv": {
        "Gazole": "2026-06-05 06:47:43",
        "E10": "2026-06-05 06:47:43",
        "SP98": "2026-06-05 06:47:43"
      }
    },
    {
      "id": "10100003",
      "lat": 48.512,
      "lon": 3.72,
      "cp": "10100",
      "ville": "Romilly-sur-Seine",
      "prix": {
        "Gazole": 0.0019790000000000003,
        "E10": 0.001957,
        "SP98": 0.002062
      },
      "maj_gouv": {
        "Gazole": "2026-06-05 06:31:00",
        "E10": "2026-06-05 06:31:00",
        "SP98": "2026-06-05 06:31:00"
      }
    },
    {
      "id": "10260003",
      "lat": 48.181,
      "lon": 4.189,
      "cp": "10260",
      "ville": "VAUDES",
      "prix": {
        "Gazole": 0.002091,
        "SP95": 0.00211,
        "SP98": 0.002197
      },
      "maj_gouv": {
        "Gazole": "2026-05-27 06:31:45",
        "SP95": "2026-05-27 06:31:45",
        "SP98": "2026-05-27 06:31:45"
      }
    },
    {
      "id": "10250001",
      "lat": 47.983,
      "lon": 4.496,
      "cp": "10250",
      "ville": "Mussy-sur-Seine",
      "prix": {
        "Gazole": 0.002079,
        "SP95": 0.002099,
        "SP98": 0.002149
      },
      "maj_gouv": {
        "Gazole": "2026-06-03 00:00:00",
        "SP95": "2026-06-03 00:00:00",
        "SP98": "2026-06-03 00:00:00"
      }
    },
    {
      "id": "10100001",
      "lat": 48.51018,
      "lon": 3.71443,
      "cp": "10100",
      "ville": "Romilly-sur-Seine",
      "prix": {
        "Gazole": 0.002019,
        "SP95": 0.00207,
        "SP98": 0.00211
      },
      "maj_gouv": {
        "Gazole": "2026-06-02 08:00:09",
        "SP95": "2026-06-02 08:00:09",
        "SP98": "2026-06-02 08:00:10"
      }
    },
    {
      "id": "10000020",
      "lat": 48.3044,
      "lon": 4.0727,
      "cp": "10000",
      "ville": "TROYES",
      "prix": {
        "Gazole": 0.001992,
        "E85": 0.000819,
        "E10": 0.001897
      },
      "maj_gouv": {
        "Gazole": "2026-06-05 00:01:00",
        "E85": "2026-06-05 00:01:00",
        "E10": "2026-06-05 00:01:00"
      }
    },
    {
      "id": "10210002",
      "lat": 48.058,
      "lon": 4.141,
      "cp": "10210",
      "ville": "CHAOURCE",
      "prix": {
        "Gazole": 0.002099,
        "SP95": 0.002129,
        "SP98": 0.002169
      },
      "maj_gouv": {
        "Gazole": "2026-05-30 12:15:00",
        "SP95": "2026-05-30 12:15:00",
        "SP98": "2026-05-30 12:15:00"
      }
    },
    {
      "id": "10230002",
      "lat": 48.675,
      "lon": 4.191,
      "cp": "10230",
      "ville": "Mailly-le-Camp",
      "prix": {
        "Gazole": 0.00209,
        "SP95": 0.00199
      },
      "maj_gouv": {
        "Gazole": "2026-05-29 11:14:57",
        "SP95": "2026-05-29 11:14:57"
      }
    },
    {
      "id": "10150003",
      "lat": 48.4110575553,
      "lon": 4.14348044661,
      "cp": "10150",
      "ville": "Charmont-sous-Barbuise",
      "prix": {
        "Gazole": 0.002124,
        "E10": 0.002137
      },
      "maj_gouv": {
        "Gazole": "2026-06-02 09:30:00",
        "E10": "2026-06-02 09:30:00"
      }
    },
    {
      "id": "10600005",
      "lat": 48.304,
      "lon": 4.032,
      "cp": "10600",
      "ville": "La Chapelle-Saint-Luc",
      "prix": {
        "Gazole": 0.00207,
        "E10": 0.00199,
        "SP98": 0.00209
      },
      "maj_gouv": {
        "Gazole": "2026-06-01 21:49:00",
        "E10": "2026-06-01 21:49:00",
        "SP98": "2026-05-28 21:35:00"
      }
    },
    {
      "id": "10270006",
      "lat": 48.211,
      "lon": 4.241,
      "cp": "10270",
      "ville": "Fresnoy-le-Château",
      "prix": {
        "Gazole": 0.002206,
        "E85": 0.000998,
        "GPLc": 0.001078,
        "E10": 0.00199,
        "SP98": 0.00199
      },
      "maj_gouv": {
        "Gazole": "2026-06-05 00:01:00",
        "E85": "2026-06-05 00:01:00",
        "GPLc": "2026-06-05 00:01:00",
        "E10": "2026-06-05 00:01:00",
        "SP98": "2026-06-05 00:01:00"
      }
    },
    {
      "id": "10500005",
      "lat": 48.3965167,
      "lon": 4.528256,
      "cp": "10500",
      "ville": "Brienne-le-Château",
      "prix": {
        "Gazole": 0.002049,
        "SP95": 0.002019,
        "E10": 0.0019790000000000003
      },
      "maj_gouv": {
        "Gazole": "2026-06-04 08:39:42",
        "SP95": "2026-06-01 08:57:47",
        "E10": "2026-06-01 08:57:47"
      }
    },
    {
      "id": "10130001",
      "lat": 48.046,
      "lon": 3.924,
      "cp": "10130",
      "ville": "Ervy-le-Châtel",
      "prix": {
        "Gazole": 0.002079,
        "SP95": 0.002099,
        "SP98": 0.002149
      },
      "maj_gouv": {
        "Gazole": "2026-06-03 00:00:00",
        "SP95": "2026-06-03 00:00:00",
        "SP98": "2026-06-03 00:00:00"
      }
    },
    {
      "id": "10410003",
      "lat": 48.297951133716005,
      "lon": 4.1336364178578995,
      "cp": "10410",
      "ville": "SAINT PARRES AUX TERTRES",
      "prix": {
        "Gazole": 0.001999,
        "SP95": 0.0019890000000000003,
        "E85": 0.000809,
        "GPLc": 0.001037,
        "E10": 0.001949,
        "SP98": 0.002021
      },
      "maj_gouv": {
        "Gazole": "2026-06-04 07:49:50",
        "SP95": "2026-06-04 07:49:50",
        "E85": "2026-06-04 07:49:50",
        "GPLc": "2026-06-04 07:49:50",
        "E10": "2026-06-04 07:49:50",
        "SP98": "2026-06-04 07:49:50"
      }
    },
    {
      "id": "10260001",
      "lat": 48.15,
      "lon": 4.262,
      "cp": "10260",
      "ville": "FOUCHERES",
      "prix": {
        "Gazole": 0.00212,
        "E10": 0.00199,
        "SP98": 0.00199
      },
      "maj_gouv": {
        "Gazole": "2026-06-01 08:03:32",
        "E10": "2026-06-01 08:03:32",
        "SP98": "2026-06-01 08:03:32"
      }
    },
    {
      "id": "10270009",
      "lat": 48.261974565456,
      "lon": 4.2494407466826,
      "cp": "10270",
      "ville": "Lusigny-sur-Barse",
      "prix": {
        "Gazole": 0.001999,
        "E85": 0.000809,
        "E10": 0.001949,
        "SP98": 0.002021
      },
      "maj_gouv": {
        "Gazole": "2026-06-04 07:50:23",
        "E85": "2026-06-04 07:50:23",
        "E10": "2026-06-04 07:50:23",
        "SP98": "2026-06-04 07:50:24"
      }
    },
    {
      "id": "10430003",
      "lat": 48.266508041454,
      "lon": 4.0611727612853,
      "cp": "10430",
      "ville": "Rosières",
      "prix": {
        "Gazole": 0.001999,
        "SP95": 0.0019890000000000003,
        "E85": 0.000809,
        "E10": 0.001949,
        "SP98": 0.002021
      },
      "maj_gouv": {
        "Gazole": "2026-06-04 07:51:10",
        "SP95": "2026-06-04 07:51:10",
        "E85": "2026-06-04 07:51:10",
        "E10": "2026-06-04 07:51:10",
        "SP98": "2026-06-04 07:51:10"
      }
    },
    {
      "id": "10130004",
      "lat": 48.11,
      "lon": 3.921,
      "cp": "10130",
      "ville": "AUXON",
      "prix": {
        "Gazole": 0.0019270000000000001,
        "E85": 0.000798,
        "E10": 0.002079,
        "SP98": 0.002189
      },
      "maj_gouv": {
        "Gazole": "2026-06-02 09:17:00",
        "E85": "2026-06-02 09:17:01",
        "E10": "2026-06-02 09:33:10",
        "SP98": "2026-06-02 09:33:10"
      }
    },
    {
      "id": "10100002",
      "lat": 48.509,
      "lon": 3.732,
      "cp": "10100",
      "ville": "Romilly-sur-Seine",
      "prix": {
        "Gazole": 0.0020710000000000004,
        "E10": 0.00199,
        "SP98": 0.00199
      },
      "maj_gouv": {
        "Gazole": "2026-06-05 05:48:38",
        "E10": "2026-06-02 05:43:57",
        "SP98": "2026-03-10 05:44:11"
      }
    },
    {
      "id": "10800002",
      "lat": 48.281,
      "lon": 4.095,
      "cp": "10800",
      "ville": "SAINT-JULIEN-LES-VILLAS",
      "prix": {
        "Gazole": 0.001987,
        "E85": 0.000798,
        "E10": 0.0019039999999999999,
        "SP98": 0.002013
      },
      "maj_gouv": {
        "Gazole": "2026-06-03 11:07:15",
        "E85": "2026-06-03 11:07:15",
        "E10": "2026-06-03 11:07:15",
        "SP98": "2026-06-03 11:07:16"
      }
    },
    {
      "id": "10250002",
      "lat": 47.975,
      "lon": 4.494,
      "cp": "10250",
      "ville": "Mussy-sur-Seine",
      "prix": {
        "Gazole": 0.0022280000000000004,
        "SP95": 0.002178,
        "E85": 0.000879
      },
      "maj_gouv": {
        "Gazole": "2026-05-19 08:07:43",
        "SP95": "2026-05-19 08:07:43",
        "E85": "2026-05-19 08:07:43"
      }
    },
    {
      "id": "10120001",
      "lat": 48.241,
      "lon": 4.022,
      "cp": "10120",
      "ville": "Saint-Germain",
      "prix": {
        "Gazole": 0.0021000000000000003,
        "E10": 0.00199,
        "SP98": 0.00199
      },
      "maj_gouv": {
        "Gazole": "2026-06-04 20:37:12",
        "E10": "2026-06-03 20:10:25",
        "SP98": "2026-06-03 20:10:25"
      }
    },
    {
      "id": "10310001",
      "lat": 48.123855999999996,
      "lon": 4.7900279999999995,
      "cp": "10310",
      "ville": "VILLE SOUS LA FERTE",
      "prix": {
        "Gazole": 0.00225,
        "SP95": 0.00199
      },
      "maj_gouv": {
        "Gazole": "2026-06-04 17:25:38",
        "SP95": "2026-06-04 17:25:38"
      }
    },
    {
      "id": "10270010",
      "lat": 48.25347,
      "lon": 4.261199,
      "cp": "10270",
      "ville": "Lusigny-sur-Barse",
      "prix": {
        "Gazole": 0.00213,
        "SP95": 0.002125,
        "SP98": 0.002199
      },
      "maj_gouv": {
        "Gazole": "2026-05-21 15:55:27",
        "SP95": "2026-05-21 15:55:27",
        "SP98": "2026-05-21 15:55:27"
      }
    },
    {
      "id": "10700003",
      "lat": 48.535,
      "lon": 4.13,
      "cp": "10700",
      "ville": "Arcis-sur-Aube",
      "prix": {
        "Gazole": 0.00199,
        "E10": 0.0019190000000000001,
        "SP98": 0.002019
      },
      "maj_gouv": {
        "Gazole": "2026-06-03 13:55:08",
        "E10": "2026-06-03 13:55:08",
        "SP98": "2026-06-03 13:55:08"
      }
    },
    {
      "id": "10100004",
      "lat": 48.504930578477,
      "lon": 3.7633951732577,
      "cp": "10100",
      "ville": "Romilly-sur-Seine",
      "prix": {
        "Gazole": 0.001949,
        "E85": 0.0007880000000000001,
        "GPLc": 0.001103,
        "E10": 0.0019479999999999999,
        "SP98": 0.0019890000000000003
      },
      "maj_gouv": {
        "Gazole": "2026-06-05 01:15:00",
        "E85": "2026-06-05 01:15:00",
        "GPLc": "2026-06-05 01:15:00",
        "E10": "2026-06-05 01:15:00",
        "SP98": "2026-06-05 01:15:00"
      }
    },
    {
      "id": "10600012",
      "lat": 48.333094630000005,
      "lon": 4.023111421,
      "cp": "10600",
      "ville": "BARBEREY ST SULPICE",
      "prix": {
        "Gazole": 0.001999,
        "E85": 0.0008349999999999999,
        "GPLc": 0.000999,
        "E10": 0.0019690000000000003
      },
      "maj_gouv": {
        "Gazole": "2026-06-02 11:05:38",
        "E85": "2026-06-02 11:05:39",
        "GPLc": "2026-06-02 11:05:39",
        "E10": "2026-06-02 11:05:39"
      }
    },
    {
      "id": "10000018",
      "lat": 48.294,
      "lon": 4.083,
      "cp": "10000",
      "ville": "TROYES",
      "prix": {
        "Gazole": 0.002109,
        "E10": 0.00199,
        "SP98": 0.00199
      },
      "maj_gouv": {
        "Gazole": "2026-06-05 00:01:00",
        "E10": "2026-06-05 00:01:00",
        "SP98": "2026-06-05 00:01:00"
      }
    },
    {
      "id": "10200006",
      "lat": 48.226361576052994,
      "lon": 4.7128066819557,
      "cp": "10200",
      "ville": "Bar-sur-Aube",
      "prix": {
        "Gazole": 0.002169,
        "SP95": 0.002159,
        "SP98": 0.0023490000000000004
      },
      "maj_gouv": {
        "Gazole": "2026-06-04 09:00:36",
        "SP95": "2026-06-04 09:00:36",
        "SP98": "2026-05-22 08:34:28"
      }
    },
    {
      "id": "10600009",
      "lat": 48.336,
      "lon": 4.018,
      "cp": "10600",
      "ville": "BARBEREY",
      "prix": {
        "Gazole": 0.001993,
        "E85": 0.0008349999999999999,
        "E10": 0.001897
      },
      "maj_gouv": {
        "Gazole": "2026-06-05 00:01:00",
        "E85": "2026-06-05 00:01:00",
        "E10": "2026-06-05 00:01:00"
      }
    },
    {
      "id": "10120004",
      "lat": 48.261519408403004,
      "lon": 4.0342037717194,
      "cp": "10120",
      "ville": "SAINT GERMAIN",
      "prix": {
        "Gazole": 0.002029,
        "SP95": 0.002139,
        "E10": 0.001999,
        "SP98": 0.002069
      },
      "maj_gouv": {
        "Gazole": "2026-06-04 10:44:49",
        "SP95": "2026-06-04 10:44:49",
        "E10": "2026-06-01 08:28:43",
        "SP98": "2026-06-01 08:28:44"
      }
    },
    {
      "id": "10110002",
      "lat": 48.11577,
      "lon": 4.38129,
      "cp": "10110",
      "ville": "Bar-sur-Seine",
      "prix": {
        "Gazole": 0.001983,
        "E85": 0.000798,
        "E10": 0.001941,
        "SP98": 0.002054
      },
      "maj_gouv": {
        "Gazole": "2026-06-04 09:04:44",
        "E85": "2026-06-04 09:04:44",
        "E10": "2026-06-04 09:04:44",
        "SP98": "2026-06-04 09:04:44"
      }
    },
    {
      "id": "10160002",
      "lat": 48.233431710535996,
      "lon": 3.6263070263483,
      "cp": "10160",
      "ville": "VULAINES",
      "prix": {
        "Gazole": 0.0021000000000000003,
        "SP95": 0.00199
      },
      "maj_gouv": {
        "Gazole": "2026-06-02 07:47:31",
        "SP95": "2026-06-02 07:47:31"
      }
    },
    {
      "id": "10300005",
      "lat": 48.292,
      "lon": 4.037,
      "cp": "10300",
      "ville": "Sainte-Savine",
      "prix": {
        "Gazole": 0.002008,
        "E85": 0.000825,
        "GPLc": 0.000989,
        "E10": 0.001909,
        "SP98": 0.00199
      },
      "maj_gouv": {
        "Gazole": "2026-06-05 00:01:00",
        "E85": "2026-06-05 00:01:00",
        "GPLc": "2026-06-05 00:01:00",
        "E10": "2026-06-05 00:01:00",
        "SP98": "2026-06-05 00:01:00"
      }
    }
  ]
}