{
  "departement": "37",
  "date": "2026-06-05",
  "stations": [
    {
      "id": "37380004",
      "lat": 47.474,
      "lon": 0.777,
      "cp": "37380",
      "ville": "MONNAIE",
      "prix": {
        "Gazole": 0.00225,
        "E85": 0.000999,
        "GPLc": 0.001119,
        "E10": 0.00199,
        "SP98": 0.00199
      },
      "maj_gouv": {
        "Gazole": "2026-06-04 09:00:00",
        "E85": "2026-06-04 09:00:00",
        "GPLc": "2026-06-04 09:00:00",
        "E10": "2026-06-04 09:00:00",
        "SP98": "2026-06-04 09:00:00"
      }
    },
    {
      "id": "37270007",
      "lat": 47.356138,
      "lon": 0.818614,
      "cp": "37270",
      "ville": "Véretz",
      "prix": {},
      "maj_gouv": {}
    },
    {
      "id": "37500002",
      "lat": 47.154,
      "lon": 0.236,
      "cp": "37500",
      "ville": "CHINON",
      "prix": {
        "Gazole": 0.00225,
        "SP95": 0.00199
      },
      "maj_gouv": {
        "Gazole": "2026-04-09 07:57:53",
        "SP95": "2026-03-23 14:03:24"
      }
    },
    {
      "id": "37270005",
      "lat": 47.355,
      "lon": 0.817,
      "cp": "37270",
      "ville": "VERETZ",
      "prix": {
        "Gazole": 0.001977,
        "E85": 0.000798,
        "E10": 0.001899,
        "SP98": 0.001999
      },
      "maj_gouv": {
        "Gazole": "2026-06-04 08:04:33",
        "E85": "2026-05-16 08:31:57",
        "E10": "2026-06-02 09:00:00",
        "SP98": "2026-06-02 09:00:00"
      }
    },
    {
      "id": "37700010",
      "lat": 47.39668,
      "lon": 0.71715,
      "cp": "37700",
      "ville": "ST PIERRE DES CORPS",
      "prix": {
        "Gazole": 0.0020710000000000004,
        "E85": 0.0008309999999999999,
        "E10": 0.001967,
        "SP98": 0.00199
      },
      "maj_gouv": {
        "Gazole": "2026-06-05 00:01:00",
        "E85": "2026-06-05 00:01:00",
        "E10": "2026-06-05 00:01:00",
        "SP98": "2026-06-05 00:01:00"
      }
    },
    {
      "id": "37290002",
      "lat": 46.858936662702,
      "lon": 0.9392421249000401,
      "cp": "37290",
      "ville": "Preuilly-sur-Claise",
      "prix": {
        "Gazole": 0.00222,
        "SP95": 0.00199,
        "SP98": 0.00199
      },
      "maj_gouv": {
        "Gazole": "2026-06-01 13:58:10",
        "SP95": "2026-06-01 13:58:10",
        "SP98": "2026-06-01 13:58:10"
      }
    },
    {
      "id": "37510001",
      "lat": 47.344,
      "lon": 0.615,
      "cp": "37510",
      "ville": "Ballan-Miré",
      "prix": {
        "Gazole": 0.0019890000000000003,
        "E10": 0.0019190000000000001,
        "SP98": 0.002109
      },
      "maj_gouv": {
        "Gazole": "2026-06-03 12:01:10",
        "E10": "2026-06-03 12:01:10",
        "SP98": "2026-06-03 12:01:10"
      }
    },
    {
      "id": "37800006",
      "lat": 47.16719,
      "lon": 0.6305,
      "cp": "37800",
      "ville": "Saint-Épain",
      "prix": {
        "Gazole": 0.002186,
        "E85": 0.000998,
        "GPLc": 0.0010689999999999999,
        "E10": 0.00199,
        "SP98": 0.00199
      },
      "maj_gouv": {
        "Gazole": "2026-06-05 00:01:00",
        "E85": "2026-06-05 00:01:00",
        "GPLc": "2026-06-05 00:01:00",
        "E10": "2026-06-05 00:01:00",
        "SP98": "2026-06-05 00:01:00"
      }
    },
    {
      "id": "37390004",
      "lat": 47.442,
      "lon": 0.624,
      "cp": "37390",
      "ville": "La Membrolle-sur-Choisille",
      "prix": {
        "Gazole": 0.002023,
        "E10": 0.001935,
        "SP98": 0.00199
      },
      "maj_gouv": {
        "Gazole": "2026-06-05 00:01:00",
        "E10": "2026-06-05 00:01:00",
        "SP98": "2026-06-03 14:31:39"
      }
    },
    {
      "id": "37190003",
      "lat": 47.307,
      "lon": 0.536,
      "cp": "37190",
      "ville": "Druye",
      "prix": {
        "Gazole": 0.00235,
        "GPLc": 0.00106,
        "E10": 0.00222,
        "SP98": 0.00232
      },
      "maj_gouv": {
        "Gazole": "2026-06-04 22:00:00",
        "GPLc": "2026-03-23 22:00:00",
        "E10": "2026-05-18 22:00:00",
        "SP98": "2026-05-18 22:00:00"
      }
    },
    {
      "id": "37600007",
      "lat": 47.14,
      "lon": 1.0,
      "cp": "37600",
      "ville": "LOCHES",
      "prix": {
        "Gazole": 0.00209,
        "SP95": 0.00199
      },
      "maj_gouv": {
        "Gazole": "2026-05-29 23:59:00",
        "SP95": "2026-06-02 10:47:25"
      }
    },
    {
      "id": "37250005",
      "lat": 47.309,
      "lon": 0.714,
      "cp": "37250",
      "ville": "VEIGNE",
      "prix": {},
      "maj_gouv": {}
    },
    {
      "id": "37380001",
      "lat": 47.501,
      "lon": 0.789,
      "cp": "37380",
      "ville": "Monnaie",
      "prix": {
        "Gazole": 0.0021360000000000003,
        "SP95": 0.002091,
        "E85": 0.000819,
        "SP98": 0.002134
      },
      "maj_gouv": {
        "Gazole": "2026-05-11 19:42:35",
        "SP95": "2026-05-11 19:42:36",
        "E85": "2026-05-11 19:42:36",
        "SP98": "2026-05-11 19:42:36"
      }
    },
    {
      "id": "37320008",
      "lat": 47.229887204999,
      "lon": 0.7683321882306,
      "cp": "37320",
      "ville": "Saint-Branchs",
      "prix": {
        "Gazole": 0.001998,
        "E10": 0.002034,
        "SP98": 0.002179
      },
      "maj_gouv": {
        "Gazole": "2026-06-01 16:57:16",
        "E10": "2026-05-15 18:03:53",
        "SP98": "2026-05-15 18:03:53"
      }
    },
    {
      "id": "37250006",
      "lat": 47.246553839515,
      "lon": 0.69664144470514,
      "cp": "37250",
      "ville": "Sorigny",
      "prix": {
        "Gazole": 0.001999,
        "E10": 0.0019890000000000003,
        "SP98": 0.002149
      },
      "maj_gouv": {
        "Gazole": "2026-06-02 09:27:08",
        "E10": "2026-06-02 09:27:08",
        "SP98": "2026-05-30 09:05:23"
      }
    },
    {
      "id": "37100001",
      "lat": 47.426,
      "lon": 0.7,
      "cp": "37100",
      "ville": "TOURS",
      "prix": {
        "Gazole": 0.001965,
        "E85": 0.000789,
        "GPLc": 0.000999,
        "E10": 0.001917,
        "SP98": 0.002059
      },
      "maj_gouv": {
        "Gazole": "2026-06-02 09:30:00",
        "E85": "2026-06-03 18:17:54",
        "GPLc": "2026-02-02 09:05:13",
        "E10": "2026-06-04 08:50:20",
        "SP98": "2026-06-02 09:30:00"
      }
    },
    {
      "id": "37390003",
      "lat": 47.47,
      "lon": 0.702,
      "cp": "37390",
      "ville": "CHANCEAUX SUR CHOISILLE",
      "prix": {
        "Gazole": 0.0020150000000000003,
        "SP95": 0.002055,
        "E10": 0.0020150000000000003,
        "SP98": 0.002085
      },
      "maj_gouv": {
        "Gazole": "2026-05-29 09:50:31",
        "SP95": "2026-05-29 09:50:21",
        "E10": "2026-05-29 09:50:22",
        "SP98": "2026-05-29 09:50:22"
      }
    },
    {
      "id": "37100012",
      "lat": 47.425,
      "lon": 0.682,
      "cp": "37100",
      "ville": "tours",
      "prix": {
        "Gazole": 0.002049,
        "SP95": 0.002129,
        "SP98": 0.002139
      },
      "maj_gouv": {
        "Gazole": "2026-05-22 07:41:14",
        "SP95": "2026-05-22 07:41:34",
        "SP98": "2026-05-22 07:46:43"
      }
    },
    {
      "id": "37420003",
      "lat": 47.206,
      "lon": 0.185,
      "cp": "37420",
      "ville": "AVOINE",
      "prix": {
        "Gazole": 0.002115,
        "SP95": 0.002089,
        "SP98": 0.0021379999999999997
      },
      "maj_gouv": {
        "Gazole": "2026-05-28 16:02:09",
        "SP95": "2026-05-28 16:02:10",
        "SP98": "2026-05-28 16:02:10"
      }
    },
    {
      "id": "37320001",
      "lat": 47.291,
      "lon": 0.79,
      "cp": "37320",
      "ville": "Esvres",
      "prix": {
        "Gazole": 0.001952,
        "E10": 0.001905,
        "SP98": 0.002033
      },
      "maj_gouv": {
        "Gazole": "2026-06-03 09:05:47",
        "E10": "2026-06-04 08:53:19",
        "SP98": "2026-06-02 09:17:55"
      }
    },
    {
      "id": "37290001",
      "lat": 46.783982903738,
      "lon": 0.8802443228125499,
      "cp": "37290",
      "ville": "Yzeures-sur-Creuse",
      "prix": {
        "Gazole": 0.002019,
        "E85": 0.0008179999999999999,
        "E10": 0.002009,
        "SP98": 0.002129
      },
      "maj_gouv": {
        "Gazole": "2026-06-01 08:47:29",
        "E85": "2026-04-17 09:00:00",
        "E10": "2026-06-01 08:47:30",
        "SP98": "2026-06-01 08:47:30"
      }
    },
    {
      "id": "37500001",
      "lat": 47.15,
      "lon": 0.237,
      "cp": "37500",
      "ville": "Chinon",
      "prix": {
        "Gazole": 0.001999,
        "SP95": 0.002029,
        "E10": 0.0019890000000000003,
        "SP98": 0.002049
      },
      "maj_gouv": {
        "Gazole": "2026-06-04 09:52:27",
        "SP95": "2026-06-04 09:52:27",
        "E10": "2026-06-04 09:52:27",
        "SP98": "2026-06-04 09:52:27"
      }
    },
    {
      "id": "37150004",
      "lat": 47.333,
      "lon": 1.061,
      "cp": "37150",
      "ville": "CIVRAY DE TOURAINE",
      "prix": {
        "Gazole": 0.0020710000000000004,
        "E10": 0.0019690000000000003,
        "SP98": 0.00199
      },
      "maj_gouv": {
        "Gazole": "2026-06-05 07:00:00",
        "E10": "2026-06-05 07:00:00",
        "SP98": "2026-06-04 22:02:00"
      }
    },
    {
      "id": "37003001",
      "lat": 47.425,
      "lon": 0.674,
      "cp": "37100",
      "ville": "TOURS",
      "prix": {
        "Gazole": 0.001961,
        "SP95": 0.0019850000000000002,
        "E85": 0.000789,
        "E10": 0.001915,
        "SP98": 0.002039
      },
      "maj_gouv": {
        "Gazole": "2026-06-05 07:00:00",
        "SP95": "2026-06-05 07:00:00",
        "E85": "2026-05-20 07:00:00",
        "E10": "2026-06-05 07:00:00",
        "SP98": "2026-06-05 07:00:00"
      }
    },
    {
      "id": "37600001",
      "lat": 47.13,
      "lon": 0.984,
      "cp": "37600",
      "ville": "LOCHES",
      "prix": {
        "Gazole": 0.0019590000000000002,
        "SP95": 0.0019690000000000003,
        "E85": 0.000789,
        "GPLc": 0.000999,
        "E10": 0.001929,
        "SP98": 0.002019
      },
      "maj_gouv": {
        "Gazole": "2026-06-04 09:20:26",
        "SP95": "2026-06-03 08:48:37",
        "E85": "2026-05-26 08:48:44",
        "GPLc": "2026-05-29 08:58:51",
        "E10": "2026-06-01 09:07:50",
        "SP98": "2026-06-03 08:48:37"
      }
    },
    {
      "id": "37230003",
      "lat": 47.4033668855,
      "lon": 0.605448665855,
      "cp": "37230",
      "ville": "FONDETTES",
      "prix": {
        "Gazole": 0.001965,
        "E10": 0.001899,
        "SP98": 0.002059
      },
      "maj_gouv": {
        "Gazole": "2026-06-04 08:45:00",
        "E10": "2026-06-03 08:45:00",
        "SP98": "2026-06-03 08:45:00"
      }
    },
    {
      "id": "37400006",
      "lat": 47.393,
      "lon": 0.982,
      "cp": "37400",
      "ville": "Amboise",
      "prix": {
        "Gazole": 0.002115,
        "E10": 0.00199
      },
      "maj_gouv": {
        "Gazole": "2026-06-04 08:05:58",
        "E10": "2026-06-04 08:05:58"
      }
    },
    {
      "id": "37120001",
      "lat": 47.02058,
      "lon": 0.33397,
      "cp": "37120",
      "ville": "Chaveignes",
      "prix": {
        "Gazole": 0.0019590000000000002,
        "SP95": 0.00197,
        "GPLc": 0.000999,
        "SP98": 0.002099
      },
      "maj_gouv": {
        "Gazole": "2026-06-01 08:58:48",
        "SP95": "2026-06-01 08:58:49",
        "GPLc": "2026-05-05 09:03:12",
        "SP98": "2026-06-02 08:47:41"
      }
    },
    {
      "id": "37360001",
      "lat": 47.54666,
      "lon": 0.55172,
      "cp": "37360",
      "ville": "Neuillé-Pont-Pierre",
      "prix": {
        "Gazole": 0.0019890000000000003,
        "SP95": 0.0019890000000000003,
        "E85": 0.000789,
        "SP98": 0.002049
      },
      "maj_gouv": {
        "Gazole": "2026-06-03 10:04:10",
        "SP95": "2026-06-03 10:04:10",
        "E85": "2026-05-20 12:19:12",
        "SP98": "2026-06-03 10:04:10"
      }
    },
    {
      "id": "37400004",
      "lat": 47.409,
      "lon": 0.971,
      "cp": "37400",
      "ville": "Amboise",
      "prix": {
        "Gazole": 0.001982,
        "E10": 0.001909
      },
      "maj_gouv": {
        "Gazole": "2026-06-04 12:36:32",
        "E10": "2026-06-04 12:36:32"
      }
    },
    {
      "id": "37200004",
      "lat": 47.365,
      "lon": 0.711,
      "cp": "37200",
      "ville": "TOURS",
      "prix": {
        "Gazole": 0.0019790000000000003,
        "E85": 0.000816,
        "E10": 0.001879,
        "SP98": 0.00199
      },
      "maj_gouv": {
        "Gazole": "2026-06-05 00:01:00",
        "E85": "2026-06-05 00:01:00",
        "E10": "2026-06-05 00:01:00",
        "SP98": "2026-06-05 00:01:00"
      }
    },
    {
      "id": "37460001",
      "lat": 47.135,
      "lon": 1.298,
      "cp": "37460",
      "ville": "Nouans-les-Fontaines",
      "prix": {
        "SP95": 0.00199
      },
      "maj_gouv": {
        "SP95": "2026-04-09 14:29:01"
      }
    },
    {
      "id": "37230004",
      "lat": 47.392,
      "lon": 0.539,
      "cp": "37230",
      "ville": "Luynes",
      "prix": {
        "Gazole": 0.0019590000000000002,
        "E10": 0.001935,
        "SP98": 0.002045
      },
      "maj_gouv": {
        "Gazole": "2026-06-03 07:07:21",
        "E10": "2026-06-03 07:07:22",
        "SP98": "2026-06-03 07:07:22"
      }
    },
    {
      "id": "37000011",
      "lat": 47.375,
      "lon": 0.709,
      "cp": "37000",
      "ville": "TOURS",
      "prix": {
        "E10": 0.001949,
        "SP98": 0.002099
      },
      "maj_gouv": {
        "E10": "2026-06-03 11:00:29",
        "SP98": "2026-06-03 11:00:29"
      }
    },
    {
      "id": "37100010",
      "lat": 47.40385,
      "lon": 0.72656,
      "cp": "37100",
      "ville": "TOURS",
      "prix": {
        "Gazole": 0.002076,
        "E10": 0.001973,
        "SP98": 0.00199
      },
      "maj_gouv": {
        "Gazole": "2026-06-05 00:01:00",
        "E10": "2026-06-05 00:01:00",
        "SP98": "2026-06-05 00:01:00"
      }
    },
    {
      "id": "37270006",
      "lat": 47.302184249999996,
      "lon": 0.8906768700000001,
      "cp": "37270",
      "ville": "Athée-sur-Cher",
      "prix": {
        "Gazole": 0.0023290000000000003,
        "GPLc": 0.001149,
        "E10": 0.0022589999999999997,
        "SP98": 0.0023290000000000003
      },
      "maj_gouv": {
        "Gazole": "2026-06-04 23:00:00",
        "GPLc": "2026-06-04 23:00:00",
        "E10": "2026-06-04 23:00:00",
        "SP98": "2026-06-04 23:00:00"
      }
    },
    {
      "id": "37500003",
      "lat": 47.174,
      "lon": 0.251,
      "cp": "37500",
      "ville": "Chinon",
      "prix": {
        "Gazole": 0.001925,
        "E85": 0.000741,
        "GPLc": 0.001099,
        "E10": 0.001909,
        "SP98": 0.002008
      },
      "maj_gouv": {
        "Gazole": "2026-06-05 01:16:00",
        "E85": "2026-06-05 01:16:00",
        "GPLc": "2026-06-05 01:16:00",
        "E10": "2026-06-05 01:16:00",
        "SP98": "2026-06-05 01:16:00"
      }
    },
    {
      "id": "37160003",
      "lat": 46.981,
      "lon": 0.69,
      "cp": "37160",
      "ville": "Descartes",
      "prix": {
        "Gazole": 0.001911,
        "E85": 0.000798,
        "E10": 0.001925,
        "SP98": 0.002025
      },
      "maj_gouv": {
        "Gazole": "2026-06-03 09:00:00",
        "E85": "2026-06-03 09:00:00",
        "E10": "2026-06-03 09:00:00",
        "SP98": "2026-06-03 09:00:00"
      }
    },
    {
      "id": "37340002",
      "lat": 47.451,
      "lon": 0.455,
      "cp": "37340",
      "ville": "Ambillou",
      "prix": {
        "Gazole": 0.0019790000000000003,
        "SP95": 0.0019890000000000003,
        "SP98": 0.002079
      },
      "maj_gouv": {
        "Gazole": "2026-06-03 16:29:18",
        "SP95": "2026-06-03 16:29:18",
        "SP98": "2026-06-03 16:29:19"
      }
    },
    {
      "id": "37110002",
      "lat": 47.598,
      "lon": 0.914,
      "cp": "37110",
      "ville": "CHâTEAU-RENAULT",
      "prix": {
        "Gazole": 0.001909,
        "SP95": 0.002091,
        "SP98": 0.002099
      },
      "maj_gouv": {
        "Gazole": "2026-06-02 17:00:52",
        "SP95": "2026-06-02 17:00:52",
        "SP98": "2026-06-02 17:00:52"
      }
    },
    {
      "id": "37260001",
      "lat": 47.27673,
      "lon": 0.64244,
      "cp": "37260",
      "ville": "Monts",
      "prix": {
        "Gazole": 0.0019790000000000003,
        "SP95": 0.002029,
        "E10": 0.001949,
        "SP98": 0.002049
      },
      "maj_gouv": {
        "Gazole": "2026-06-01 11:02:06",
        "SP95": "2026-06-01 11:02:07",
        "E10": "2026-06-01 11:02:07",
        "SP98": "2026-06-01 11:02:07"
      }
    },
    {
      "id": "37110003",
      "lat": 47.591,
      "lon": 0.899,
      "cp": "37110",
      "ville": "Château-Renault",
      "prix": {
        "Gazole": 0.001909,
        "E85": 0.000798,
        "E10": 0.001999,
        "SP98": 0.002099
      },
      "maj_gouv": {
        "Gazole": "2026-06-02 08:31:03",
        "E85": "2026-05-15 07:51:07",
        "E10": "2026-06-02 08:31:03",
        "SP98": "2026-06-02 08:31:03"
      }
    },
    {
      "id": "37380003",
      "lat": 47.476,
      "lon": 0.779,
      "cp": "37380",
      "ville": "Monnaie",
      "prix": {
        "Gazole": 0.0023490000000000004,
        "GPLc": 0.001339,
        "E10": 0.002209,
        "SP98": 0.0023889999999999996
      },
      "maj_gouv": {
        "Gazole": "2026-06-04 11:07:05",
        "GPLc": "2026-06-04 11:07:05",
        "E10": "2026-06-04 11:07:05",
        "SP98": "2026-06-04 11:07:05"
      }
    },
    {
      "id": "37270002",
      "lat": 47.346,
      "lon": 0.84,
      "cp": "37270",
      "ville": "Azay-sur-Cher",
      "prix": {
        "Gazole": 0.00225
      },
      "maj_gouv": {
        "Gazole": "2026-05-18 06:57:22"
      }
    },
    {
      "id": "37260005",
      "lat": 47.270578774835,
      "lon": 0.59254978394482,
      "cp": "37260",
      "ville": "ARTANNES SUR INDRE",
      "prix": {
        "Gazole": 0.002399,
        "SP95": 0.002099,
        "SP98": 0.002162
      },
      "maj_gouv": {
        "Gazole": "2026-03-24 11:14:36",
        "SP95": "2026-03-24 11:14:36",
        "SP98": "2026-03-24 11:14:37"
      }
    },
    {
      "id": "37000014",
      "lat": 47.381,
      "lon": 0.668,
      "cp": "37000",
      "ville": "TOURS",
      "prix": {
        "Gazole": 0.002083,
        "E85": 0.000829,
        "E10": 0.001984,
        "SP98": 0.00199
      },
      "maj_gouv": {
        "Gazole": "2026-06-05 00:01:00",
        "E85": "2026-06-05 00:01:00",
        "E10": "2026-06-05 00:01:00",
        "SP98": "2026-06-05 00:01:00"
      }
    },
    {
      "id": "37800004",
      "lat": 47.109,
      "lon": 0.584,
      "cp": "37800",
      "ville": "Noyant-de-Touraine",
      "prix": {
        "Gazole": 0.002104,
        "E10": 0.001987,
        "SP98": 0.00199
      },
      "maj_gouv": {
        "Gazole": "2026-06-04 07:19:35",
        "E10": "2026-06-04 07:19:35",
        "SP98": "2026-06-04 07:19:35"
      }
    },
    {
      "id": "37100011",
      "lat": 47.426444732494,
      "lon": 0.71075649892812,
      "cp": "37100",
      "ville": "TOURS",
      "prix": {
        "Gazole": 0.001976,
        "E85": 0.000819,
        "E10": 0.001869,
        "SP98": 0.001986
      },
      "maj_gouv": {
        "Gazole": "2026-06-05 00:01:00",
        "E85": "2026-06-05 00:01:00",
        "E10": "2026-06-05 00:01:00",
        "SP98": "2026-06-05 00:01:00"
      }
    },
    {
      "id": "37190002",
      "lat": 47.264154177900004,
      "lon": 0.47375205481099997,
      "cp": "37190",
      "ville": "AZAY-LE-RIDEAU",
      "prix": {
        "Gazole": 0.002003,
        "SP95": 0.00199,
        "SP98": 0.00206
      },
      "maj_gouv": {
        "Gazole": "2026-06-02 13:33:26",
        "SP95": "2026-06-02 13:33:26",
        "SP98": "2026-06-02 13:33:26"
      }
    },
    {
      "id": "37110004",
      "lat": 47.5836102961,
      "lon": 0.897356013533,
      "cp": "37110",
      "ville": "VILLEDOMER",
      "prix": {
        "Gazole": 0.00199,
        "E10": 0.001916,
        "SP98": 0.00199
      },
      "maj_gouv": {
        "Gazole": "2026-06-05 00:01:00",
        "E10": "2026-06-05 00:01:00",
        "SP98": "2026-06-05 00:01:00"
      }
    },
    {
      "id": "37000015",
      "lat": 47.391,
      "lon": 0.697,
      "cp": "37000",
      "ville": "TOURS",
      "prix": {
        "Gazole": 0.002081,
        "E10": 0.00198,
        "SP98": 0.00199
      },
      "maj_gouv": {
        "Gazole": "2026-06-05 06:00:00",
        "E10": "2026-06-05 06:00:00",
        "SP98": "2026-06-05 06:00:00"
      }
    },
    {
      "id": "37172001",
      "lat": 47.337,
      "lon": 0.698,
      "cp": "37170",
      "ville": "CHAMBRAY-LèS-TOURS",
      "prix": {
        "Gazole": 0.0019590000000000002,
        "GPLc": 0.0009809999999999999,
        "E10": 0.001917,
        "SP98": 0.001999
      },
      "maj_gouv": {
        "Gazole": "2026-06-04 11:16:13",
        "GPLc": "2026-06-03 16:27:47",
        "E10": "2026-06-04 11:16:13",
        "SP98": "2026-06-04 11:16:13"
      }
    },
    {
      "id": "37300009",
      "lat": 47.321847755774,
      "lon": 0.6631695557563201,
      "cp": "37300",
      "ville": "Joué-lès-Tours",
      "prix": {
        "Gazole": 0.0019479999999999999,
        "SP95": 0.0019890000000000003,
        "GPLc": 0.0009809999999999999,
        "E10": 0.001899,
        "SP98": 0.001999
      },
      "maj_gouv": {
        "Gazole": "2026-06-04 09:42:28",
        "SP95": "2026-06-02 09:25:30",
        "GPLc": "2026-04-10 09:59:04",
        "E10": "2026-06-04 09:42:28",
        "SP98": "2026-06-04 09:42:28"
      }
    },
    {
      "id": "37540001",
      "lat": 47.4258570023,
      "lon": 0.6561790748409999,
      "cp": "37540",
      "ville": "SAINT-CYR-SUR-LOIRE",
      "prix": {
        "Gazole": 0.001965,
        "E85": 0.000789,
        "GPLc": 0.000999,
        "E10": 0.001899,
        "SP98": 0.002059
      },
      "maj_gouv": {
        "Gazole": "2026-05-30 07:45:00",
        "E85": "2026-05-20 08:05:28",
        "GPLc": "2026-04-22 08:59:02",
        "E10": "2026-06-02 07:47:00",
        "SP98": "2026-06-02 07:47:00"
      }
    },
    {
      "id": "37530002",
      "lat": 47.423,
      "lon": 0.976,
      "cp": "37530",
      "ville": "Pocé-sur-Cisse",
      "prix": {
        "Gazole": 0.001971,
        "E85": 0.000798,
        "E10": 0.001949,
        "SP98": 0.002045
      },
      "maj_gouv": {
        "Gazole": "2026-06-03 15:08:09",
        "E85": "2026-06-03 15:08:09",
        "E10": "2026-06-03 15:08:09",
        "SP98": "2026-06-03 15:08:10"
      }
    },
    {
      "id": "37130001",
      "lat": 47.328,
      "lon": 0.406,
      "cp": "37130",
      "ville": "LANGEAIS",
      "prix": {
        "Gazole": 0.001993,
        "SP95": 0.001982,
        "SP98": 0.0020369999999999997
      },
      "maj_gouv": {
        "Gazole": "2026-05-30 08:31:08",
        "SP95": "2026-05-30 08:31:09",
        "SP98": "2026-05-30 08:31:09"
      }
    },
    {
      "id": "37520002",
      "lat": 47.386,
      "lon": 0.658,
      "cp": "37520",
      "ville": "LA RICHE",
      "prix": {
        "Gazole": 0.001999,
        "SP95": 0.0021190000000000002,
        "SP98": 0.002159
      },
      "maj_gouv": {
        "Gazole": "2026-05-29 07:20:43",
        "SP95": "2026-05-29 07:20:43",
        "SP98": "2026-05-29 07:20:43"
      }
    },
    {
      "id": "37100002",
      "lat": 47.412,
      "lon": 0.702,
      "cp": "37100",
      "ville": "TOURS",
      "prix": {
        "Gazole": 0.0020150000000000003,
        "E10": 0.0019,
        "SP98": 0.0020169999999999997
      },
      "maj_gouv": {
        "Gazole": "2026-06-04 11:49:39",
        "E10": "2026-06-04 11:49:39",
        "SP98": "2026-06-04 11:49:39"
      }
    },
    {
      "id": "37306001",
      "lat": 47.356571449226,
      "lon": 0.69812877979161,
      "cp": "37300",
      "ville": "Joué-lès-Tours",
      "prix": {
        "Gazole": 0.0019890000000000003,
        "SP95": 0.0019890000000000003,
        "SP98": 0.002059
      },
      "maj_gouv": {
        "Gazole": "2026-06-02 11:41:03",
        "SP95": "2026-06-02 11:41:03",
        "SP98": "2026-06-04 09:58:41"
      }
    },
    {
      "id": "37550001",
      "lat": 47.353,
      "lon": 0.733,
      "cp": "37550",
      "ville": "SAINT-AVERTIN",
      "prix": {
        "Gazole": 0.0020139999999999997,
        "E10": 0.001906,
        "SP98": 0.0020169999999999997
      },
      "maj_gouv": {
        "Gazole": "2026-06-04 08:55:10",
        "E10": "2026-06-04 08:55:10",
        "SP98": "2026-06-03 12:01:12"
      }
    },
    {
      "id": "37320010",
      "lat": 47.257,
      "lon": 0.842,
      "cp": "37320",
      "ville": "CORMERY",
      "prix": {
        "Gazole": 0.002049,
        "E10": 0.002049,
        "SP98": 0.002099
      },
      "maj_gouv": {
        "Gazole": "2026-06-02 14:29:00",
        "E10": "2026-06-02 14:29:00",
        "SP98": "2026-06-02 14:29:00"
      }
    },
    {
      "id": "37140001",
      "lat": 47.274,
      "lon": 0.167,
      "cp": "37140",
      "ville": "bourgueil",
      "prix": {
        "Gazole": 0.001935,
        "SP95": 0.002129,
        "E85": 0.000741,
        "GPLc": 0.001099,
        "E10": 0.001909,
        "SP98": 0.002075
      },
      "maj_gouv": {
        "Gazole": "2026-06-03 10:08:20",
        "SP95": "2026-05-23 10:54:20",
        "E85": "2026-05-21 10:36:16",
        "GPLc": "2026-05-07 09:50:09",
        "E10": "2026-06-03 10:08:20",
        "SP98": "2026-06-03 10:08:21"
      }
    },
    {
      "id": "37300004",
      "lat": 47.338,
      "lon": 0.657,
      "cp": "37300",
      "ville": "Joué-lès-Tours",
      "prix": {
        "Gazole": 0.0019190000000000001,
        "E85": 0.000798,
        "E10": 0.001909,
        "SP98": 0.001999
      },
      "maj_gouv": {
        "Gazole": "2026-06-04 19:30:00",
        "E85": "2026-05-23 08:28:54",
        "E10": "2026-06-04 19:30:00",
        "SP98": "2026-06-04 19:30:00"
      }
    },
    {
      "id": "37700004",
      "lat": 47.396,
      "lon": 0.788,
      "cp": "37700",
      "ville": "La Ville-aux-Dames",
      "prix": {
        "Gazole": 0.0019479999999999999,
        "E85": 0.000778,
        "GPLc": 0.001004,
        "E10": 0.001918,
        "SP98": 0.0020169999999999997
      },
      "maj_gouv": {
        "Gazole": "2026-06-05 01:16:00",
        "E85": "2026-06-05 01:16:00",
        "GPLc": "2026-06-05 01:16:00",
        "E10": "2026-06-05 01:16:00",
        "SP98": "2026-06-05 01:16:00"
      }
    },
    {
      "id": "37340001",
      "lat": 47.44,
      "lon": 0.332,
      "cp": "37340",
      "ville": "SAVIGNé-SUR-LATHAN",
      "prix": {
        "Gazole": 0.0019950000000000002,
        "E10": 0.001935,
        "SP98": 0.002069
      },
      "maj_gouv": {
        "Gazole": "2026-06-02 09:11:57",
        "E10": "2026-06-04 10:01:59",
        "SP98": "2026-06-04 10:02:00"
      }
    },
    {
      "id": "37300007",
      "lat": 47.358,
      "lon": 0.646,
      "cp": "37300",
      "ville": "Joué-lès-Tours",
      "prix": {
        "Gazole": 0.0019890000000000003,
        "SP95": 0.001999,
        "SP98": 0.002109
      },
      "maj_gouv": {
        "Gazole": "2026-06-01 08:39:41",
        "SP95": "2026-06-03 07:48:09",
        "SP98": "2026-06-03 07:48:09"
      }
    },
    {
      "id": "37240001",
      "lat": 47.041046596600005,
      "lon": 0.8177814413319999,
      "cp": "37240",
      "ville": "LIGUEIL",
      "prix": {
        "Gazole": 0.002002,
        "E10": 0.0019790000000000003,
        "SP98": 0.0020510000000000003
      },
      "maj_gouv": {
        "Gazole": "2026-06-04 09:29:19",
        "E10": "2026-06-04 09:29:20",
        "SP98": "2026-06-04 09:29:20"
      }
    },
    {
      "id": "37170006",
      "lat": 47.317,
      "lon": 0.711,
      "cp": "37170",
      "ville": "CHAMBRAY-LÈS-TOURS",
      "prix": {
        "Gazole": 0.001975,
        "E85": 0.000819,
        "E10": 0.001879,
        "SP98": 0.00199
      },
      "maj_gouv": {
        "Gazole": "2026-06-05 00:01:00",
        "E85": "2026-06-05 00:01:00",
        "E10": "2026-06-05 00:01:00",
        "SP98": "2026-06-05 00:01:00"
      }
    },
    {
      "id": "37220001",
      "lat": 47.122,
      "lon": 0.431,
      "cp": "37220",
      "ville": "L'Île-Bouchard",
      "prix": {
        "Gazole": 0.0019590000000000002,
        "E85": 0.000761,
        "SP98": 0.002008
      },
      "maj_gouv": {
        "Gazole": "2026-06-04 08:45:00",
        "E85": "2026-05-28 08:45:00",
        "SP98": "2026-06-03 08:49:49"
      }
    },
    {
      "id": "37210002",
      "lat": 47.414,
      "lon": 0.85,
      "cp": "37210",
      "ville": "Vernou-sur-Brenne",
      "prix": {
        "Gazole": 0.001983,
        "SP95": 0.002022,
        "SP98": 0.002056
      },
      "maj_gouv": {
        "Gazole": "2026-06-01 08:09:47",
        "SP95": "2026-06-01 08:09:47",
        "SP98": "2026-06-01 08:09:47"
      }
    },
    {
      "id": "37270001",
      "lat": 47.384,
      "lon": 0.843,
      "cp": "37270",
      "ville": "MONTLOUIS-SUR-LOIRE",
      "prix": {
        "Gazole": 0.001976,
        "E85": 0.0007790000000000001,
        "E10": 0.0019190000000000001,
        "SP98": 0.002019
      },
      "maj_gouv": {
        "Gazole": "2026-06-04 08:44:17",
        "E85": "2026-06-02 10:53:52",
        "E10": "2026-06-02 10:53:52",
        "SP98": "2026-06-02 10:53:52"
      }
    },
    {
      "id": "37150002",
      "lat": 47.328,
      "lon": 0.987,
      "cp": "37150",
      "ville": "Bléré",
      "prix": {
        "Gazole": 0.001965,
        "E10": 0.001905,
        "SP98": 0.001999
      },
      "maj_gouv": {
        "Gazole": "2026-06-04 10:01:07",
        "E10": "2026-06-03 10:32:23",
        "SP98": "2026-06-03 10:32:23"
      }
    },
    {
      "id": "37400002",
      "lat": 47.404,
      "lon": 1.018,
      "cp": "37400",
      "ville": "Amboise",
      "prix": {
        "Gazole": 0.001965,
        "SP95": 0.0019590000000000002,
        "E85": 0.000799,
        "E10": 0.001929,
        "SP98": 0.002005
      },
      "maj_gouv": {
        "Gazole": "2026-06-04 10:16:54",
        "SP95": "2026-06-04 10:16:54",
        "E85": "2026-06-04 10:16:54",
        "E10": "2026-06-04 10:16:54",
        "SP98": "2026-06-04 10:16:54"
      }
    },
    {
      "id": "37000016",
      "lat": 47.39377902,
      "lon": 0.66974657,
      "cp": "37000",
      "ville": "Tours",
      "prix": {
        "Gazole": 0.00206,
        "SP95": 0.002056,
        "SP98": 0.0020499999999999997
      },
      "maj_gouv": {
        "Gazole": "2026-05-27 11:30:04",
        "SP95": "2026-05-27 11:30:05",
        "SP98": "2026-06-02 09:46:05"
      }
    },
    {
      "id": "37300008",
      "lat": 47.349,
      "lon": 0.661,
      "cp": "37300",
      "ville": "Joué-lès-Tours",
      "prix": {
        "Gazole": 0.001973,
        "E10": 0.001877,
        "SP98": 0.00199
      },
      "maj_gouv": {
        "Gazole": "2026-06-05 06:58:03",
        "E10": "2026-06-05 06:58:03",
        "SP98": "2026-06-05 06:58:03"
      }
    },
    {
      "id": "37000007",
      "lat": 47.38,
      "lon": 0.669,
      "cp": "37000",
      "ville": "Tours",
      "prix": {
        "Gazole": 0.002057,
        "SP95": 0.0019890000000000003,
        "E10": 0.0019890000000000003,
        "SP98": 0.002079
      },
      "maj_gouv": {
        "Gazole": "2026-06-03 14:04:44",
        "SP95": "2026-06-03 14:04:44",
        "E10": "2026-06-03 14:04:44",
        "SP98": "2026-06-03 14:04:44"
      }
    },
    {
      "id": "37390002",
      "lat": 47.439,
      "lon": 0.699,
      "cp": "37390",
      "ville": "NOTRE-DAME-D'Oé",
      "prix": {
        "Gazole": 0.00196,
        "SP95": 0.002019,
        "E85": 0.000798,
        "SP98": 0.002059
      },
      "maj_gouv": {
        "Gazole": "2026-06-04 08:37:56",
        "SP95": "2026-06-02 09:37:44",
        "E85": "2026-05-19 08:26:58",
        "SP98": "2026-06-02 09:37:44"
      }
    },
    {
      "id": "37250002",
      "lat": 47.293,
      "lon": 0.719,
      "cp": "37250",
      "ville": "VEIGNé",
      "prix": {
        "Gazole": 0.0019470000000000002,
        "SP98": 0.002033
      },
      "maj_gouv": {
        "Gazole": "2026-06-03 16:02:52",
        "SP98": "2026-06-03 16:02:52"
      }
    },
    {
      "id": "37150003",
      "lat": 47.325,
      "lon": 1.004,
      "cp": "37150",
      "ville": "BLéRé",
      "prix": {
        "Gazole": 0.001965,
        "E85": 0.000798,
        "E10": 0.001905,
        "SP98": 0.001999
      },
      "maj_gouv": {
        "Gazole": "2026-06-04 08:38:09",
        "E85": "2026-06-03 08:51:43",
        "E10": "2026-06-03 08:52:14",
        "SP98": "2026-06-02 08:35:55"
      }
    },
    {
      "id": "37800005",
      "lat": 47.104,
      "lon": 0.615,
      "cp": "37800",
      "ville": "SAINTE-MAURE DE TOURAINE",
      "prix": {
        "Gazole": 0.001993,
        "E85": 0.000819,
        "E10": 0.001925,
        "SP98": 0.0020350000000000004
      },
      "maj_gouv": {
        "Gazole": "2026-06-05 06:32:19",
        "E85": "2026-06-04 06:30:00",
        "E10": "2026-06-05 06:32:19",
        "SP98": "2026-06-05 06:32:19"
      }
    },
    {
      "id": "37800008",
      "lat": 47.166,
      "lon": 0.632,
      "cp": "37800",
      "ville": "Saint-Épain",
      "prix": {
        "Gazole": 0.0024289999999999997,
        "GPLc": 0.001259,
        "E10": 0.002229,
        "SP98": 0.002379
      },
      "maj_gouv": {
        "Gazole": "2026-06-03 11:03:48",
        "GPLc": "2026-06-03 11:03:48",
        "E10": "2026-06-03 11:03:47",
        "SP98": "2026-06-03 11:03:48"
      }
    },
    {
      "id": "37300001",
      "lat": 47.346,
      "lon": 0.643,
      "cp": "37300",
      "ville": "JOUé-LèS-TOURS",
      "prix": {
        "Gazole": 0.0019890000000000003,
        "SP95": 0.001999,
        "SP98": 0.002109
      },
      "maj_gouv": {
        "Gazole": "2026-06-01 08:39:07",
        "SP95": "2026-06-03 07:49:10",
        "SP98": "2026-06-03 07:49:10"
      }
    },
    {
      "id": "37170007",
      "lat": 47.342,
      "lon": 0.704,
      "cp": "37170",
      "ville": "Chambray-lès-Tours",
      "prix": {
        "Gazole": 0.001973,
        "E10": 0.0018759999999999998,
        "SP98": 0.00199
      },
      "maj_gouv": {
        "Gazole": "2026-06-05 06:20:02",
        "E10": "2026-06-05 06:20:03",
        "SP98": "2026-06-05 06:20:03"
      }
    },
    {
      "id": "37700011",
      "lat": 47.381,
      "lon": 0.73,
      "cp": "37700",
      "ville": "Saint-Pierre-des-Corps",
      "prix": {
        "Gazole": 0.001982,
        "E85": 0.000816,
        "GPLc": 0.000989,
        "E10": 0.001897,
        "SP98": 0.00199
      },
      "maj_gouv": {
        "Gazole": "2026-06-05 00:01:00",
        "E85": "2026-06-05 00:01:00",
        "GPLc": "2026-06-05 00:01:00",
        "E10": "2026-06-05 00:01:00",
        "SP98": "2026-06-05 00:01:00"
      }
    },
    {
      "id": "37600004",
      "lat": 47.111,
      "lon": 1.005,
      "cp": "37600",
      "ville": "LOCHES",
      "prix": {
        "Gazole": 0.0019590000000000002,
        "SP95": 0.0019690000000000003,
        "E10": 0.001929,
        "SP98": 0.002019
      },
      "maj_gouv": {
        "Gazole": "2026-06-04 10:43:27",
        "SP95": "2026-06-03 09:46:48",
        "E10": "2026-06-03 17:19:52",
        "SP98": "2026-06-03 09:46:48"
      }
    },
    {
      "id": "37190001",
      "lat": 47.268,
      "lon": 0.476,
      "cp": "37190",
      "ville": "Azay-le-Rideau",
      "prix": {},
      "maj_gouv": {}
    },
    {
      "id": "37540005",
      "lat": 47.418695091768996,
      "lon": 0.66465516532672,
      "cp": "37540",
      "ville": "Saint-Cyr-sur-Loire",
      "prix": {
        "Gazole": 0.002106,
        "E85": 0.000879,
        "E10": 0.001982,
        "SP98": 0.00199
      },
      "maj_gouv": {
        "Gazole": "2026-06-04 07:48:45",
        "E85": "2026-06-04 07:48:46",
        "E10": "2026-06-04 07:48:46",
        "SP98": "2026-06-04 07:48:46"
      }
    },
    {
      "id": "37210005",
      "lat": 47.411707,
      "lon": 0.8034330000000001,
      "cp": "37210",
      "ville": "Vouvray",
      "prix": {
        "Gazole": 0.001963,
        "SP95": 0.001968,
        "SP98": 0.002018
      },
      "maj_gouv": {
        "Gazole": "2026-06-02 15:31:21",
        "SP95": "2026-06-02 15:31:21",
        "SP98": "2026-06-02 15:31:21"
      }
    },
    {
      "id": "37700001",
      "lat": 47.38,
      "lon": 0.715,
      "cp": "37700",
      "ville": "SAINT-PIERRE-DES-CORPS",
      "prix": {
        "Gazole": 0.002057,
        "SP95": 0.00199,
        "E10": 0.001951,
        "SP98": 0.002058
      },
      "maj_gouv": {
        "Gazole": "2026-06-04 22:42:00",
        "SP95": "2026-06-04 22:42:00",
        "E10": "2026-06-04 22:42:00",
        "SP98": "2026-06-04 22:42:00"
      }
    },
    {
      "id": "37330001",
      "lat": 47.542,
      "lon": 0.337,
      "cp": "37330",
      "ville": "Château-la-Vallière",
      "prix": {
        "Gazole": 0.001975,
        "SP95": 0.002055,
        "GPLc": 0.001119,
        "E10": 0.001955,
        "SP98": 0.002069
      },
      "maj_gouv": {
        "Gazole": "2026-06-02 09:30:25",
        "SP95": "2026-06-04 14:36:39",
        "GPLc": "2026-04-30 16:18:58",
        "E10": "2026-06-04 14:36:39",
        "SP98": "2026-06-04 14:36:39"
      }
    },
    {
      "id": "37420002",
      "lat": 47.214,
      "lon": 0.169,
      "cp": "37420",
      "ville": "AVOINE",
      "prix": {
        "Gazole": 0.0021509999999999997,
        "E85": 0.0008489999999999999,
        "E10": 0.00199,
        "SP98": 0.00199
      },
      "maj_gouv": {
        "Gazole": "2026-06-04 08:07:40",
        "E85": "2026-06-04 08:07:40",
        "E10": "2026-06-04 08:07:40",
        "SP98": "2026-06-04 08:07:40"
      }
    }
  ]
}