{
  "departement": "32",
  "date": "2026-06-10",
  "stations": [
    {
      "id": "32300003",
      "lat": 43.517,
      "lon": 0.414,
      "cp": "32300",
      "ville": "MIRANDE",
      "prix": {
        "Gazole": 0.0021349999999999997,
        "E85": 0.001062
      },
      "maj_gouv": {
        "Gazole": "2026-06-05 20:32:16",
        "E85": "2026-06-01 10:22:03"
      }
    },
    {
      "id": "32600001",
      "lat": 43.614,
      "lon": 1.089,
      "cp": "32600",
      "ville": "L'Isle-Jourdain",
      "prix": {
        "Gazole": 0.002039,
        "SP95": 0.002019,
        "E10": 0.0019890000000000003,
        "SP98": 0.002049
      },
      "maj_gouv": {
        "Gazole": "2026-06-07 09:26:49",
        "SP95": "2026-06-06 20:00:00",
        "E10": "2026-06-06 20:00:00",
        "SP98": "2026-06-06 20:00:00"
      }
    },
    {
      "id": "32150002",
      "lat": 43.935,
      "lon": -0.062,
      "cp": "32150",
      "ville": "Cazaubon",
      "prix": {
        "Gazole": 0.00199,
        "E10": 0.00199,
        "SP98": 0.002049
      },
      "maj_gouv": {
        "Gazole": "2026-06-01 11:29:19",
        "E10": "2026-06-01 11:29:20",
        "SP98": "2026-06-01 11:29:20"
      }
    },
    {
      "id": "32130003",
      "lat": 43.48982650000001,
      "lon": 0.9319067,
      "cp": "32130",
      "ville": "Samatan",
      "prix": {
        "Gazole": 0.001999,
        "SP95": 0.0019890000000000003,
        "SP98": 0.002069
      },
      "maj_gouv": {
        "Gazole": "2026-06-05 07:46:40",
        "SP95": "2026-06-05 07:46:40",
        "SP98": "2026-06-05 07:46:40"
      }
    },
    {
      "id": "32100001",
      "lat": 43.948,
      "lon": 0.372,
      "cp": "32100",
      "ville": "Condom",
      "prix": {
        "Gazole": 0.002111,
        "GPLc": 0.00124,
        "E10": 0.00199,
        "SP98": 0.00199
      },
      "maj_gouv": {
        "Gazole": "2026-06-04 09:44:59",
        "GPLc": "2026-06-04 09:44:59",
        "E10": "2026-06-04 09:44:59",
        "SP98": "2026-06-04 09:44:59"
      }
    },
    {
      "id": "32000008",
      "lat": 43.649,
      "lon": 0.595,
      "cp": "32000",
      "ville": "AUCH",
      "prix": {
        "Gazole": 0.001999,
        "E10": 0.002139,
        "SP98": 0.002199
      },
      "maj_gouv": {
        "Gazole": "2026-06-08 08:26:02",
        "E10": "2026-05-27 14:39:54",
        "SP98": "2026-05-21 17:54:32"
      }
    },
    {
      "id": "32380001",
      "lat": 43.886,
      "lon": 0.761,
      "cp": "32380",
      "ville": "SAINT-CLAR",
      "prix": {
        "Gazole": 0.001976,
        "E10": 0.0019370000000000001,
        "SP98": 0.002039
      },
      "maj_gouv": {
        "Gazole": "2026-06-03 14:51:32",
        "E10": "2026-06-08 12:35:15",
        "SP98": "2026-06-08 12:35:15"
      }
    },
    {
      "id": "32500003",
      "lat": 43.842,
      "lon": 0.661,
      "cp": "32500",
      "ville": "Fleurance",
      "prix": {
        "Gazole": 0.001811,
        "SP95": 0.001871
      },
      "maj_gouv": {
        "Gazole": "2026-01-30 08:30:23",
        "SP95": "2026-01-16 09:27:43"
      }
    },
    {
      "id": "32500007",
      "lat": 43.85157962654,
      "lon": 0.6612435179699999,
      "cp": "32500",
      "ville": "Fleurance",
      "prix": {
        "Gazole": 0.001956,
        "E10": 0.0019270000000000001,
        "SP98": 0.002036
      },
      "maj_gouv": {
        "Gazole": "2026-06-09 16:55:33",
        "E10": "2026-06-09 16:55:33",
        "SP98": "2026-06-09 16:55:33"
      }
    },
    {
      "id": "32000006",
      "lat": 43.664,
      "lon": 0.618,
      "cp": "32000",
      "ville": "AUCH",
      "prix": {
        "Gazole": 0.0019890000000000003,
        "E85": 0.000798,
        "E10": 0.001999,
        "SP98": 0.002139
      },
      "maj_gouv": {
        "Gazole": "2026-06-09 19:00:00",
        "E85": "2026-05-15 16:11:50",
        "E10": "2026-06-04 08:54:19",
        "SP98": "2026-06-04 08:54:19"
      }
    },
    {
      "id": "32110003",
      "lat": 43.770040633052,
      "lon": -0.030182771766235,
      "cp": "32110",
      "ville": "NOGARO",
      "prix": {
        "Gazole": 0.0019950000000000002,
        "E85": 0.000929,
        "E10": 0.0021349999999999997,
        "SP98": 0.0021190000000000002
      },
      "maj_gouv": {
        "Gazole": "2026-06-02 09:20:08",
        "E85": "2026-06-02 09:20:08",
        "E10": "2026-06-02 09:20:08",
        "SP98": "2026-06-02 09:20:09"
      }
    },
    {
      "id": "32340001",
      "lat": 43.998,
      "lon": 0.757,
      "cp": "32340",
      "ville": "MIRADOUX",
      "prix": {
        "Gazole": 0.00199,
        "E10": 0.00202,
        "SP98": 0.00212
      },
      "maj_gouv": {
        "Gazole": "2026-06-04 10:01:34",
        "E10": "2026-06-04 10:01:34",
        "SP98": "2026-06-04 10:01:34"
      }
    },
    {
      "id": "32800003",
      "lat": 43.863811151531,
      "lon": 0.10728169416186,
      "cp": "32800",
      "ville": "EAUZE",
      "prix": {
        "Gazole": 0.00199,
        "E10": 0.00199,
        "SP98": 0.002049
      },
      "maj_gouv": {
        "Gazole": "2026-06-01 09:13:18",
        "E10": "2026-06-01 09:13:18",
        "SP98": "2026-06-01 09:13:18"
      }
    },
    {
      "id": "32100003",
      "lat": 43.965,
      "lon": 0.367,
      "cp": "32100",
      "ville": "Condom",
      "prix": {
        "Gazole": 0.002012,
        "E10": 0.001939,
        "SP98": 0.002149
      },
      "maj_gouv": {
        "Gazole": "2026-06-09 15:48:57",
        "E10": "2026-06-09 15:48:57",
        "SP98": "2026-06-09 15:48:57"
      }
    },
    {
      "id": "32130004",
      "lat": 43.4941819,
      "lon": 0.93155706137464,
      "cp": "32130",
      "ville": "SAMATAN",
      "prix": {
        "Gazole": 0.0021030000000000003,
        "E10": 0.00199,
        "SP98": 0.00199
      },
      "maj_gouv": {
        "Gazole": "2026-06-09 07:54:22",
        "E10": "2026-06-06 08:23:16",
        "SP98": "2026-06-03 07:59:30"
      }
    },
    {
      "id": "32100004",
      "lat": 43.951451538747,
      "lon": 0.37111382691217,
      "cp": "32100",
      "ville": "condom",
      "prix": {
        "Gazole": 0.002072,
        "GPLc": 0.00124,
        "E10": 0.001975,
        "SP98": 0.00199
      },
      "maj_gouv": {
        "Gazole": "2026-06-05 08:06:45",
        "GPLc": "2026-06-05 08:06:45",
        "E10": "2026-06-05 08:06:45",
        "SP98": "2026-06-05 08:06:45"
      }
    },
    {
      "id": "32400003",
      "lat": 43.668,
      "lon": -0.079,
      "cp": "32400",
      "ville": "Riscle",
      "prix": {
        "Gazole": 0.00213
      },
      "maj_gouv": {
        "Gazole": "2026-06-04 00:00:00"
      }
    },
    {
      "id": "32190003",
      "lat": 43.766,
      "lon": 0.311,
      "cp": "32190",
      "ville": "VIC-FEZENSAC",
      "prix": {
        "Gazole": 0.002089,
        "E10": 0.0019950000000000002,
        "SP98": 0.002059
      },
      "maj_gouv": {
        "Gazole": "2026-06-06 10:16:10",
        "E10": "2026-06-06 10:16:10",
        "SP98": "2026-06-06 10:16:10"
      }
    },
    {
      "id": "32550001",
      "lat": 43.617,
      "lon": 0.575,
      "cp": "32550",
      "ville": "PAVIE",
      "prix": {
        "Gazole": 0.00214
      },
      "maj_gouv": {
        "Gazole": "2026-06-05 07:30:46"
      }
    },
    {
      "id": "32800001",
      "lat": 43.86386,
      "lon": 0.10749,
      "cp": "32800",
      "ville": "Eauze",
      "prix": {
        "Gazole": 0.00199,
        "E85": 0.0008399999999999999,
        "E10": 0.00199,
        "SP98": 0.002049
      },
      "maj_gouv": {
        "Gazole": "2026-06-01 09:14:35",
        "E85": "2026-05-22 18:00:00",
        "E10": "2026-06-01 09:14:35",
        "SP98": "2026-06-01 09:14:35"
      }
    },
    {
      "id": "32500001",
      "lat": 43.860269167695996,
      "lon": 0.6592991017000001,
      "cp": "32500",
      "ville": "FLEURANCE",
      "prix": {
        "Gazole": 0.001999,
        "E85": 0.000839,
        "E10": 0.001949,
        "SP98": 0.002069
      },
      "maj_gouv": {
        "Gazole": "2026-06-02 10:51:44",
        "E85": "2026-06-02 10:51:44",
        "E10": "2026-06-02 10:51:44",
        "SP98": "2026-06-02 10:51:45"
      }
    },
    {
      "id": "32230003",
      "lat": 43.518,
      "lon": 0.172,
      "cp": "32230",
      "ville": "MARCIAC",
      "prix": {
        "Gazole": 0.001999,
        "E10": 0.0019690000000000003,
        "SP98": 0.002039
      },
      "maj_gouv": {
        "Gazole": "2026-06-02 11:13:51",
        "E10": "2026-06-02 11:13:51",
        "SP98": "2026-06-02 11:13:51"
      }
    },
    {
      "id": "32110001",
      "lat": 43.759,
      "lon": -0.033,
      "cp": "32110",
      "ville": "NOGARO",
      "prix": {
        "Gazole": 0.00199,
        "E85": 0.000829,
        "E10": 0.00199,
        "SP98": 0.00211
      },
      "maj_gouv": {
        "Gazole": "2026-06-02 10:44:41",
        "E85": "2026-06-02 10:44:41",
        "E10": "2026-06-02 14:15:47",
        "SP98": "2026-06-04 08:57:56"
      }
    },
    {
      "id": "32460001",
      "lat": 43.777286881165004,
      "lon": -0.18739020007484,
      "cp": "32460",
      "ville": "Le Houga",
      "prix": {
        "Gazole": 0.00199,
        "E85": 0.00095,
        "E10": 0.0021000000000000003
      },
      "maj_gouv": {
        "Gazole": "2026-06-04 10:15:14",
        "E85": "2026-05-28 10:29:34",
        "E10": "2026-05-28 10:29:35"
      }
    },
    {
      "id": "32190001",
      "lat": 43.755,
      "lon": 0.295,
      "cp": "32190",
      "ville": "VIC-FEZENSAC",
      "prix": {
        "Gazole": 0.002095,
        "SP95": 0.001999,
        "SP98": 0.002065
      },
      "maj_gouv": {
        "Gazole": "2026-06-06 09:35:09",
        "SP95": "2026-06-06 09:35:09",
        "SP98": "2026-06-06 09:35:09"
      }
    },
    {
      "id": "32200006",
      "lat": 43.628,
      "lon": 0.878,
      "cp": "32200",
      "ville": "Gimont",
      "prix": {
        "Gazole": 0.00219,
        "SP95": 0.00199
      },
      "maj_gouv": {
        "Gazole": "2026-06-04 05:59:00",
        "SP95": "2026-06-03 18:59:53"
      }
    },
    {
      "id": "32810003",
      "lat": 43.712,
      "lon": 0.622,
      "cp": "32810",
      "ville": "Preignan",
      "prix": {
        "Gazole": 0.00219,
        "SP95": 0.00199
      },
      "maj_gouv": {
        "Gazole": "2026-06-09 05:45:00",
        "SP95": "2026-03-04 05:43:00"
      }
    },
    {
      "id": "32300001",
      "lat": 43.501,
      "lon": 0.394,
      "cp": "32300",
      "ville": "MIRANDE",
      "prix": {
        "Gazole": 0.002085,
        "E10": 0.001999,
        "SP98": 0.002125
      },
      "maj_gouv": {
        "Gazole": "2026-06-06 07:46:12",
        "E10": "2026-06-06 07:46:12",
        "SP98": "2026-06-06 07:46:12"
      }
    },
    {
      "id": "32000002",
      "lat": 43.655,
      "lon": 0.566,
      "cp": "32000",
      "ville": "AUCH",
      "prix": {
        "Gazole": 0.002099,
        "E85": 0.00085,
        "E10": 0.002054
      },
      "maj_gouv": {
        "Gazole": "2026-06-09 16:33:50",
        "E85": "2026-06-09 16:33:50",
        "E10": "2026-06-09 16:33:50"
      }
    },
    {
      "id": "32000005",
      "lat": 43.637,
      "lon": 0.59,
      "cp": "32000",
      "ville": "AUCH",
      "prix": {
        "Gazole": 0.00209,
        "SP95": 0.00199
      },
      "maj_gouv": {
        "Gazole": "2026-06-08 07:41:57",
        "SP95": "2026-06-04 08:53:42"
      }
    },
    {
      "id": "32220001",
      "lat": 43.47068,
      "lon": 0.92231,
      "cp": "32220",
      "ville": "Lombez",
      "prix": {
        "Gazole": 0.001968,
        "SP95": 0.001999,
        "GPLc": 0.001277,
        "E10": 0.001939,
        "SP98": 0.002079
      },
      "maj_gouv": {
        "Gazole": "2026-06-08 08:30:00",
        "SP95": "2026-06-08 08:30:00",
        "GPLc": "2026-05-18 10:07:37",
        "E10": "2026-06-08 08:30:00",
        "SP98": "2026-06-08 08:30:00"
      }
    },
    {
      "id": "32120002",
      "lat": 43.731,
      "lon": 0.881,
      "cp": "32120",
      "ville": "MAUVEZIN",
      "prix": {
        "Gazole": 0.0019890000000000003,
        "E85": 0.0008950000000000001,
        "E10": 0.0019690000000000003,
        "SP98": 0.002039
      },
      "maj_gouv": {
        "Gazole": "2026-06-05 16:43:43",
        "E85": "2026-06-05 16:43:43",
        "E10": "2026-06-05 16:43:43",
        "SP98": "2026-06-05 16:43:43"
      }
    },
    {
      "id": "32100002",
      "lat": 43.95976,
      "lon": 0.37835,
      "cp": "32100",
      "ville": "Condom",
      "prix": {
        "Gazole": 0.0019450000000000001,
        "E10": 0.0019190000000000001,
        "SP98": 0.002029
      },
      "maj_gouv": {
        "Gazole": "2026-06-09 08:28:20",
        "E10": "2026-06-09 08:48:56",
        "SP98": "2026-06-09 08:28:20"
      }
    },
    {
      "id": "84400008",
      "lat": 43.824,
      "lon": -0.155,
      "cp": "32240",
      "ville": "Toujouse",
      "prix": {
        "Gazole": 0.00199,
        "E10": 0.0021000000000000003,
        "SP98": 0.00225
      },
      "maj_gouv": {
        "Gazole": "2026-06-04 10:15:36",
        "E10": "2026-05-28 10:30:03",
        "SP98": "2026-05-19 11:27:49"
      }
    },
    {
      "id": "32200001",
      "lat": 43.626,
      "lon": 0.88,
      "cp": "32200",
      "ville": "GIMONT",
      "prix": {
        "Gazole": 0.002059,
        "E85": 0.000959,
        "E10": 0.001949,
        "SP98": 0.002069
      },
      "maj_gouv": {
        "Gazole": "2026-06-06 13:17:34",
        "E85": "2026-06-06 13:17:34",
        "E10": "2026-06-06 13:17:34",
        "SP98": "2026-06-06 13:17:34"
      }
    },
    {
      "id": "32000001",
      "lat": 43.631,
      "lon": 0.582,
      "cp": "32000",
      "ville": "Auch",
      "prix": {
        "Gazole": 0.0019890000000000003,
        "GPLc": 0.001129,
        "E10": 0.001999,
        "SP98": 0.002139
      },
      "maj_gouv": {
        "Gazole": "2026-06-08 08:32:00",
        "GPLc": "2026-06-04 17:11:43",
        "E10": "2026-06-04 09:36:33",
        "SP98": "2026-06-04 09:36:33"
      }
    },
    {
      "id": "32600002",
      "lat": 43.601,
      "lon": 1.069,
      "cp": "32600",
      "ville": "L'ISLE-JOURDAIN",
      "prix": {
        "Gazole": 0.002059,
        "SP95": 0.002049,
        "E85": 0.000949
      },
      "maj_gouv": {
        "Gazole": "2026-06-06 19:29:08",
        "SP95": "2026-06-06 19:29:08",
        "E85": "2026-06-06 19:29:08"
      }
    },
    {
      "id": "32700002",
      "lat": 43.936,
      "lon": 0.643,
      "cp": "32700",
      "ville": "LECTOURE",
      "prix": {
        "Gazole": 0.0019479999999999999,
        "E85": 0.000798,
        "GPLc": 0.00109,
        "E10": 0.001949,
        "SP98": 0.002061
      },
      "maj_gouv": {
        "Gazole": "2026-06-09 18:36:47",
        "E85": "2026-05-23 14:26:26",
        "GPLc": "2026-05-04 16:35:12",
        "E10": "2026-06-03 12:29:50",
        "SP98": "2026-06-06 09:30:29"
      }
    },
    {
      "id": "32310004",
      "lat": 43.869,
      "lon": 0.392,
      "cp": "32310",
      "ville": "Valence-sur-Baïse",
      "prix": {
        "Gazole": 0.001999,
        "E10": 0.0019850000000000002,
        "SP98": 0.002089
      },
      "maj_gouv": {
        "Gazole": "2026-06-01 10:05:54",
        "E10": "2026-06-01 10:05:54",
        "SP98": "2026-06-01 10:05:54"
      }
    },
    {
      "id": "32400006",
      "lat": 43.657,
      "lon": -0.075,
      "cp": "32400",
      "ville": "RISCLE",
      "prix": {
        "Gazole": 0.002049,
        "SP95": 0.001999,
        "E10": 0.001939
      },
      "maj_gouv": {
        "Gazole": "2026-06-08 18:57:50",
        "SP95": "2026-06-08 18:57:50",
        "E10": "2026-06-08 18:57:50"
      }
    },
    {
      "id": "32500005",
      "lat": 43.853,
      "lon": 0.664,
      "cp": "32500",
      "ville": "Fleurance",
      "prix": {
        "Gazole": 0.002169,
        "SP95": 0.00199
      },
      "maj_gouv": {
        "Gazole": "2026-06-09 07:04:14",
        "SP95": "2026-03-20 11:00:31"
      }
    },
    {
      "id": "32150003",
      "lat": 43.934,
      "lon": -0.064,
      "cp": "32150",
      "ville": "Cazaubon",
      "prix": {
        "Gazole": 0.00225,
        "SP95": 0.00199,
        "GPLc": 0.00111
      },
      "maj_gouv": {
        "Gazole": "2026-05-11 07:08:34",
        "SP95": "2026-05-29 09:40:52",
        "GPLc": "2026-04-08 09:11:34"
      }
    },
    {
      "id": "32160001",
      "lat": 43.601,
      "lon": 0.042,
      "cp": "32160",
      "ville": "Plaisance",
      "prix": {
        "Gazole": 0.00199,
        "SP95": 0.002019,
        "E10": 0.0019690000000000003,
        "SP98": 0.002069
      },
      "maj_gouv": {
        "Gazole": "2026-06-02 09:18:38",
        "SP95": "2026-06-02 09:18:38",
        "E10": "2026-06-02 09:18:39",
        "SP98": "2026-06-02 09:18:39"
      }
    },
    {
      "id": "32500002",
      "lat": 43.844,
      "lon": 0.662,
      "cp": "32500",
      "ville": "FLEURANCE",
      "prix": {
        "Gazole": 0.002093,
        "E10": 0.00199,
        "SP98": 0.00199
      },
      "maj_gouv": {
        "Gazole": "2026-06-09 08:24:42",
        "E10": "2026-06-09 08:24:43",
        "SP98": "2026-06-05 08:13:54"
      }
    },
    {
      "id": "32140001",
      "lat": 43.443,
      "lon": 0.578,
      "cp": "32140",
      "ville": "Masseube",
      "prix": {
        "Gazole": 0.002055,
        "E85": 0.000795,
        "E10": 0.001998,
        "SP98": 0.002099
      },
      "maj_gouv": {
        "Gazole": "2026-06-08 10:43:48",
        "E85": "2026-05-27 09:28:16",
        "E10": "2026-06-03 11:15:46",
        "SP98": "2026-06-08 10:43:48"
      }
    },
    {
      "id": "32700001",
      "lat": 43.917,
      "lon": 0.628,
      "cp": "32700",
      "ville": "LECTOURE",
      "prix": {
        "Gazole": 0.00214,
        "SP95": 0.00211,
        "GPLc": 0.00115,
        "SP98": 0.00216
      },
      "maj_gouv": {
        "Gazole": "2026-06-08 18:25:22",
        "SP95": "2026-06-08 18:25:22",
        "GPLc": "2026-06-08 18:25:23",
        "SP98": "2026-06-08 18:25:23"
      }
    },
    {
      "id": "32300002",
      "lat": 43.515,
      "lon": 0.399,
      "cp": "32300",
      "ville": "MIRANDE",
      "prix": {
        "Gazole": 0.002085,
        "SP98": 0.002125
      },
      "maj_gouv": {
        "Gazole": "2026-06-08 08:27:20",
        "SP98": "2026-06-08 08:27:20"
      }
    },
    {
      "id": "32260002",
      "lat": 43.494,
      "lon": 0.594,
      "cp": "32260",
      "ville": "Seissan",
      "prix": {
        "Gazole": 0.002069,
        "SP95": 0.002049,
        "E10": 0.001999
      },
      "maj_gouv": {
        "Gazole": "2026-06-06 09:49:41",
        "SP95": "2026-06-06 09:49:42",
        "E10": "2026-06-06 09:49:42"
      }
    },
    {
      "id": "32250001",
      "lat": 43.950187988262996,
      "lon": 0.20801008897301998,
      "cp": "32250",
      "ville": "MONTREAL du GERS",
      "prix": {
        "Gazole": 0.00199,
        "E10": 0.00199,
        "SP98": 0.00212
      },
      "maj_gouv": {
        "Gazole": "2026-06-08 07:05:37",
        "E10": "2026-06-08 07:05:37",
        "SP98": "2026-06-08 07:05:37"
      }
    },
    {
      "id": "32190005",
      "lat": 43.765126752445994,
      "lon": 0.16785321503403,
      "cp": "32190",
      "ville": "Dému",
      "prix": {
        "Gazole": 0.002098,
        "E10": 0.00199
      },
      "maj_gouv": {
        "Gazole": "2026-06-09 07:58:21",
        "E10": "2026-06-09 07:58:22"
      }
    },
    {
      "id": "32000004",
      "lat": 43.664,
      "lon": 0.591,
      "cp": "32000",
      "ville": "AUCH",
      "prix": {
        "Gazole": 0.0019890000000000003,
        "E85": 0.00078,
        "E10": 0.001999,
        "SP98": 0.002139
      },
      "maj_gouv": {
        "Gazole": "2026-06-06 20:00:00",
        "E85": "2026-04-22 18:26:26",
        "E10": "2026-06-03 20:00:00",
        "SP98": "2026-06-03 20:00:00"
      }
    }
  ]
}