{
  "departement": "65",
  "date": "2026-06-10",
  "stations": [
    {
      "id": "65700002",
      "lat": 43.441,
      "lon": 0.042,
      "cp": "65700",
      "ville": "Maubourguet",
      "prix": {
        "Gazole": 0.0019890000000000003,
        "SP95": 0.001999,
        "E85": 0.000909,
        "E10": 0.0019590000000000002,
        "SP98": 0.002069
      },
      "maj_gouv": {
        "Gazole": "2026-06-05 09:48:41",
        "SP95": "2026-06-08 10:01:33",
        "E85": "2026-06-02 08:57:14",
        "E10": "2026-06-08 10:01:34",
        "SP98": "2026-06-04 08:53:27"
      }
    },
    {
      "id": "65310001",
      "lat": 43.206,
      "lon": 0.072,
      "cp": "65310",
      "ville": "Laloubère",
      "prix": {
        "Gazole": 0.00204,
        "GPLc": 0.000924,
        "E10": 0.001931,
        "SP98": 0.002042
      },
      "maj_gouv": {
        "Gazole": "2026-06-05 08:50:00",
        "GPLc": "2026-06-04 09:01:47",
        "E10": "2026-06-05 08:50:00",
        "SP98": "2026-06-05 08:50:00"
      }
    },
    {
      "id": "65200005",
      "lat": 43.08,
      "lon": 0.14,
      "cp": "65200",
      "ville": "POUZAC",
      "prix": {
        "Gazole": 0.002055,
        "E10": 0.00199,
        "SP98": 0.00211
      },
      "maj_gouv": {
        "Gazole": "2026-06-05 11:31:20",
        "E10": "2026-06-05 11:31:20",
        "SP98": "2026-06-05 11:31:20"
      }
    },
    {
      "id": "65240001",
      "lat": 42.899225885300005,
      "lon": 0.353642473678,
      "cp": "65240",
      "ville": "ARREAU",
      "prix": {
        "Gazole": 0.002199,
        "E10": 0.002099,
        "SP98": 0.002199
      },
      "maj_gouv": {
        "Gazole": "2026-06-01 07:44:00",
        "E10": "2026-06-01 07:44:00",
        "SP98": "2026-06-01 07:44:00"
      }
    },
    {
      "id": "65110003",
      "lat": 42.89995,
      "lon": -0.10814,
      "cp": "65110",
      "ville": "Cauterets",
      "prix": {
        "Gazole": 0.002199,
        "SP95": 0.002199,
        "SP98": 0.002299
      },
      "maj_gouv": {
        "Gazole": "2026-06-01 09:02:01",
        "SP95": "2026-04-01 09:14:45",
        "SP98": "2026-04-01 09:14:45"
      }
    },
    {
      "id": "65460003",
      "lat": 43.288,
      "lon": 0.069,
      "cp": "65460",
      "ville": "BAZET",
      "prix": {
        "Gazole": 0.002079,
        "E10": 0.00199,
        "SP98": 0.00199
      },
      "maj_gouv": {
        "Gazole": "2026-06-09 21:31:09",
        "E10": "2026-06-09 21:31:09",
        "SP98": "2026-06-09 21:31:09"
      }
    },
    {
      "id": "65429001",
      "lat": 43.239,
      "lon": 0.018,
      "cp": "65420",
      "ville": "IBOS",
      "prix": {
        "Gazole": 0.0019790000000000003,
        "SP95": 0.002039,
        "E85": 0.000919,
        "GPLc": 0.001268,
        "E10": 0.0019450000000000001,
        "SP98": 0.002049
      },
      "maj_gouv": {
        "Gazole": "2026-06-10 01:17:00",
        "SP95": "2026-06-10 01:17:00",
        "E85": "2026-06-10 01:17:00",
        "GPLc": "2026-06-10 01:17:00",
        "E10": "2026-06-10 01:17:00",
        "SP98": "2026-06-10 01:17:00"
      }
    },
    {
      "id": "65330001",
      "lat": 43.245,
      "lon": 0.421,
      "cp": "65330",
      "ville": "TOURNOUS DEVANT",
      "prix": {
        "Gazole": 0.001999,
        "E10": 0.0019590000000000002,
        "SP98": 0.002085
      },
      "maj_gouv": {
        "Gazole": "2026-06-09 07:51:42",
        "E10": "2026-06-09 07:51:42",
        "SP98": "2026-06-09 07:51:42"
      }
    },
    {
      "id": "65170002",
      "lat": 42.828,
      "lon": 0.333,
      "cp": "65170",
      "ville": "Bourisp",
      "prix": {
        "Gazole": 0.002191,
        "SP95": 0.002091,
        "SP98": 0.002161
      },
      "maj_gouv": {
        "Gazole": "2026-06-09 16:13:11",
        "SP95": "2026-06-09 16:13:11",
        "SP98": "2026-06-09 16:13:11"
      }
    },
    {
      "id": "65100005",
      "lat": 43.11,
      "lon": -0.038,
      "cp": "65100",
      "ville": "Lourdes",
      "prix": {
        "Gazole": 0.001968,
        "E85": 0.000914,
        "E10": 0.001906,
        "SP98": 0.001997
      },
      "maj_gouv": {
        "Gazole": "2026-06-10 01:17:00",
        "E85": "2026-06-10 01:17:00",
        "E10": "2026-06-10 01:17:00",
        "SP98": "2026-06-10 01:17:00"
      }
    },
    {
      "id": "65300003",
      "lat": 43.119,
      "lon": 0.411,
      "cp": "65300",
      "ville": "LANNEMEZAN",
      "prix": {
        "Gazole": 0.00214,
        "SP95": 0.00199,
        "SP98": 0.00199
      },
      "maj_gouv": {
        "Gazole": "2026-06-08 06:00:00",
        "SP95": "2026-06-05 16:47:17",
        "SP98": "2026-06-05 16:47:17"
      }
    },
    {
      "id": "65190002",
      "lat": 43.176,
      "lon": 0.24,
      "cp": "65190",
      "ville": "Tournay",
      "prix": {
        "Gazole": 0.001999,
        "E10": 0.001939,
        "SP98": 0.002109
      },
      "maj_gouv": {
        "Gazole": "2026-05-29 14:58:54",
        "E10": "2026-05-29 14:58:55",
        "SP98": "2026-05-29 14:58:55"
      }
    },
    {
      "id": "65290001",
      "lat": 43.20079,
      "lon": 0.03601,
      "cp": "65290",
      "ville": "Juillan",
      "prix": {
        "Gazole": 0.001951,
        "E85": 0.000919,
        "E10": 0.0019450000000000001,
        "SP98": 0.002049
      },
      "maj_gouv": {
        "Gazole": "2026-06-09 08:38:47",
        "E85": "2026-06-06 09:15:46",
        "E10": "2026-06-06 09:15:46",
        "SP98": "2026-06-06 09:15:46"
      }
    },
    {
      "id": "65100009",
      "lat": 43.097,
      "lon": -0.038,
      "cp": "65100",
      "ville": "LOURDES",
      "prix": {
        "Gazole": 0.001966,
        "E85": 0.000915,
        "GPLc": 0.001044,
        "E10": 0.001905,
        "SP98": 0.00199
      },
      "maj_gouv": {
        "Gazole": "2026-06-10 00:01:00",
        "E85": "2026-06-10 00:01:00",
        "GPLc": "2026-06-10 00:01:00",
        "E10": "2026-06-10 00:01:00",
        "SP98": "2026-06-10 00:01:00"
      }
    },
    {
      "id": "65300002",
      "lat": 43.098,
      "lon": 0.399,
      "cp": "65300",
      "ville": "LANNEMEZAN",
      "prix": {
        "Gazole": 0.002039,
        "E10": 0.0019590000000000002,
        "SP98": 0.002079
      },
      "maj_gouv": {
        "Gazole": "2026-06-09 09:02:11",
        "E10": "2026-06-09 09:02:12",
        "SP98": "2026-06-09 09:02:12"
      }
    },
    {
      "id": "65400005",
      "lat": 43.006,
      "lon": -0.099,
      "cp": "65400",
      "ville": "Argelès-Gazost",
      "prix": {
        "Gazole": 0.00199,
        "E85": 0.000915,
        "E10": 0.001918,
        "SP98": 0.00199
      },
      "maj_gouv": {
        "Gazole": "2026-06-10 00:01:00",
        "E85": "2026-06-10 00:01:00",
        "E10": "2026-06-10 00:01:00",
        "SP98": "2026-06-10 00:01:00"
      }
    },
    {
      "id": "65600001",
      "lat": 43.222960787651,
      "lon": 0.10284173632663,
      "cp": "65600",
      "ville": "SéMéAC",
      "prix": {
        "Gazole": 0.0020350000000000004,
        "E85": 0.000924,
        "E10": 0.00199
      },
      "maj_gouv": {
        "Gazole": "2026-06-01 06:02:00",
        "E85": "2026-04-21 06:05:56",
        "E10": "2026-04-21 06:05:56"
      }
    },
    {
      "id": "65140003",
      "lat": 43.389,
      "lon": 0.145,
      "cp": "65140",
      "ville": "Rabastens-de-Bigorre",
      "prix": {
        "Gazole": 0.002049,
        "E10": 0.0019790000000000003,
        "SP98": 0.002099
      },
      "maj_gouv": {
        "Gazole": "2026-06-09 16:53:39",
        "E10": "2026-06-09 16:53:39",
        "SP98": "2026-06-09 16:53:39"
      }
    },
    {
      "id": "65130001",
      "lat": 43.113,
      "lon": 0.357,
      "cp": "65130",
      "ville": "CAPVERN",
      "prix": {
        "Gazole": 0.001977,
        "E85": 0.000798,
        "E10": 0.001949,
        "SP98": 0.002069
      },
      "maj_gouv": {
        "Gazole": "2026-06-08 10:41:14",
        "E85": "2026-05-20 09:22:29",
        "E10": "2026-06-08 10:41:14",
        "SP98": "2026-06-08 10:41:15"
      }
    },
    {
      "id": "65100001",
      "lat": 43.088,
      "lon": -0.044,
      "cp": "65100",
      "ville": "LOURDES",
      "prix": {
        "Gazole": 0.002085,
        "SP95": 0.002091,
        "E85": 0.000914,
        "E10": 0.001963
      },
      "maj_gouv": {
        "Gazole": "2026-06-09 10:22:06",
        "SP95": "2026-06-04 17:24:10",
        "E85": "2026-06-08 13:07:09",
        "E10": "2026-06-09 10:22:06"
      }
    },
    {
      "id": "65190001",
      "lat": 43.185,
      "lon": 0.239,
      "cp": "65190",
      "ville": "TOURNAY",
      "prix": {
        "Gazole": 0.00216,
        "SP95": 0.00199
      },
      "maj_gouv": {
        "Gazole": "2026-06-05 22:01:59",
        "SP95": "2026-06-05 22:01:59"
      }
    },
    {
      "id": "65100004",
      "lat": 43.108,
      "lon": -0.039,
      "cp": "65100",
      "ville": "Lourdes",
      "prix": {
        "Gazole": 0.001977,
        "E10": 0.001915,
        "SP98": 0.001997
      },
      "maj_gouv": {
        "Gazole": "2026-06-09 06:30:00",
        "E10": "2026-06-09 06:30:00",
        "SP98": "2026-06-09 06:30:00"
      }
    },
    {
      "id": "65600002",
      "lat": 43.224,
      "lon": 0.102,
      "cp": "65600",
      "ville": "Séméac",
      "prix": {
        "Gazole": 0.002129,
        "SP95": 0.00199
      },
      "maj_gouv": {
        "Gazole": "2026-06-04 06:00:00",
        "SP95": "2026-06-03 17:04:19"
      }
    },
    {
      "id": "65400004",
      "lat": 42.999,
      "lon": -0.096,
      "cp": "65400",
      "ville": "ARGELES-GAZOST",
      "prix": {
        "Gazole": 0.00219,
        "SP95": 0.0019890000000000003,
        "SP98": 0.00199
      },
      "maj_gouv": {
        "Gazole": "2026-05-12 13:35:01",
        "SP95": "2026-03-19 12:38:18",
        "SP98": "2026-03-26 10:49:15"
      }
    },
    {
      "id": "65230002",
      "lat": 43.293,
      "lon": 0.515,
      "cp": "65230",
      "ville": "CASTELNAU-MAGNOAC",
      "prix": {
        "Gazole": 0.001999,
        "E85": 0.000798,
        "E10": 0.0019590000000000002,
        "SP98": 0.00209
      },
      "maj_gouv": {
        "Gazole": "2026-05-30 06:22:18",
        "E85": "2026-05-30 06:22:18",
        "E10": "2026-05-30 06:22:18",
        "SP98": "2026-05-30 06:22:18"
      }
    },
    {
      "id": "65500003",
      "lat": 43.392,
      "lon": 0.055,
      "cp": "65500",
      "ville": "Vic-en-Bigorre",
      "prix": {
        "Gazole": 0.001977,
        "E10": 0.001957,
        "SP98": 0.002069
      },
      "maj_gouv": {
        "Gazole": "2026-06-10 01:17:00",
        "E10": "2026-06-10 01:17:00",
        "SP98": "2026-06-10 01:17:00"
      }
    },
    {
      "id": "65300004",
      "lat": 43.116,
      "lon": 0.367,
      "cp": "65300",
      "ville": "CAMPISTROUS",
      "prix": {
        "Gazole": 0.00215,
        "E85": 0.00092,
        "GPLc": 0.00113,
        "E10": 0.001999,
        "SP98": 0.0021880000000000003
      },
      "maj_gouv": {
        "Gazole": "2026-06-01 08:37:54",
        "E85": "2026-06-01 08:37:54",
        "GPLc": "2026-06-01 08:37:54",
        "E10": "2026-06-01 08:37:54",
        "SP98": "2026-06-01 08:37:54"
      }
    },
    {
      "id": "65510001",
      "lat": 42.799,
      "lon": 0.41,
      "cp": "65510",
      "ville": "LOUDENVIELLE",
      "prix": {
        "Gazole": 0.002199,
        "E10": 0.002129,
        "SP98": 0.002199
      },
      "maj_gouv": {
        "Gazole": "2026-06-09 23:55:00",
        "E10": "2026-06-09 23:55:00",
        "SP98": "2026-06-09 23:55:00"
      }
    },
    {
      "id": "65800004",
      "lat": 43.248853174,
      "lon": 0.0900200535935,
      "cp": "65800",
      "ville": "AUREILHAN",
      "prix": {
        "Gazole": 0.0019850000000000002,
        "E10": 0.001949,
        "SP98": 0.0021190000000000002
      },
      "maj_gouv": {
        "Gazole": "2026-06-08 09:58:09",
        "E10": "2026-06-08 09:58:09",
        "SP98": "2026-06-08 10:09:17"
      }
    },
    {
      "id": "65440001",
      "lat": 42.869,
      "lon": 0.34,
      "cp": "65440",
      "ville": "ANCIZAN",
      "prix": {
        "Gazole": 0.0019950000000000002,
        "E85": 0.000798,
        "E10": 0.001955,
        "SP98": 0.002145
      },
      "maj_gouv": {
        "Gazole": "2026-06-04 13:45:17",
        "E85": "2026-05-22 10:34:43",
        "E10": "2026-06-04 13:45:17",
        "SP98": "2026-05-29 08:33:31"
      }
    },
    {
      "id": "65120002",
      "lat": 42.891,
      "lon": -0.024,
      "cp": "65120",
      "ville": "SALIGOS",
      "prix": {
        "Gazole": 0.00215,
        "E10": 0.00217,
        "SP98": 0.0022
      },
      "maj_gouv": {
        "Gazole": "2026-06-03 18:44:30",
        "E10": "2026-06-03 18:44:31",
        "SP98": "2026-06-03 18:44:31"
      }
    },
    {
      "id": "65200002",
      "lat": 43.0721993425,
      "lon": 0.145906059143,
      "cp": "65200",
      "ville": "BAGNèRES-DE-BIGORRE",
      "prix": {
        "Gazole": 0.0021030000000000003,
        "E10": 0.00199,
        "SP98": 0.00199
      },
      "maj_gouv": {
        "Gazole": "2026-06-06 08:45:18",
        "E10": "2026-06-06 08:45:18",
        "SP98": "2026-06-06 08:45:18"
      }
    },
    {
      "id": "65100008",
      "lat": 43.10985,
      "lon": -0.03764,
      "cp": "65100",
      "ville": "Lourdes",
      "prix": {
        "Gazole": 0.001999,
        "E10": 0.001997
      },
      "maj_gouv": {
        "Gazole": "2026-06-04 07:52:56",
        "E10": "2026-06-04 05:42:05"
      }
    },
    {
      "id": "65410001",
      "lat": 42.973,
      "lon": 0.376,
      "cp": "65410",
      "ville": "SARRANCOLIN",
      "prix": {
        "Gazole": 0.0020800000000000003
      },
      "maj_gouv": {
        "Gazole": "2026-06-06 09:36:18"
      }
    },
    {
      "id": "65220002",
      "lat": 43.311,
      "lon": 0.333,
      "cp": "65220",
      "ville": "Lalanne-Trie",
      "prix": {
        "Gazole": 0.0020150000000000003,
        "E85": 0.000798,
        "E10": 0.001955,
        "SP98": 0.002109
      },
      "maj_gouv": {
        "Gazole": "2026-06-05 12:57:30",
        "E85": "2026-05-22 15:04:46",
        "E10": "2026-06-09 14:58:19",
        "SP98": "2026-06-05 12:57:31"
      }
    },
    {
      "id": "65000008",
      "lat": 43.250036220000005,
      "lon": 0.07205866,
      "cp": "65000",
      "ville": "Tarbes",
      "prix": {
        "Gazole": 0.0019790000000000003,
        "E85": 0.000919,
        "E10": 0.001949,
        "SP98": 0.002099
      },
      "maj_gouv": {
        "Gazole": "2026-06-08 09:16:23",
        "E85": "2026-06-08 09:16:23",
        "E10": "2026-06-08 09:16:23",
        "SP98": "2026-06-08 09:16:23"
      }
    },
    {
      "id": "65800002",
      "lat": 43.278,
      "lon": 0.116,
      "cp": "65800",
      "ville": "ORLEIX",
      "prix": {
        "Gazole": 0.0019790000000000003,
        "E85": 0.000919,
        "E10": 0.0019190000000000001,
        "SP98": 0.002009
      },
      "maj_gouv": {
        "Gazole": "2026-06-10 01:16:00",
        "E85": "2026-06-10 01:16:00",
        "E10": "2026-06-10 01:16:00",
        "SP98": "2026-06-10 01:16:00"
      }
    },
    {
      "id": "65000007",
      "lat": 43.22,
      "lon": 0.08,
      "cp": "65000",
      "ville": "TARBES",
      "prix": {
        "Gazole": 0.0019790000000000003,
        "SP95": 0.001999,
        "E85": 0.0009180000000000001,
        "E10": 0.0019190000000000001,
        "SP98": 0.002009
      },
      "maj_gouv": {
        "Gazole": "2026-06-10 01:17:00",
        "SP95": "2026-06-10 01:17:00",
        "E85": "2026-06-10 01:17:00",
        "E10": "2026-06-10 01:17:00",
        "SP98": "2026-06-10 01:17:00"
      }
    },
    {
      "id": "65200006",
      "lat": 43.081012439356,
      "lon": 0.13926200492384,
      "cp": "65200",
      "ville": "POUZAC",
      "prix": {
        "Gazole": 0.0021230000000000003,
        "E85": 0.0009260000000000001,
        "E10": 0.00199,
        "SP98": 0.00199
      },
      "maj_gouv": {
        "Gazole": "2026-06-09 13:10:49",
        "E85": "2026-06-09 13:10:50",
        "E10": "2026-06-09 13:10:50",
        "SP98": "2026-06-09 13:10:50"
      }
    },
    {
      "id": "65000011",
      "lat": 43.23586,
      "lon": 0.054936000000000006,
      "cp": "65000",
      "ville": "TARBES",
      "prix": {
        "Gazole": 0.0022789999999999998,
        "SP95": 0.002039,
        "SP98": 0.00212
      },
      "maj_gouv": {
        "Gazole": "2026-05-04 13:37:21",
        "SP95": "2026-05-04 13:37:21",
        "SP98": "2026-05-04 13:37:22"
      }
    },
    {
      "id": "65000004",
      "lat": 43.223,
      "lon": 0.058,
      "cp": "65000",
      "ville": "Tarbes",
      "prix": {
        "Gazole": 0.001988,
        "E85": 0.000959,
        "E10": 0.001928,
        "SP98": 0.002009
      },
      "maj_gouv": {
        "Gazole": "2026-06-09 10:00:00",
        "E85": "2026-06-09 10:00:00",
        "E10": "2026-06-09 10:00:00",
        "SP98": "2026-06-09 10:00:00"
      }
    },
    {
      "id": "65400001",
      "lat": 43.005,
      "lon": -0.086,
      "cp": "65400",
      "ville": "ARGELES GAZOST",
      "prix": {
        "Gazole": 0.002049,
        "E10": 0.0019190000000000001,
        "SP98": 0.002059
      },
      "maj_gouv": {
        "Gazole": "2026-06-08 15:28:50",
        "E10": "2026-06-09 15:31:34",
        "SP98": "2026-06-09 15:31:35"
      }
    },
    {
      "id": "65120001",
      "lat": 42.876,
      "lon": -0.006,
      "cp": "65120",
      "ville": "ESQUIèZE-SèRE",
      "prix": {
        "Gazole": 0.00235,
        "SP95": 0.00207,
        "SP98": 0.00217
      },
      "maj_gouv": {
        "Gazole": "2026-03-25 12:11:28",
        "SP95": "2026-03-31 08:30:00",
        "SP98": "2026-03-31 08:30:00"
      }
    },
    {
      "id": "65200003",
      "lat": 43.067,
      "lon": 0.152,
      "cp": "65200",
      "ville": "Bagnères-de-Bigorre",
      "prix": {
        "Gazole": 0.002029,
        "SP95": 0.00207,
        "SP98": 0.00211
      },
      "maj_gouv": {
        "Gazole": "2026-06-04 17:29:04",
        "SP95": "2026-06-04 17:29:04",
        "SP98": "2026-06-04 17:29:04"
      }
    },
    {
      "id": "65000001",
      "lat": 43.228,
      "lon": 0.088,
      "cp": "65000",
      "ville": "TARBES",
      "prix": {
        "Gazole": 0.0020350000000000004,
        "E85": 0.000945,
        "E10": 0.001958,
        "SP98": 0.002079
      },
      "maj_gouv": {
        "Gazole": "2026-06-09 15:24:07",
        "E85": "2026-06-09 15:24:07",
        "E10": "2026-06-09 15:24:07",
        "SP98": "2026-06-09 15:24:07"
      }
    },
    {
      "id": "65000010",
      "lat": 43.239,
      "lon": 0.062,
      "cp": "65000",
      "ville": "TARBES",
      "prix": {
        "Gazole": 0.001975,
        "E85": 0.000923,
        "GPLc": 0.001044,
        "E10": 0.001909
      },
      "maj_gouv": {
        "Gazole": "2026-06-10 00:01:00",
        "E85": "2026-06-10 00:01:00",
        "GPLc": "2026-06-10 00:01:00",
        "E10": "2026-06-10 00:01:00"
      }
    },
    {
      "id": "65230003",
      "lat": 43.299,
      "lon": 0.518,
      "cp": "65230",
      "ville": "Castelnau Magnoac",
      "prix": {
        "Gazole": 0.002055,
        "SP95": 0.001949
      },
      "maj_gouv": {
        "Gazole": "2026-06-06 08:33:07",
        "SP95": "2026-05-31 08:51:57"
      }
    },
    {
      "id": "65500002",
      "lat": 43.384,
      "lon": 0.051,
      "cp": "65500",
      "ville": "VIC-EN-BIGORRE",
      "prix": {
        "Gazole": 0.0019790000000000003,
        "E85": 0.000798,
        "E10": 0.001999,
        "SP98": 0.002099
      },
      "maj_gouv": {
        "Gazole": "2026-06-04 09:00:00",
        "E85": "2026-06-04 09:00:00",
        "E10": "2026-06-04 09:00:00",
        "SP98": "2026-06-04 09:00:00"
      }
    },
    {
      "id": "65500004",
      "lat": 43.372658,
      "lon": 0.060235,
      "cp": "65500",
      "ville": "VIC-EN-BIGORRE",
      "prix": {
        "Gazole": 0.002079,
        "E10": 0.00199
      },
      "maj_gouv": {
        "Gazole": "2026-06-10 06:59:08",
        "E10": "2026-06-10 06:59:08"
      }
    },
    {
      "id": "65370003",
      "lat": 43.022985,
      "lon": 0.60702,
      "cp": "65370",
      "ville": "LOURES BAROUSSE",
      "prix": {
        "Gazole": 0.002019,
        "SP95": 0.002009,
        "SP98": 0.002089
      },
      "maj_gouv": {
        "Gazole": "2026-06-02 17:06:24",
        "SP95": "2026-06-02 17:06:24",
        "SP98": "2026-06-02 17:06:24"
      }
    }
  ]
}