{
  "departement": "38",
  "date": "2026-06-10",
  "stations": [
    {
      "id": "38230003",
      "lat": 45.745,
      "lon": 5.183,
      "cp": "38230",
      "ville": "Tignieu-Jameyzieu",
      "prix": {
        "Gazole": 0.0019790000000000003,
        "SP95": 0.002007,
        "E85": 0.000757,
        "E10": 0.001949,
        "SP98": 0.002019
      },
      "maj_gouv": {
        "Gazole": "2026-06-10 01:16:00",
        "SP95": "2026-06-10 01:16:00",
        "E85": "2026-06-10 01:16:00",
        "E10": "2026-06-10 01:16:00",
        "SP98": "2026-06-10 01:16:00"
      }
    },
    {
      "id": "38570003",
      "lat": 45.386,
      "lon": 5.998,
      "cp": "38570",
      "ville": "Le Cheylas",
      "prix": {
        "Gazole": 0.001999,
        "E10": 0.002139,
        "SP98": 0.0022389999999999997
      },
      "maj_gouv": {
        "Gazole": "2026-06-05 16:44:19",
        "E10": "2026-05-29 12:07:56",
        "SP98": "2026-05-29 12:07:56"
      }
    },
    {
      "id": "38470002",
      "lat": 45.208,
      "lon": 5.414,
      "cp": "38470",
      "ville": "VINAY",
      "prix": {
        "Gazole": 0.001997,
        "E85": 0.000798,
        "GPLc": 0.000998,
        "E10": 0.0019890000000000003,
        "SP98": 0.002069
      },
      "maj_gouv": {
        "Gazole": "2026-06-06 11:43:21",
        "E85": "2026-06-04 13:30:30",
        "GPLc": "2026-06-04 13:30:30",
        "E10": "2026-06-09 09:11:17",
        "SP98": "2026-06-09 09:11:17"
      }
    },
    {
      "id": "38490013",
      "lat": 45.53252,
      "lon": 5.586953,
      "cp": "38490",
      "ville": "les abrets en dauphine",
      "prix": {
        "Gazole": 0.002099,
        "E10": 0.002049,
        "SP98": 0.0021190000000000002
      },
      "maj_gouv": {
        "Gazole": "2026-06-05 23:59:00",
        "E10": "2026-06-05 23:59:00",
        "SP98": "2026-06-05 23:59:00"
      }
    },
    {
      "id": "38500006",
      "lat": 45.359,
      "lon": 5.595,
      "cp": "38500",
      "ville": "VOIRON",
      "prix": {
        "Gazole": 0.0020299999999999997,
        "E10": 0.001999,
        "SP98": 0.002059
      },
      "maj_gouv": {
        "Gazole": "2026-06-04 08:33:49",
        "E10": "2026-06-02 07:41:59",
        "SP98": "2026-06-02 07:41:59"
      }
    },
    {
      "id": "38200019",
      "lat": 45.502489078125,
      "lon": 4.8505126269,
      "cp": "38200",
      "ville": "Vienne",
      "prix": {
        "Gazole": 0.002034,
        "SP95": 0.002033,
        "SP98": 0.002069
      },
      "maj_gouv": {
        "Gazole": "2026-06-09 06:59:19",
        "SP95": "2026-06-09 06:59:19",
        "SP98": "2026-06-09 06:59:19"
      }
    },
    {
      "id": "38350005",
      "lat": 44.913,
      "lon": 5.784,
      "cp": "38350",
      "ville": "LA MURE",
      "prix": {
        "Gazole": 0.00209,
        "SP95": 0.00199
      },
      "maj_gouv": {
        "Gazole": "2026-06-01 08:34:11",
        "SP95": "2026-05-29 12:39:05"
      }
    },
    {
      "id": "38200007",
      "lat": 45.519,
      "lon": 4.919,
      "cp": "38200",
      "ville": "Vienne",
      "prix": {
        "Gazole": 0.00199,
        "SP95": 0.0019890000000000003,
        "SP98": 0.002049
      },
      "maj_gouv": {
        "Gazole": "2026-06-05 05:02:47",
        "SP95": "2026-06-05 05:02:47",
        "SP98": "2026-06-05 05:02:47"
      }
    },
    {
      "id": "38690007",
      "lat": 45.384529100857,
      "lon": 5.4723476793111,
      "cp": "38690",
      "ville": "LE GRAND LEMPS",
      "prix": {
        "SP98": 0.00239
      },
      "maj_gouv": {
        "SP98": "2026-06-09 09:00:00"
      }
    },
    {
      "id": "38640001",
      "lat": 45.119,
      "lon": 5.693,
      "cp": "38640",
      "ville": "CLAIX",
      "prix": {
        "Gazole": 0.002041,
        "SP95": 0.002008,
        "SP98": 0.002053
      },
      "maj_gouv": {
        "Gazole": "2026-06-09 07:47:53",
        "SP95": "2026-06-09 07:47:53",
        "SP98": "2026-06-09 07:47:53"
      }
    },
    {
      "id": "38100003",
      "lat": 45.171,
      "lon": 5.724,
      "cp": "38100",
      "ville": "Grenoble",
      "prix": {
        "Gazole": 0.002109,
        "E10": 0.002009,
        "SP98": 0.002179
      },
      "maj_gouv": {
        "Gazole": "2026-06-09 11:58:47",
        "E10": "2026-06-09 11:58:48",
        "SP98": "2026-06-09 11:58:48"
      }
    },
    {
      "id": "38340018",
      "lat": 45.277,
      "lon": 5.623,
      "cp": "38340",
      "ville": "VOREPPE",
      "prix": {
        "Gazole": 0.002299,
        "GPLc": 0.001149,
        "E10": 0.002229,
        "SP98": 0.0023290000000000003
      },
      "maj_gouv": {
        "Gazole": "2026-06-10 00:01:00",
        "GPLc": "2026-06-10 00:01:00",
        "E10": "2026-06-10 00:01:00",
        "SP98": "2026-06-10 00:01:00"
      }
    },
    {
      "id": "38000015",
      "lat": 45.2,
      "lon": 5.74,
      "cp": "38000",
      "ville": "Grenoble",
      "prix": {
        "Gazole": 0.002049,
        "E10": 0.001949,
        "SP98": 0.002059
      },
      "maj_gouv": {
        "Gazole": "2026-06-09 12:03:27",
        "E10": "2026-06-09 12:03:27",
        "SP98": "2026-06-09 12:03:26"
      }
    },
    {
      "id": "38610001",
      "lat": 45.181,
      "lon": 5.786,
      "cp": "38610",
      "ville": "Gières",
      "prix": {
        "Gazole": 0.002097,
        "E10": 0.00199,
        "SP98": 0.00199
      },
      "maj_gouv": {
        "Gazole": "2026-06-09 07:58:50",
        "E10": "2026-06-09 07:58:50",
        "SP98": "2026-06-09 07:58:50"
      }
    },
    {
      "id": "38300001",
      "lat": 45.589,
      "lon": 5.297,
      "cp": "38300",
      "ville": "RUY-MONTCEAU",
      "prix": {
        "Gazole": 0.002029,
        "E85": 0.00085,
        "E10": 0.0019590000000000002,
        "SP98": 0.002089
      },
      "maj_gouv": {
        "Gazole": "2026-06-05 17:43:33",
        "E85": "2026-06-05 17:00:46",
        "E10": "2026-06-05 17:00:47",
        "SP98": "2026-06-05 17:00:47"
      }
    },
    {
      "id": "38340011",
      "lat": 45.278,
      "lon": 5.624,
      "cp": "38340",
      "ville": "VOREPPE",
      "prix": {
        "Gazole": 0.002197,
        "E85": 0.000999,
        "GPLc": 0.001099,
        "E10": 0.00199,
        "SP98": 0.00199
      },
      "maj_gouv": {
        "Gazole": "2026-06-10 00:01:00",
        "E85": "2026-06-10 00:01:00",
        "GPLc": "2026-06-10 00:01:00",
        "E10": "2026-06-10 00:01:00",
        "SP98": "2026-06-10 00:01:00"
      }
    },
    {
      "id": "38700003",
      "lat": 45.195,
      "lon": 5.75,
      "cp": "38700",
      "ville": "LA TRONCHE",
      "prix": {
        "Gazole": 0.0019619999999999998,
        "E85": 0.000884,
        "GPLc": 0.00107,
        "E10": 0.001914,
        "SP98": 0.00199
      },
      "maj_gouv": {
        "Gazole": "2026-06-09 20:30:00",
        "E85": "2026-06-07 20:05:58",
        "GPLc": "2026-05-28 06:57:54",
        "E10": "2026-06-09 20:30:00",
        "SP98": "2026-06-08 14:21:30"
      }
    },
    {
      "id": "38890002",
      "lat": 45.64,
      "lon": 5.358,
      "cp": "38890",
      "ville": "Saint-Chef",
      "prix": {
        "Gazole": 0.001999,
        "SP95": 0.0021190000000000002,
        "SP98": 0.002179
      },
      "maj_gouv": {
        "Gazole": "2026-06-02 19:12:21",
        "SP95": "2026-05-29 05:16:53",
        "SP98": "2026-05-29 05:16:53"
      }
    },
    {
      "id": "38150011",
      "lat": 45.349,
      "lon": 4.804,
      "cp": "38150",
      "ville": "Salaise-sur-Sanne",
      "prix": {
        "Gazole": 0.001991,
        "E10": 0.002029,
        "SP98": 0.002038
      },
      "maj_gouv": {
        "Gazole": "2026-06-06 06:31:00",
        "E10": "2026-06-06 06:31:00",
        "SP98": "2026-06-06 06:31:00"
      }
    },
    {
      "id": "38000018",
      "lat": 45.178892999999995,
      "lon": 5.705118000000001,
      "cp": "38000",
      "ville": "GRENOBLE",
      "prix": {
        "Gazole": 0.002129,
        "E10": 0.002029,
        "SP98": 0.002129
      },
      "maj_gouv": {
        "Gazole": "2026-06-09 21:45:00",
        "E10": "2026-06-09 21:45:00",
        "SP98": "2026-06-09 21:45:00"
      }
    },
    {
      "id": "69340003",
      "lat": 45.406350999999994,
      "lon": 4.815803,
      "cp": "38150",
      "ville": "Roussillon",
      "prix": {
        "Gazole": 0.002346,
        "E10": 0.00235,
        "SP98": 0.0025
      },
      "maj_gouv": {
        "Gazole": "2026-06-09 09:30:00",
        "E10": "2026-06-09 09:30:00",
        "SP98": "2026-06-09 09:30:00"
      }
    },
    {
      "id": "38280001",
      "lat": 45.792312864699994,
      "lon": 5.1321481139500005,
      "cp": "38280",
      "ville": "Villette-d'Anthon",
      "prix": {
        "Gazole": 0.001999,
        "E10": 0.001949,
        "SP98": 0.002057
      },
      "maj_gouv": {
        "Gazole": "2026-06-08 09:32:55",
        "E10": "2026-06-08 09:32:56",
        "SP98": "2026-06-08 09:32:56"
      }
    },
    {
      "id": "38500003",
      "lat": 45.36,
      "lon": 5.6,
      "cp": "38500",
      "ville": "VOIRON",
      "prix": {},
      "maj_gouv": {}
    },
    {
      "id": "38190005",
      "lat": 45.271,
      "lon": 5.893,
      "cp": "38190",
      "ville": "CROLLES",
      "prix": {
        "Gazole": 0.002064,
        "E85": 0.0009649999999999999,
        "E10": 0.001958
      },
      "maj_gouv": {
        "Gazole": "2026-06-09 11:08:19",
        "E85": "2026-06-09 11:08:20",
        "E10": "2026-06-09 11:08:20"
      }
    },
    {
      "id": "38300027",
      "lat": 45.583253,
      "lon": 5.296745,
      "cp": "38300",
      "ville": "BOURGOIN JALLIEU",
      "prix": {
        "Gazole": 0.00199,
        "SP95": 0.00199,
        "SP98": 0.00209
      },
      "maj_gouv": {
        "Gazole": "2026-06-03 08:49:37",
        "SP95": "2026-06-03 08:49:38",
        "SP98": "2026-06-03 08:49:38"
      }
    },
    {
      "id": "38620002",
      "lat": 45.459,
      "lon": 5.641,
      "cp": "38620",
      "ville": "Saint-Geoire-en-Valdaine",
      "prix": {
        "Gazole": 0.0020440000000000002,
        "SP95": 0.002099
      },
      "maj_gouv": {
        "Gazole": "2026-06-04 12:15:43",
        "SP95": "2026-06-04 12:15:44"
      }
    },
    {
      "id": "38880002",
      "lat": 45.17,
      "lon": 5.537,
      "cp": "38880",
      "ville": "AUTRANS",
      "prix": {
        "Gazole": 0.00225,
        "SP95": 0.00199
      },
      "maj_gouv": {
        "Gazole": "2026-06-02 14:44:08",
        "SP95": "2026-06-02 14:46:08"
      }
    },
    {
      "id": "38240006",
      "lat": 45.197608370516,
      "lon": 5.7806424280435,
      "cp": "38240",
      "ville": "MEYLAN",
      "prix": {
        "Gazole": 0.0019619999999999998,
        "E85": 0.000879,
        "E10": 0.001914,
        "SP98": 0.00199
      },
      "maj_gouv": {
        "Gazole": "2026-06-10 00:01:00",
        "E85": "2026-06-10 00:01:00",
        "E10": "2026-06-10 00:01:00",
        "SP98": "2026-06-10 00:01:00"
      }
    },
    {
      "id": "38150012",
      "lat": 45.3733438,
      "lon": 4.8122397999999995,
      "cp": "38150",
      "ville": "Roussillon",
      "prix": {
        "Gazole": 0.001999,
        "E10": 0.001999,
        "SP98": 0.002129
      },
      "maj_gouv": {
        "Gazole": "2026-06-05 10:07:00",
        "E10": "2026-06-05 10:07:01",
        "SP98": "2026-06-05 10:07:01"
      }
    },
    {
      "id": "38190001",
      "lat": 45.26645,
      "lon": 5.91531,
      "cp": "38190",
      "ville": "Froges",
      "prix": {
        "Gazole": 0.0020299999999999997,
        "SP95": 0.00209,
        "SP98": 0.00212
      },
      "maj_gouv": {
        "Gazole": "2026-06-01 13:56:17",
        "SP95": "2026-06-01 13:56:17",
        "SP98": "2026-06-01 13:56:18"
      }
    },
    {
      "id": "38220003",
      "lat": 45.084,
      "lon": 5.76,
      "cp": "38220",
      "ville": "Vizille",
      "prix": {
        "Gazole": 0.002018,
        "E10": 0.0019270000000000001,
        "SP98": 0.002038
      },
      "maj_gouv": {
        "Gazole": "2026-06-08 09:00:26",
        "E10": "2026-06-08 09:00:27",
        "SP98": "2026-06-08 09:00:27"
      }
    },
    {
      "id": "38270003",
      "lat": 45.373,
      "lon": 5.027,
      "cp": "38270",
      "ville": "Revel-Tourdan",
      "prix": {
        "Gazole": 0.00199,
        "E85": 0.0008399999999999999,
        "E10": 0.001939,
        "SP98": 0.002049
      },
      "maj_gouv": {
        "Gazole": "2026-06-05 08:45:29",
        "E85": "2026-06-05 08:45:30",
        "E10": "2026-06-09 08:49:22",
        "SP98": "2026-06-09 08:49:22"
      }
    },
    {
      "id": "38510006",
      "lat": 45.667,
      "lon": 5.474,
      "cp": "38510",
      "ville": "VEZERONCE-CURTIN",
      "prix": {
        "Gazole": 0.001957,
        "E85": 0.000798,
        "E10": 0.001891,
        "SP98": 0.002069
      },
      "maj_gouv": {
        "Gazole": "2026-06-08 09:35:51",
        "E85": "2026-05-13 15:02:03",
        "E10": "2026-06-09 10:15:05",
        "SP98": "2026-06-04 08:57:48"
      }
    },
    {
      "id": "38670002",
      "lat": 45.582317,
      "lon": 4.792002,
      "cp": "38670",
      "ville": "CHASSE SUR RHONE",
      "prix": {
        "Gazole": 0.002298
      },
      "maj_gouv": {
        "Gazole": "2026-06-09 00:00:00"
      }
    },
    {
      "id": "38490012",
      "lat": 45.537,
      "lon": 5.577,
      "cp": "38490",
      "ville": "Les Abrets en Dauphiné",
      "prix": {
        "Gazole": 0.001999,
        "E85": 0.000889,
        "E10": 0.001965
      },
      "maj_gouv": {
        "Gazole": "2026-06-05 08:03:35",
        "E85": "2026-04-23 12:32:58",
        "E10": "2026-06-09 13:23:34"
      }
    },
    {
      "id": "38580004",
      "lat": 45.387,
      "lon": 6.069,
      "cp": "38580",
      "ville": "Allevard",
      "prix": {
        "Gazole": 0.002049,
        "E10": 0.0019850000000000002,
        "SP98": 0.0022389999999999997
      },
      "maj_gouv": {
        "Gazole": "2026-06-07 16:43:44",
        "E10": "2026-06-07 16:43:44",
        "SP98": "2026-06-07 16:43:44"
      }
    },
    {
      "id": "38400005",
      "lat": 45.168,
      "lon": 5.755,
      "cp": "38400",
      "ville": "Saint-Martin-d'Hères",
      "prix": {
        "Gazole": 0.002019,
        "E85": 0.000979,
        "E10": 0.0019190000000000001,
        "SP98": 0.002069
      },
      "maj_gouv": {
        "Gazole": "2026-06-10 06:21:05",
        "E85": "2026-06-10 06:21:05",
        "E10": "2026-06-10 06:21:05",
        "SP98": "2026-06-10 06:21:05"
      }
    },
    {
      "id": "38670003",
      "lat": 45.574,
      "lon": 4.811,
      "cp": "38670",
      "ville": "Chasse-sur-Rhône",
      "prix": {
        "Gazole": 0.001949,
        "E85": 0.000798,
        "GPLc": 0.000999,
        "E10": 0.001889,
        "SP98": 0.001999
      },
      "maj_gouv": {
        "Gazole": "2026-06-08 17:33:55",
        "E85": "2026-05-18 08:00:00",
        "GPLc": "2026-04-10 15:07:53",
        "E10": "2026-06-08 17:33:55",
        "SP98": "2026-06-08 17:33:55"
      }
    },
    {
      "id": "38110001",
      "lat": 45.573,
      "lon": 5.472,
      "cp": "38110",
      "ville": "SAINT-CLAIR-DE-LA-TOUR",
      "prix": {
        "Gazole": 0.001999,
        "E10": 0.001949,
        "SP98": 0.002149
      },
      "maj_gouv": {
        "Gazole": "2026-06-05 13:48:40",
        "E10": "2026-06-01 14:44:00",
        "SP98": "2026-06-05 13:48:02"
      }
    },
    {
      "id": "38140005",
      "lat": 45.399,
      "lon": 5.468,
      "cp": "38140",
      "ville": "APPRIEU",
      "prix": {
        "Gazole": 0.001943,
        "E85": 0.000798,
        "E10": 0.001879,
        "SP98": 0.001999
      },
      "maj_gouv": {
        "Gazole": "2026-06-09 08:33:56",
        "E85": "2026-06-01 11:30:08",
        "E10": "2026-06-09 08:33:56",
        "SP98": "2026-06-08 08:39:50"
      }
    },
    {
      "id": "38260007",
      "lat": 45.393,
      "lon": 5.247,
      "cp": "38260",
      "ville": "LA CôTE-SAINT-ANDRé",
      "prix": {
        "Gazole": 0.001963,
        "SP95": 0.0019790000000000003,
        "E10": 0.0019190000000000001,
        "SP98": 0.002029
      },
      "maj_gouv": {
        "Gazole": "2026-06-10 06:37:12",
        "SP95": "2026-06-09 06:26:35",
        "E10": "2026-06-09 06:26:35",
        "SP98": "2026-06-09 06:26:35"
      }
    },
    {
      "id": "38400006",
      "lat": 45.185567253516,
      "lon": 5.75784886983,
      "cp": "38400",
      "ville": "Saint-Martin-d'Hères",
      "prix": {
        "Gazole": 0.0019479999999999999,
        "E85": 0.000798,
        "E10": 0.0019039999999999999,
        "SP98": 0.0020139999999999997
      },
      "maj_gouv": {
        "Gazole": "2026-06-09 08:00:19",
        "E85": "2026-05-18 07:57:37",
        "E10": "2026-06-09 08:00:19",
        "SP98": "2026-06-08 08:15:02"
      }
    },
    {
      "id": "38130002",
      "lat": 45.148,
      "lon": 5.693,
      "cp": "38130",
      "ville": "Échirolles",
      "prix": {
        "Gazole": 0.0019790000000000003,
        "SP95": 0.001986,
        "E10": 0.0019299999999999999,
        "SP98": 0.002
      },
      "maj_gouv": {
        "Gazole": "2026-06-10 01:16:00",
        "SP95": "2026-06-10 01:16:00",
        "E10": "2026-06-10 01:16:00",
        "SP98": "2026-06-10 01:16:00"
      }
    },
    {
      "id": "38110006",
      "lat": 45.810097973474,
      "lon": 5.4033595557715,
      "cp": "38390",
      "ville": "Montalieu-Vercieu",
      "prix": {
        "Gazole": 0.002019,
        "SP95": 0.002029,
        "SP98": 0.002079
      },
      "maj_gouv": {
        "Gazole": "2026-06-09 08:15:34",
        "SP95": "2026-06-09 08:15:34",
        "SP98": "2026-06-09 08:15:34"
      }
    },
    {
      "id": "38330002",
      "lat": 45.24,
      "lon": 5.814,
      "cp": "38330",
      "ville": "Biviers",
      "prix": {
        "Gazole": 0.002012,
        "E85": 0.0009649999999999999,
        "E10": 0.001949,
        "SP98": 0.002029
      },
      "maj_gouv": {
        "Gazole": "2026-06-09 07:41:00",
        "E85": "2026-06-09 07:41:00",
        "E10": "2026-06-09 07:41:00",
        "SP98": "2026-06-09 07:41:00"
      }
    },
    {
      "id": "38510005",
      "lat": 45.672,
      "lon": 5.485,
      "cp": "38510",
      "ville": "Morestel",
      "prix": {
        "Gazole": 0.001949,
        "E85": 0.000799,
        "GPLc": 0.000969,
        "E10": 0.0019190000000000001,
        "SP98": 0.002069
      },
      "maj_gouv": {
        "Gazole": "2026-06-03 12:08:07",
        "E85": "2026-04-17 10:53:59",
        "GPLc": "2026-05-18 08:21:26",
        "E10": "2026-06-03 12:08:07",
        "SP98": "2026-06-03 12:08:07"
      }
    },
    {
      "id": "38113001",
      "lat": 45.265,
      "lon": 5.623,
      "cp": "38113",
      "ville": "VEUREY-VOROIZE",
      "prix": {
        "Gazole": 0.00227,
        "SP95": 0.002298,
        "SP98": 0.002319
      },
      "maj_gouv": {
        "Gazole": "2026-06-07 21:15:36",
        "SP95": "2026-06-07 21:15:36",
        "SP98": "2026-06-07 21:15:36"
      }
    },
    {
      "id": "38430004",
      "lat": 45.324,
      "lon": 5.582,
      "cp": "38430",
      "ville": "Moirans",
      "prix": {
        "Gazole": 0.001954,
        "E85": 0.000798,
        "E10": 0.001899,
        "SP98": 0.002069
      },
      "maj_gouv": {
        "Gazole": "2026-06-09 09:59:07",
        "E85": "2026-05-15 11:10:47",
        "E10": "2026-06-09 09:59:07",
        "SP98": "2026-05-29 07:49:25"
      }
    },
    {
      "id": "38470003",
      "lat": 45.22,
      "lon": 5.435,
      "cp": "38470",
      "ville": "Vinay",
      "prix": {
        "Gazole": 0.00209,
        "GPLc": 0.00107,
        "E10": 0.00199,
        "SP98": 0.00199
      },
      "maj_gouv": {
        "Gazole": "2026-06-01 12:19:44",
        "GPLc": "2026-04-01 09:32:01",
        "E10": "2026-05-07 17:45:00",
        "SP98": "2026-04-16 16:45:56"
      }
    },
    {
      "id": "38530005",
      "lat": 45.428514643902,
      "lon": 5.995516521453901,
      "cp": "38530",
      "ville": "BARRAUX",
      "prix": {
        "Gazole": 0.002023,
        "E85": 0.000798,
        "E10": 0.0020169999999999997,
        "SP98": 0.0022389999999999997
      },
      "maj_gouv": {
        "Gazole": "2026-06-09 11:02:49",
        "E85": "2026-05-19 15:45:32",
        "E10": "2026-06-08 10:38:45",
        "SP98": "2026-06-01 14:03:09"
      }
    },
    {
      "id": "38650003",
      "lat": 44.926,
      "lon": 5.638,
      "cp": "38650",
      "ville": "Monestier-de-Clermont",
      "prix": {
        "Gazole": 0.002159,
        "E85": 0.000989,
        "E10": 0.002129,
        "SP98": 0.002199
      },
      "maj_gouv": {
        "Gazole": "2026-06-10 06:17:28",
        "E85": "2026-06-05 15:44:44",
        "E10": "2026-06-10 06:17:28",
        "SP98": "2026-06-10 06:17:28"
      }
    },
    {
      "id": "38430001",
      "lat": 45.325,
      "lon": 5.567,
      "cp": "38430",
      "ville": "MOIRANS",
      "prix": {
        "Gazole": 0.002199,
        "E10": 0.002049,
        "SP98": 0.002199
      },
      "maj_gouv": {
        "Gazole": "2026-05-26 14:37:46",
        "E10": "2026-05-26 14:37:46",
        "SP98": "2026-05-26 14:37:46"
      }
    },
    {
      "id": "38360001",
      "lat": 45.218,
      "lon": 5.663,
      "cp": "38360",
      "ville": "SASSENAGE",
      "prix": {
        "Gazole": 0.002063,
        "SP95": 0.001999,
        "E85": 0.000883,
        "E10": 0.001936,
        "SP98": 0.0021520000000000003
      },
      "maj_gouv": {
        "Gazole": "2026-06-05 10:11:45",
        "SP95": "2026-06-05 10:11:46",
        "E85": "2026-06-05 10:11:46",
        "E10": "2026-06-05 10:11:46",
        "SP98": "2026-06-05 10:11:46"
      }
    },
    {
      "id": "38460002",
      "lat": 45.723577295853005,
      "lon": 5.2389189620677,
      "cp": "38460",
      "ville": "CREMIEU",
      "prix": {
        "Gazole": 0.002069,
        "E10": 0.001999,
        "SP98": 0.002099
      },
      "maj_gouv": {
        "Gazole": "2026-05-28 14:55:45",
        "E10": "2026-05-28 14:55:46",
        "SP98": "2026-05-28 14:55:46"
      }
    },
    {
      "id": "38250003",
      "lat": 45.074629195705995,
      "lon": 5.553227260991,
      "cp": "38250",
      "ville": "Villard-de-Lans",
      "prix": {
        "Gazole": 0.002089,
        "SP95": 0.002079,
        "SP98": 0.002109
      },
      "maj_gouv": {
        "Gazole": "2026-06-08 12:41:42",
        "SP95": "2026-06-08 12:41:43",
        "SP98": "2026-06-08 12:41:43"
      }
    },
    {
      "id": "38540002",
      "lat": 45.585,
      "lon": 5.004,
      "cp": "38540",
      "ville": "Saint-Just-Chaleyssin",
      "prix": {
        "Gazole": 0.001997,
        "SP95": 0.002039,
        "SP98": 0.002053
      },
      "maj_gouv": {
        "Gazole": "2026-06-04 06:51:54",
        "SP95": "2026-06-04 06:51:54",
        "SP98": "2026-06-04 06:51:54"
      }
    },
    {
      "id": "38800003",
      "lat": 45.138,
      "lon": 5.702,
      "cp": "38800",
      "ville": "Pont-de-claix",
      "prix": {
        "Gazole": 0.001956,
        "E85": 0.000869,
        "GPLc": 0.000999,
        "E10": 0.0019010000000000001,
        "SP98": 0.00199
      },
      "maj_gouv": {
        "Gazole": "2026-06-10 00:01:00",
        "E85": "2026-06-10 00:01:00",
        "GPLc": "2026-06-10 00:01:00",
        "E10": "2026-06-10 00:01:00",
        "SP98": "2026-06-10 00:01:00"
      }
    },
    {
      "id": "38150010",
      "lat": 45.326,
      "lon": 4.807,
      "cp": "38150",
      "ville": "Salaise-sur-Sanne",
      "prix": {
        "Gazole": 0.001938,
        "E85": 0.0008259999999999999,
        "E10": 0.001883,
        "SP98": 0.00199
      },
      "maj_gouv": {
        "Gazole": "2026-06-10 00:01:00",
        "E85": "2026-06-10 00:01:00",
        "E10": "2026-06-10 00:01:00",
        "SP98": "2026-06-10 00:01:00"
      }
    },
    {
      "id": "38240003",
      "lat": 45.203,
      "lon": 5.762,
      "cp": "38240",
      "ville": "MEYLAN",
      "prix": {
        "Gazole": 0.0020259999999999996,
        "SP95": 0.001984,
        "E85": 0.000879,
        "GPLc": 0.001,
        "E10": 0.001934,
        "SP98": 0.002058
      },
      "maj_gouv": {
        "Gazole": "2026-06-09 22:43:00",
        "SP95": "2026-06-09 22:43:00",
        "E85": "2026-06-09 22:43:00",
        "GPLc": "2026-06-09 22:43:00",
        "E10": "2026-06-09 22:43:00",
        "SP98": "2026-06-09 22:43:00"
      }
    },
    {
      "id": "38760004",
      "lat": 45.098,
      "lon": 5.683,
      "cp": "38760",
      "ville": "Varces-Allières-et-Risset",
      "prix": {
        "Gazole": 0.002049,
        "E10": 0.0019690000000000003,
        "SP98": 0.002069
      },
      "maj_gouv": {
        "Gazole": "2026-06-10 06:00:00",
        "E10": "2026-06-10 06:00:00",
        "SP98": "2026-06-10 06:00:00"
      }
    },
    {
      "id": "38200016",
      "lat": 45.584429922883,
      "lon": 4.914457214061001,
      "cp": "38200",
      "ville": "Villette-de-Vienne",
      "prix": {
        "Gazole": 0.001946,
        "SP95": 0.0019690000000000003,
        "SP98": 0.002019
      },
      "maj_gouv": {
        "Gazole": "2026-06-09 13:18:46",
        "SP95": "2026-06-05 11:37:53",
        "SP98": "2026-06-05 11:37:53"
      }
    },
    {
      "id": "38790003",
      "lat": 45.597,
      "lon": 5.095,
      "cp": "38790",
      "ville": "diemoz",
      "prix": {
        "Gazole": 0.001988,
        "E10": 0.0019590000000000002,
        "SP98": 0.002099
      },
      "maj_gouv": {
        "Gazole": "2026-06-05 09:11:07",
        "E10": "2026-06-09 08:49:06",
        "SP98": "2026-06-03 07:46:25"
      }
    },
    {
      "id": "38460005",
      "lat": 45.685869055241,
      "lon": 5.2862573539941,
      "cp": "38460",
      "ville": "SAINT HILAIRE DE BRENS",
      "prix": {
        "Gazole": 0.002029,
        "E85": 0.000889,
        "E10": 0.002009,
        "SP98": 0.002109
      },
      "maj_gouv": {
        "Gazole": "2026-06-08 16:07:31",
        "E85": "2026-05-30 09:02:57",
        "E10": "2026-05-30 09:02:57",
        "SP98": "2026-05-30 09:02:57"
      }
    },
    {
      "id": "38490006",
      "lat": 45.618,
      "lon": 5.611,
      "cp": "38490",
      "ville": "Aoste",
      "prix": {
        "Gazole": 0.002032,
        "E10": 0.001975,
        "SP98": 0.00199
      },
      "maj_gouv": {
        "Gazole": "2026-06-09 21:19:00",
        "E10": "2026-06-09 20:19:00",
        "SP98": "2026-06-02 06:32:47"
      }
    },
    {
      "id": "38320006",
      "lat": 45.151835,
      "lon": 5.739984000000001,
      "cp": "38320",
      "ville": "EYBENS",
      "prix": {
        "Gazole": 0.002054,
        "E85": 0.0008990000000000001,
        "GPLc": 0.001019,
        "E10": 0.00199,
        "SP98": 0.00199
      },
      "maj_gouv": {
        "Gazole": "2026-06-10 00:01:00",
        "E85": "2026-06-10 00:01:00",
        "GPLc": "2026-06-10 00:01:00",
        "E10": "2026-06-10 00:01:00",
        "SP98": "2026-06-10 00:01:00"
      }
    },
    {
      "id": "38150003",
      "lat": 45.32128,
      "lon": 4.80769,
      "cp": "38150",
      "ville": "Chanas",
      "prix": {
        "Gazole": 0.001999,
        "E85": 0.00086,
        "GPLc": 0.00108,
        "E10": 0.00197
      },
      "maj_gouv": {
        "Gazole": "2026-06-05 11:26:56",
        "E85": "2026-04-22 14:55:19",
        "GPLc": "2026-04-14 19:15:02",
        "E10": "2026-05-29 13:55:16"
      }
    },
    {
      "id": "38260005",
      "lat": 45.392,
      "lon": 5.258,
      "cp": "38260",
      "ville": "LA CôTE-SAINT-ANDRé",
      "prix": {
        "Gazole": 0.001974,
        "E10": 0.001939,
        "SP98": 0.002059
      },
      "maj_gouv": {
        "Gazole": "2026-06-04 15:06:35",
        "E10": "2026-06-04 15:06:35",
        "SP98": "2026-06-04 15:06:35"
      }
    },
    {
      "id": "38200018",
      "lat": 45.527,
      "lon": 4.903,
      "cp": "38200",
      "ville": "VIENNE",
      "prix": {
        "Gazole": 0.001944,
        "E85": 0.0008349999999999999,
        "E10": 0.001899,
        "SP98": 0.00199
      },
      "maj_gouv": {
        "Gazole": "2026-06-10 00:01:00",
        "E85": "2026-06-10 00:01:00",
        "E10": "2026-06-10 00:01:00",
        "SP98": "2026-06-10 00:01:00"
      }
    },
    {
      "id": "38340013",
      "lat": 45.306,
      "lon": 5.624,
      "cp": "38340",
      "ville": "VOREPPE",
      "prix": {
        "Gazole": 0.001966,
        "E85": 0.000844,
        "E10": 0.001903,
        "SP98": 0.00199
      },
      "maj_gouv": {
        "Gazole": "2026-06-10 00:01:00",
        "E85": "2026-06-10 00:01:00",
        "E10": "2026-06-10 00:01:00",
        "SP98": "2026-06-10 00:01:00"
      }
    },
    {
      "id": "38660001",
      "lat": 45.362,
      "lon": 5.955,
      "cp": "38660",
      "ville": "Le Touvet",
      "prix": {
        "Gazole": 0.002042,
        "E85": 0.000856,
        "E10": 0.00199,
        "SP98": 0.00199
      },
      "maj_gouv": {
        "Gazole": "2026-06-09 20:05:46",
        "E85": "2026-06-09 20:05:46",
        "E10": "2026-06-09 20:05:46",
        "SP98": "2026-06-09 20:05:46"
      }
    },
    {
      "id": "38290006",
      "lat": 45.668,
      "lon": 5.143,
      "cp": "38290",
      "ville": "Satolas-et-Bonce",
      "prix": {
        "Gazole": 0.002099,
        "SP95": 0.002079,
        "SP98": 0.002129
      },
      "maj_gouv": {
        "Gazole": "2026-06-05 23:59:00",
        "SP95": "2026-06-05 23:59:00",
        "SP98": "2026-06-05 23:59:00"
      }
    },
    {
      "id": "38300022",
      "lat": 45.585,
      "lon": 5.285,
      "cp": "38300",
      "ville": "Bourgoin-Jallieu",
      "prix": {
        "Gazole": 0.002054,
        "E85": 0.000847,
        "E10": 0.001988,
        "SP98": 0.002197
      },
      "maj_gouv": {
        "Gazole": "2026-06-09 09:38:43",
        "E85": "2026-05-29 07:46:22",
        "E10": "2026-06-09 09:38:43",
        "SP98": "2026-05-29 07:46:22"
      }
    },
    {
      "id": "38300008",
      "lat": 45.594,
      "lon": 5.269,
      "cp": "38300",
      "ville": "BOURGOIN-JALLIEU",
      "prix": {
        "Gazole": 0.001939,
        "SP95": 0.0019690000000000003,
        "E85": 0.000757,
        "GPLc": 0.000969,
        "E10": 0.001899,
        "SP98": 0.0019890000000000003
      },
      "maj_gouv": {
        "Gazole": "2026-06-10 06:45:00",
        "SP95": "2026-06-10 06:45:00",
        "E85": "2026-04-16 06:45:00",
        "GPLc": "2026-05-12 11:47:48",
        "E10": "2026-06-10 06:45:00",
        "SP98": "2026-06-10 06:45:00"
      }
    },
    {
      "id": "38490005",
      "lat": 45.592,
      "lon": 5.609,
      "cp": "38490",
      "ville": "Aoste",
      "prix": {
        "Gazole": 0.002029,
        "GPLc": 0.0011799999999999998,
        "E10": 0.001949,
        "SP98": 0.002069
      },
      "maj_gouv": {
        "Gazole": "2026-06-05 17:00:49",
        "GPLc": "2026-05-28 12:24:46",
        "E10": "2026-06-05 17:00:49",
        "SP98": "2026-06-05 17:00:49"
      }
    },
    {
      "id": "38510004",
      "lat": 45.673,
      "lon": 5.471,
      "cp": "38510",
      "ville": "Morestel",
      "prix": {
        "Gazole": 0.0022,
        "SP95": 0.0022299999999999998,
        "SP98": 0.00227
      },
      "maj_gouv": {
        "Gazole": "2026-05-27 13:55:43",
        "SP95": "2026-05-27 13:55:43",
        "SP98": "2026-05-27 13:55:43"
      }
    },
    {
      "id": "38200004",
      "lat": 45.542206358718,
      "lon": 4.85130178351,
      "cp": "38200",
      "ville": "Vienne",
      "prix": {
        "Gazole": 0.001999,
        "SP95": 0.0019890000000000003,
        "E85": 0.000799,
        "E10": 0.0019590000000000002,
        "SP98": 0.002099
      },
      "maj_gouv": {
        "Gazole": "2026-06-09 09:28:53",
        "SP95": "2026-06-09 09:28:53",
        "E85": "2026-04-24 09:01:40",
        "E10": "2026-06-09 09:28:53",
        "SP98": "2026-06-09 09:28:54"
      }
    },
    {
      "id": "38490004",
      "lat": 45.53021,
      "lon": 5.58917,
      "cp": "38490",
      "ville": "Charancieu",
      "prix": {
        "Gazole": 0.0019470000000000002,
        "E10": 0.001909,
        "SP98": 0.002029
      },
      "maj_gouv": {
        "Gazole": "2026-06-09 08:44:50",
        "E10": "2026-06-05 10:03:51",
        "SP98": "2026-06-05 10:03:51"
      }
    },
    {
      "id": "38320005",
      "lat": 45.14251,
      "lon": 5.73473,
      "cp": "38320",
      "ville": "Bresson",
      "prix": {
        "Gazole": 0.001961,
        "SP95": 0.001986,
        "E10": 0.0019019999999999998,
        "SP98": 0.002
      },
      "maj_gouv": {
        "Gazole": "2026-06-08 10:50:28",
        "SP95": "2026-06-08 10:50:29",
        "E10": "2026-06-08 10:50:29",
        "SP98": "2026-06-08 10:50:29"
      }
    },
    {
      "id": "38230001",
      "lat": 45.752,
      "lon": 5.175,
      "cp": "38230",
      "ville": "PONT-DE-CHéRUY",
      "prix": {
        "Gazole": 0.0019790000000000003,
        "SP95": 0.002018,
        "SP98": 0.002029
      },
      "maj_gouv": {
        "Gazole": "2026-06-09 10:43:26",
        "SP95": "2026-06-09 10:43:26",
        "SP98": "2026-06-09 10:43:26"
      }
    },
    {
      "id": "38090005",
      "lat": 45.616,
      "lon": 5.144,
      "cp": "38090",
      "ville": "VILLEFONTAINE",
      "prix": {
        "Gazole": 0.001961,
        "SP98": 0.001983
      },
      "maj_gouv": {
        "Gazole": "2026-06-08 13:27:27",
        "SP98": "2026-06-08 13:27:27"
      }
    },
    {
      "id": "38500001",
      "lat": 45.385,
      "lon": 5.578,
      "cp": "38500",
      "ville": "VOIRON",
      "prix": {
        "Gazole": 0.0019790000000000003,
        "SP95": 0.001999,
        "SP98": 0.002027
      },
      "maj_gouv": {
        "Gazole": "2026-06-09 10:59:58",
        "SP95": "2026-06-09 10:59:58",
        "SP98": "2026-06-09 10:59:58"
      }
    },
    {
      "id": "38340012",
      "lat": 45.305,
      "lon": 5.623,
      "cp": "38340",
      "ville": "VOREPPE",
      "prix": {
        "Gazole": 0.001966,
        "E85": 0.000844,
        "E10": 0.001903,
        "SP98": 0.00199
      },
      "maj_gouv": {
        "Gazole": "2026-06-10 00:01:00",
        "E85": "2026-06-10 00:01:00",
        "E10": "2026-06-10 00:01:00",
        "SP98": "2026-06-10 00:01:00"
      }
    },
    {
      "id": "38980001",
      "lat": 45.321,
      "lon": 5.207,
      "cp": "38980",
      "ville": "Viriville",
      "prix": {
        "Gazole": 0.00213,
        "SP95": 0.00199,
        "SP98": 0.00199
      },
      "maj_gouv": {
        "Gazole": "2026-06-09 05:30:00",
        "SP95": "2026-06-09 05:30:00",
        "SP98": "2026-06-09 05:30:00"
      }
    },
    {
      "id": "38250002",
      "lat": 45.088,
      "lon": 5.558,
      "cp": "38250",
      "ville": "VILLARD-DE-LANS",
      "prix": {
        "Gazole": 0.001952,
        "SP95": 0.001986,
        "E10": 0.001908,
        "SP98": 0.002019
      },
      "maj_gouv": {
        "Gazole": "2026-06-09 11:43:46",
        "SP95": "2026-06-09 11:43:46",
        "E10": "2026-06-09 11:43:46",
        "SP98": "2026-06-09 11:43:46"
      }
    },
    {
      "id": "38180001",
      "lat": 45.16,
      "lon": 5.695,
      "cp": "38180",
      "ville": "Seyssins",
      "prix": {
        "Gazole": 0.0019479999999999999,
        "SP95": 0.001986,
        "E85": 0.000798,
        "E10": 0.0019019999999999998,
        "SP98": 0.002
      },
      "maj_gouv": {
        "Gazole": "2026-06-09 08:54:09",
        "SP95": "2026-06-08 08:47:51",
        "E85": "2026-05-15 15:54:50",
        "E10": "2026-06-08 08:47:52",
        "SP98": "2026-06-08 08:47:52"
      }
    },
    {
      "id": "38240004",
      "lat": 45.21538,
      "lon": 5.78144,
      "cp": "38240",
      "ville": "MEYLAN",
      "prix": {
        "Gazole": 0.002099,
        "E10": 0.002049,
        "SP98": 0.002149
      },
      "maj_gouv": {
        "Gazole": "2026-06-10 07:00:00",
        "E10": "2026-06-10 07:00:00",
        "SP98": "2026-06-10 07:00:00"
      }
    },
    {
      "id": "38320002",
      "lat": 45.15,
      "lon": 5.75,
      "cp": "38320",
      "ville": "Eybens",
      "prix": {
        "Gazole": 0.00197,
        "E85": 0.000978,
        "E10": 0.001911,
        "SP98": 0.002009
      },
      "maj_gouv": {
        "Gazole": "2026-06-09 06:30:00",
        "E85": "2026-06-09 06:30:00",
        "E10": "2026-06-09 06:30:00",
        "SP98": "2026-06-09 06:30:00"
      }
    },
    {
      "id": "38430002",
      "lat": 45.327,
      "lon": 5.576,
      "cp": "38430",
      "ville": "Moirans",
      "prix": {
        "Gazole": 0.001954,
        "E10": 0.001899,
        "SP98": 0.002042
      },
      "maj_gouv": {
        "Gazole": "2026-06-09 15:41:00",
        "E10": "2026-06-09 15:41:00",
        "SP98": "2026-06-09 15:41:00"
      }
    },
    {
      "id": "38480007",
      "lat": 45.578,
      "lon": 5.634,
      "cp": "38480",
      "ville": "ROMAGNIEU",
      "prix": {
        "Gazole": 0.0022280000000000004,
        "GPLc": 0.001098,
        "E10": 0.002092,
        "SP98": 0.0022589999999999997
      },
      "maj_gouv": {
        "Gazole": "2026-06-09 07:41:00",
        "GPLc": "2026-06-09 07:41:00",
        "E10": "2026-06-09 07:41:00",
        "SP98": "2026-06-09 07:41:00"
      }
    },
    {
      "id": "38500005",
      "lat": 45.378,
      "lon": 5.582,
      "cp": "38500",
      "ville": "VOIRON",
      "prix": {
        "Gazole": 0.001988,
        "E10": 0.002008,
        "SP98": 0.002068
      },
      "maj_gouv": {
        "Gazole": "2026-06-09 15:41:00",
        "E10": "2026-06-09 15:41:00",
        "SP98": "2026-06-09 15:41:00"
      }
    },
    {
      "id": "38550001",
      "lat": 45.377714399138,
      "lon": 4.795432297657,
      "cp": "38550",
      "ville": "LE PéAGE-DE-ROUSSILLON",
      "prix": {
        "Gazole": 0.001941,
        "E85": 0.000798,
        "E10": 0.0018720000000000002,
        "SP98": 0.002028
      },
      "maj_gouv": {
        "Gazole": "2026-06-09 08:55:45",
        "E85": "2026-05-18 08:37:22",
        "E10": "2026-06-09 08:55:45",
        "SP98": "2026-06-05 08:26:17"
      }
    },
    {
      "id": "38100013",
      "lat": 45.18,
      "lon": 5.712,
      "cp": "38100",
      "ville": "GRENOBLE",
      "prix": {
        "Gazole": 0.002079,
        "E85": 0.000929,
        "E10": 0.0019790000000000003,
        "SP98": 0.002149
      },
      "maj_gouv": {
        "Gazole": "2026-06-10 06:25:29",
        "E85": "2026-06-10 06:25:30",
        "E10": "2026-06-10 06:25:29",
        "SP98": "2026-06-10 06:25:30"
      }
    },
    {
      "id": "38450002",
      "lat": 45.048490039600004,
      "lon": 5.66907863013,
      "cp": "38450",
      "ville": "VIF",
      "prix": {
        "Gazole": 0.002159,
        "E85": 0.000919,
        "E10": 0.002079
      },
      "maj_gouv": {
        "Gazole": "2026-06-09 14:00:00",
        "E85": "2026-06-09 14:00:00",
        "E10": "2026-06-09 14:00:00"
      }
    },
    {
      "id": "38920002",
      "lat": 45.274,
      "lon": 5.886,
      "cp": "38920",
      "ville": "Crolles",
      "prix": {
        "Gazole": 0.002064,
        "SP95": 0.0019790000000000003,
        "E10": 0.001958,
        "SP98": 0.002065
      },
      "maj_gouv": {
        "Gazole": "2026-06-09 07:00:00",
        "SP95": "2026-06-09 07:00:00",
        "E10": "2026-06-08 07:29:15",
        "SP98": "2026-06-08 07:29:16"
      }
    },
    {
      "id": "38350004",
      "lat": 44.934,
      "lon": 5.782,
      "cp": "38350",
      "ville": "La Mure",
      "prix": {
        "Gazole": 0.001967,
        "E85": 0.000798,
        "E10": 0.00188,
        "SP98": 0.001986
      },
      "maj_gouv": {
        "Gazole": "2026-06-08 09:21:55",
        "E85": "2026-06-08 09:21:55",
        "E10": "2026-06-08 09:21:55",
        "SP98": "2026-06-08 09:21:55"
      }
    },
    {
      "id": "38930001",
      "lat": 44.823,
      "lon": 5.621,
      "cp": "38930",
      "ville": "CLELLES en TRIEVES",
      "prix": {
        "Gazole": 0.002149,
        "E85": 0.000989,
        "E10": 0.0021579999999999998,
        "SP98": 0.0021920000000000004
      },
      "maj_gouv": {
        "Gazole": "2026-06-06 17:30:03",
        "E85": "2026-06-06 17:30:03",
        "E10": "2026-06-06 17:30:03",
        "SP98": "2026-06-06 17:30:03"
      }
    },
    {
      "id": "38630003",
      "lat": 45.61,
      "lon": 5.537,
      "cp": "38630",
      "ville": "Corbelin",
      "prix": {
        "Gazole": 0.001999,
        "E10": 0.0019890000000000003
      },
      "maj_gouv": {
        "Gazole": "2026-06-02 09:43:00",
        "E10": "2026-06-02 16:16:39"
      }
    },
    {
      "id": "38300018",
      "lat": 45.586,
      "lon": 5.269,
      "cp": "38300",
      "ville": "BOURGOIN JALLIEU",
      "prix": {
        "Gazole": 0.0020440000000000002,
        "E85": 0.000842,
        "E10": 0.001984,
        "SP98": 0.00199
      },
      "maj_gouv": {
        "Gazole": "2026-06-10 00:01:00",
        "E85": "2026-06-10 00:01:00",
        "E10": "2026-06-10 00:01:00",
        "SP98": "2026-06-10 00:01:00"
      }
    },
    {
      "id": "38150001",
      "lat": 45.34,
      "lon": 4.805,
      "cp": "38150",
      "ville": "SALAISE-SUR-SANNE",
      "prix": {
        "Gazole": 0.0019590000000000002,
        "SP95": 0.001975,
        "E85": 0.00083,
        "GPLc": 0.000969,
        "E10": 0.001887,
        "SP98": 0.0020670000000000003
      },
      "maj_gouv": {
        "Gazole": "2026-06-09 12:05:31",
        "SP95": "2026-06-04 16:56:13",
        "E85": "2026-06-05 13:34:24",
        "GPLc": "2026-05-07 10:43:44",
        "E10": "2026-06-08 11:49:47",
        "SP98": "2026-05-29 07:16:25"
      }
    },
    {
      "id": "38320003",
      "lat": 45.163,
      "lon": 5.743,
      "cp": "38320",
      "ville": "EYBENS",
      "prix": {
        "Gazole": 0.002069,
        "E10": 0.0019790000000000003,
        "SP98": 0.002079
      },
      "maj_gouv": {
        "Gazole": "2026-06-09 20:00:00",
        "E10": "2026-06-09 20:00:00",
        "SP98": "2026-06-09 20:00:00"
      }
    },
    {
      "id": "38500007",
      "lat": 45.357,
      "lon": 5.593,
      "cp": "38500",
      "ville": "VOIRON",
      "prix": {
        "Gazole": 0.001965,
        "E85": 0.000829,
        "GPLc": 0.000998,
        "E10": 0.001911,
        "SP98": 0.00199
      },
      "maj_gouv": {
        "Gazole": "2026-06-10 00:01:00",
        "E85": "2026-06-10 00:01:00",
        "GPLc": "2026-06-10 00:01:00",
        "E10": "2026-06-10 00:01:00",
        "SP98": "2026-06-10 00:01:00"
      }
    },
    {
      "id": "38380002",
      "lat": 45.391,
      "lon": 5.739,
      "cp": "38380",
      "ville": "Saint-Laurent-du-Pont",
      "prix": {
        "Gazole": 0.002079,
        "E85": 0.000967,
        "E10": 0.002069,
        "SP98": 0.002108
      },
      "maj_gouv": {
        "Gazole": "2026-06-02 19:32:38",
        "E85": "2026-05-12 20:18:25",
        "E10": "2026-06-02 19:32:39",
        "SP98": "2026-06-02 19:32:39"
      }
    },
    {
      "id": "38700001",
      "lat": 45.196,
      "lon": 5.753,
      "cp": "38700",
      "ville": "La Tronche",
      "prix": {
        "Gazole": 0.0020259999999999996,
        "E85": 0.0010429999999999999,
        "E10": 0.001963,
        "SP98": 0.002054
      },
      "maj_gouv": {
        "Gazole": "2026-06-04 08:31:40",
        "E85": "2026-05-12 07:15:47",
        "E10": "2026-06-04 08:31:40",
        "SP98": "2026-06-04 08:31:40"
      }
    },
    {
      "id": "38140009",
      "lat": 45.342,
      "lon": 5.495,
      "cp": "38140",
      "ville": "Renage",
      "prix": {
        "Gazole": 0.001972,
        "SP95": 0.001999,
        "SP98": 0.002139
      },
      "maj_gouv": {
        "Gazole": "2026-06-09 10:14:29",
        "SP95": "2026-06-09 10:14:29",
        "SP98": "2026-06-09 10:14:29"
      }
    },
    {
      "id": "38170004",
      "lat": 45.1758,
      "lon": 5.69701,
      "cp": "38170",
      "ville": "SEYSSINET",
      "prix": {
        "Gazole": 0.001956,
        "E10": 0.0019010000000000001,
        "SP98": 0.00199
      },
      "maj_gouv": {
        "Gazole": "2026-06-10 00:01:00",
        "E10": "2026-06-10 00:01:00",
        "SP98": "2026-06-10 00:01:00"
      }
    },
    {
      "id": "38460004",
      "lat": 45.72364366177,
      "lon": 5.22386299933,
      "cp": "38460",
      "ville": "Villemoirieu",
      "prix": {
        "Gazole": 0.001999,
        "E85": 0.000879,
        "E10": 0.00199,
        "SP98": 0.002049
      },
      "maj_gouv": {
        "Gazole": "2026-06-05 08:34:39",
        "E85": "2026-04-29 16:31:24",
        "E10": "2026-06-05 08:34:39",
        "SP98": "2026-06-05 08:34:39"
      }
    },
    {
      "id": "38290003",
      "lat": 45.641,
      "lon": 5.137,
      "cp": "38290",
      "ville": "La Verpillière",
      "prix": {
        "Gazole": 0.002039,
        "E85": 0.000859,
        "E10": 0.00198,
        "SP98": 0.00199
      },
      "maj_gouv": {
        "Gazole": "2026-06-09 19:32:52",
        "E85": "2026-06-09 19:32:52",
        "E10": "2026-06-09 19:32:53",
        "SP98": "2026-06-09 19:32:53"
      }
    },
    {
      "id": "38090004",
      "lat": 45.615,
      "lon": 5.158,
      "cp": "38090",
      "ville": "Villefontaine",
      "prix": {
        "Gazole": 0.002089,
        "SP95": 0.002069,
        "SP98": 0.002099
      },
      "maj_gouv": {
        "Gazole": "2026-06-06 06:35:00",
        "SP95": "2026-06-06 06:35:00",
        "SP98": "2026-06-06 06:35:00"
      }
    },
    {
      "id": "38142001",
      "lat": 45.046,
      "lon": 6.127,
      "cp": "38142",
      "ville": "Le Freney-d'Oisans",
      "prix": {
        "Gazole": 0.002129,
        "SP95": 0.002079,
        "SP98": 0.002109
      },
      "maj_gouv": {
        "Gazole": "2026-06-06 09:00:12",
        "SP95": "2026-06-06 09:00:12",
        "SP98": "2026-06-06 09:00:13"
      }
    },
    {
      "id": "38370003",
      "lat": 45.438,
      "lon": 4.77,
      "cp": "38370",
      "ville": "Saint-Clair-du-Rhône",
      "prix": {
        "Gazole": 0.00202,
        "SP95": 0.002039,
        "E85": 0.000769,
        "E10": 0.001999
      },
      "maj_gouv": {
        "Gazole": "2026-06-05 09:28:33",
        "SP95": "2026-06-02 09:21:58",
        "E85": "2026-02-21 23:59:00",
        "E10": "2026-06-02 09:21:58"
      }
    },
    {
      "id": "38540001",
      "lat": 45.639,
      "lon": 5.044,
      "cp": "38540",
      "ville": "HEYRIEUX",
      "prix": {
        "Gazole": 0.0019790000000000003,
        "E85": 0.000798,
        "E10": 0.0019190000000000001,
        "SP98": 0.002029
      },
      "maj_gouv": {
        "Gazole": "2026-06-10 07:05:06",
        "E85": "2026-05-20 12:11:37",
        "E10": "2026-06-03 07:14:58",
        "SP98": "2026-06-03 07:14:58"
      }
    },
    {
      "id": "38200017",
      "lat": 45.538,
      "lon": 4.874,
      "cp": "38200",
      "ville": "Vienne",
      "prix": {
        "Gazole": 0.001999,
        "SP95": 0.00199,
        "E85": 0.0020499999999999997
      },
      "maj_gouv": {
        "Gazole": "2026-06-02 08:11:23",
        "SP95": "2026-06-02 08:11:23",
        "E85": "2026-06-02 08:11:23"
      }
    },
    {
      "id": "38480006",
      "lat": 45.536,
      "lon": 5.645,
      "cp": "38480",
      "ville": "Le Pont-de-Beauvoisin",
      "prix": {
        "Gazole": 0.0019590000000000002,
        "E10": 0.0019590000000000002,
        "SP98": 0.002195
      },
      "maj_gouv": {
        "Gazole": "2026-05-30 09:56:37",
        "E10": "2026-06-01 16:52:41",
        "SP98": "2026-05-20 00:10:00"
      }
    },
    {
      "id": "38750001",
      "lat": 45.088,
      "lon": 6.073,
      "cp": "38750",
      "ville": "ALPE D'HUEZ",
      "prix": {
        "Gazole": 0.00225,
        "SP95": 0.00226,
        "SP98": 0.0023
      },
      "maj_gouv": {
        "Gazole": "2026-05-21 16:28:13",
        "SP95": "2026-05-21 16:28:13",
        "SP98": "2026-05-21 16:28:13"
      }
    },
    {
      "id": "38550002",
      "lat": 45.421,
      "lon": 4.817,
      "cp": "38550",
      "ville": "Auberives sur Vareze",
      "prix": {
        "Gazole": 0.0020310000000000003,
        "E10": 0.001993,
        "SP98": 0.002072
      },
      "maj_gouv": {
        "Gazole": "2026-06-05 09:08:14",
        "E10": "2026-06-05 09:08:14",
        "SP98": "2026-06-05 09:08:14"
      }
    },
    {
      "id": "38780003",
      "lat": 45.5669888,
      "lon": 5.0081483,
      "cp": "38780",
      "ville": "OYTIER ST OBLAS",
      "prix": {
        "Gazole": 0.001999,
        "E10": 0.0019790000000000003,
        "SP98": 0.002099
      },
      "maj_gouv": {
        "Gazole": "2026-06-08 11:12:19",
        "E10": "2026-06-05 11:46:44",
        "SP98": "2026-06-05 11:46:44"
      }
    },
    {
      "id": "38710003",
      "lat": 44.815,
      "lon": 5.751,
      "cp": "38710",
      "ville": "MENS",
      "prix": {
        "Gazole": 0.002179,
        "SP95": 0.00199
      },
      "maj_gouv": {
        "Gazole": "2026-06-08 17:26:02",
        "SP95": "2026-05-19 08:05:57"
      }
    },
    {
      "id": "38260003",
      "lat": 45.387,
      "lon": 5.368,
      "cp": "38260",
      "ville": "La Frette",
      "prix": {
        "Gazole": 0.002024,
        "E10": 0.00199,
        "SP98": 0.00199
      },
      "maj_gouv": {
        "Gazole": "2026-06-09 21:12:27",
        "E10": "2026-06-06 08:59:35",
        "SP98": "2026-06-05 13:09:47"
      }
    },
    {
      "id": "38210001",
      "lat": 45.294,
      "lon": 5.509,
      "cp": "38210",
      "ville": "Tullins",
      "prix": {
        "Gazole": 0.002099,
        "E10": 0.002019,
        "SP98": 0.002179
      },
      "maj_gouv": {
        "Gazole": "2026-06-05 08:00:00",
        "E10": "2026-06-05 08:00:00",
        "SP98": "2026-06-05 08:00:00"
      }
    },
    {
      "id": "38350001",
      "lat": 44.913,
      "lon": 5.798,
      "cp": "38350",
      "ville": "La Mure",
      "prix": {
        "Gazole": 0.0019690000000000003,
        "GPLc": 0.00109,
        "E10": 0.00189,
        "SP98": 0.0019890000000000003
      },
      "maj_gouv": {
        "Gazole": "2026-06-09 11:01:02",
        "GPLc": "2026-06-09 11:01:02",
        "E10": "2026-06-09 11:01:02",
        "SP98": "2026-06-09 11:01:02"
      }
    },
    {
      "id": "38660002",
      "lat": 45.349,
      "lon": 5.946,
      "cp": "38660",
      "ville": "Le Touvet",
      "prix": {
        "Gazole": 0.002149,
        "E85": 0.000919,
        "E10": 0.002089,
        "SP98": 0.002189
      },
      "maj_gouv": {
        "Gazole": "2026-06-09 14:02:58",
        "E85": "2026-05-26 13:57:07",
        "E10": "2026-06-09 14:02:58",
        "SP98": "2026-05-29 14:00:18"
      }
    },
    {
      "id": "38970000",
      "lat": 44.817248642167,
      "lon": 5.948428225132,
      "cp": "38970",
      "ville": "Corps",
      "prix": {
        "Gazole": 0.002198,
        "SP95": 0.00199
      },
      "maj_gouv": {
        "Gazole": "2026-06-06 09:25:42",
        "SP95": "2026-06-06 09:25:42"
      }
    },
    {
      "id": "38210003",
      "lat": 45.297,
      "lon": 5.502,
      "cp": "38210",
      "ville": "TULLINS",
      "prix": {
        "Gazole": 0.002189,
        "E10": 0.002159,
        "SP98": 0.0022389999999999997
      },
      "maj_gouv": {
        "Gazole": "2026-06-01 19:10:00",
        "E10": "2026-06-01 19:10:00",
        "SP98": "2026-06-01 19:10:00"
      }
    },
    {
      "id": "38860001",
      "lat": 45.019,
      "lon": 6.125,
      "cp": "38860",
      "ville": "Les Deux-Alpes",
      "prix": {
        "Gazole": 0.00225,
        "SP95": 0.0022299999999999998,
        "SP98": 0.00226
      },
      "maj_gouv": {
        "Gazole": "2026-05-22 11:30:09",
        "SP95": "2026-05-22 11:30:09",
        "SP98": "2026-05-22 11:30:09"
      }
    },
    {
      "id": "38290005",
      "lat": 45.641913325291,
      "lon": 5.1311499421142,
      "cp": "38290",
      "ville": "La Verpillière",
      "prix": {
        "Gazole": 0.001999,
        "E85": 0.000829,
        "GPLc": 0.001039,
        "E10": 0.0019790000000000003,
        "SP98": 0.002079
      },
      "maj_gouv": {
        "Gazole": "2026-06-09 10:55:47",
        "E85": "2026-05-20 07:55:07",
        "GPLc": "2026-05-15 09:24:30",
        "E10": "2026-06-08 08:00:59",
        "SP98": "2026-06-09 07:45:27"
      }
    },
    {
      "id": "38850002",
      "lat": 45.427,
      "lon": 5.516,
      "cp": "38850",
      "ville": "CHARAVINES",
      "prix": {
        "Gazole": 0.002205
      },
      "maj_gouv": {
        "Gazole": "2026-05-26 15:07:34"
      }
    },
    {
      "id": "38630005",
      "lat": 45.629,
      "lon": 5.577,
      "cp": "38630",
      "ville": "LES AVENIERES VEYRINS THUELLIN",
      "prix": {
        "Gazole": 0.0020499999999999997,
        "E85": 0.000798,
        "E10": 0.0019690000000000003,
        "SP98": 0.002089
      },
      "maj_gouv": {
        "Gazole": "2026-05-29 17:40:04",
        "E85": "2026-05-22 17:10:48",
        "E10": "2026-06-05 17:01:56",
        "SP98": "2026-06-05 17:01:57"
      }
    },
    {
      "id": "38080007",
      "lat": 45.612,
      "lon": 5.21,
      "cp": "38080",
      "ville": "L'Isle-d'Abeau",
      "prix": {
        "Gazole": 0.002229,
        "E85": 0.001055,
        "GPLc": 0.00116,
        "E10": 0.002179,
        "SP98": 0.0022789999999999998
      },
      "maj_gouv": {
        "Gazole": "2026-06-03 06:00:00",
        "E85": "2026-06-03 06:00:00",
        "GPLc": "2026-06-03 06:00:00",
        "E10": "2026-06-03 06:00:00",
        "SP98": "2026-06-03 06:00:00"
      }
    },
    {
      "id": "38140001",
      "lat": 45.358,
      "lon": 5.493,
      "cp": "38140",
      "ville": "RIVES",
      "prix": {
        "Gazole": 0.002022,
        "E10": 0.001926,
        "SP98": 0.0020510000000000003
      },
      "maj_gouv": {
        "Gazole": "2026-06-09 08:32:37",
        "E10": "2026-06-09 08:32:37",
        "SP98": "2026-06-09 08:32:37"
      }
    },
    {
      "id": "38510003",
      "lat": 45.684,
      "lon": 5.451,
      "cp": "38510",
      "ville": "Passins",
      "prix": {
        "Gazole": 0.001939,
        "E85": 0.000798,
        "GPLc": 0.000919,
        "E10": 0.001869
      },
      "maj_gouv": {
        "Gazole": "2026-06-08 20:00:00",
        "E85": "2026-05-13 10:07:47",
        "GPLc": "2026-05-13 17:38:11",
        "E10": "2026-06-08 20:00:00"
      }
    },
    {
      "id": "38230002",
      "lat": 45.752,
      "lon": 5.193,
      "cp": "38230",
      "ville": "Tignieu-Jameyzieu",
      "prix": {
        "Gazole": 0.002083,
        "E10": 0.00199,
        "SP98": 0.00199
      },
      "maj_gouv": {
        "Gazole": "2026-06-09 10:07:47",
        "E10": "2026-06-09 10:07:48",
        "SP98": "2026-06-09 10:07:48"
      }
    },
    {
      "id": "38480005",
      "lat": 45.577923957245,
      "lon": 5.6305877865600005,
      "cp": "38480",
      "ville": "Le Pont-de-Beauvoisin",
      "prix": {
        "Gazole": 0.002229,
        "E85": 0.001055,
        "GPLc": 0.00116,
        "E10": 0.002179,
        "SP98": 0.0022789999999999998
      },
      "maj_gouv": {
        "Gazole": "2026-06-03 06:00:00",
        "E85": "2026-05-13 07:16:55",
        "GPLc": "2026-05-12 06:00:00",
        "E10": "2026-06-03 06:00:00",
        "SP98": "2026-06-03 06:00:00"
      }
    },
    {
      "id": "38780001",
      "lat": 45.528,
      "lon": 4.915,
      "cp": "38780",
      "ville": "PONT-ÉVêQUE",
      "prix": {
        "Gazole": 0.002016,
        "E10": 0.0019199999999999998,
        "SP98": 0.002045
      },
      "maj_gouv": {
        "Gazole": "2026-06-09 07:53:09",
        "E10": "2026-06-09 07:53:09",
        "SP98": "2026-06-09 07:53:09"
      }
    },
    {
      "id": "38300021",
      "lat": 45.59,
      "lon": 5.242,
      "cp": "38300",
      "ville": "BOURGOIN",
      "prix": {
        "Gazole": 0.002049,
        "E10": 0.0019790000000000003,
        "SP98": 0.002099
      },
      "maj_gouv": {
        "Gazole": "2026-06-08 09:32:18",
        "E10": "2026-06-05 08:50:59",
        "SP98": "2026-06-05 08:50:59"
      }
    },
    {
      "id": "38260004",
      "lat": 45.352,
      "lon": 5.254,
      "cp": "38260",
      "ville": "La Côte-Saint-André",
      "prix": {
        "Gazole": 0.002045,
        "GPLc": 0.00107,
        "E10": 0.001987,
        "SP98": 0.00199
      },
      "maj_gouv": {
        "Gazole": "2026-06-10 06:45:00",
        "GPLc": "2026-06-06 08:02:20",
        "E10": "2026-06-10 06:45:00",
        "SP98": "2026-06-06 08:02:21"
      }
    },
    {
      "id": "38870001",
      "lat": 45.335058085041,
      "lon": 5.2656225241942005,
      "cp": "38870",
      "ville": "Saint-Siméon-de-Bressieux",
      "prix": {
        "Gazole": 0.00195,
        "E85": 0.000798,
        "E10": 0.001939,
        "SP98": 0.002019
      },
      "maj_gouv": {
        "Gazole": "2026-06-09 11:55:43",
        "E85": "2026-05-29 16:06:45",
        "E10": "2026-06-02 12:16:49",
        "SP98": "2026-06-02 12:16:50"
      }
    },
    {
      "id": "38120002",
      "lat": 45.248,
      "lon": 5.667,
      "cp": "38120",
      "ville": "Fontanil-Cornillon",
      "prix": {
        "Gazole": 0.0019619999999999998,
        "E85": 0.000859,
        "E10": 0.0019010000000000001
      },
      "maj_gouv": {
        "Gazole": "2026-06-09 23:59:00",
        "E85": "2026-06-05 23:59:00",
        "E10": "2026-06-09 23:59:00"
      }
    },
    {
      "id": "38520005",
      "lat": 45.059,
      "lon": 6.032,
      "cp": "38520",
      "ville": "Le Bourg-d'Oisans",
      "prix": {
        "Gazole": 0.001996,
        "E85": 0.000798,
        "E10": 0.001921,
        "SP98": 0.0020310000000000003
      },
      "maj_gouv": {
        "Gazole": "2026-06-09 11:58:47",
        "E85": "2026-06-05 12:38:05",
        "E10": "2026-06-09 11:58:47",
        "SP98": "2026-06-09 11:58:47"
      }
    },
    {
      "id": "38330006",
      "lat": 45.243577289359,
      "lon": 5.8607648908294,
      "cp": "38330",
      "ville": "Saint-Nazaire-les-Eymes",
      "prix": {
        "Gazole": 0.002229,
        "GPLc": 0.00116,
        "E10": 0.002179,
        "SP98": 0.0022789999999999998
      },
      "maj_gouv": {
        "Gazole": "2026-06-03 06:00:00",
        "GPLc": "2026-06-02 20:55:49",
        "E10": "2026-06-03 06:00:00",
        "SP98": "2026-06-03 06:00:00"
      }
    },
    {
      "id": "38200014",
      "lat": 45.52,
      "lon": 4.87,
      "cp": "38200",
      "ville": "Vienne",
      "prix": {
        "Gazole": 0.002088,
        "E10": 0.00199,
        "SP98": 0.00199
      },
      "maj_gouv": {
        "Gazole": "2026-06-08 18:45:23",
        "E10": "2026-06-05 18:56:59",
        "SP98": "2026-06-08 07:02:23"
      }
    },
    {
      "id": "38260002",
      "lat": 45.387,
      "lon": 5.369,
      "cp": "38260",
      "ville": "LA FRETTE",
      "prix": {
        "Gazole": 0.002024,
        "E10": 0.00199,
        "SP98": 0.00199
      },
      "maj_gouv": {
        "Gazole": "2026-06-09 19:49:58",
        "E10": "2026-06-09 19:49:58",
        "SP98": "2026-06-09 19:49:58"
      }
    },
    {
      "id": "38600003",
      "lat": 45.197,
      "lon": 5.673,
      "cp": "38600",
      "ville": "Fontaine",
      "prix": {
        "Gazole": 0.002006,
        "E85": 0.000877,
        "GPLc": 0.001,
        "E10": 0.001931,
        "SP98": 0.00199
      },
      "maj_gouv": {
        "Gazole": "2026-06-09 17:26:49",
        "E85": "2026-06-09 17:26:49",
        "GPLc": "2026-06-09 17:26:50",
        "E10": "2026-06-09 17:26:50",
        "SP98": "2026-06-09 17:26:50"
      }
    },
    {
      "id": "38160002",
      "lat": 45.144,
      "lon": 5.305,
      "cp": "38160",
      "ville": "Chatte",
      "prix": {
        "Gazole": 0.001997,
        "SP95": 0.002029,
        "GPLc": 0.001,
        "E10": 0.0019890000000000003,
        "SP98": 0.002069
      },
      "maj_gouv": {
        "Gazole": "2026-06-10 01:15:00",
        "SP95": "2026-06-10 01:15:00",
        "GPLc": "2026-06-10 01:15:00",
        "E10": "2026-06-10 01:15:00",
        "SP98": "2026-06-10 01:15:00"
      }
    },
    {
      "id": "38420003",
      "lat": 45.207,
      "lon": 5.828,
      "cp": "38420",
      "ville": "Domene",
      "prix": {
        "Gazole": 0.002025,
        "E10": 0.001939,
        "SP98": 0.002055
      },
      "maj_gouv": {
        "Gazole": "2026-06-10 06:02:07",
        "E10": "2026-06-10 06:02:07",
        "SP98": "2026-06-10 06:02:08"
      }
    },
    {
      "id": "38530001",
      "lat": 45.435356491454,
      "lon": 6.0059225038886,
      "cp": "38530",
      "ville": "PONTCHARRA",
      "prix": {
        "Gazole": 0.002023,
        "E10": 0.0020169999999999997,
        "SP98": 0.0022389999999999997
      },
      "maj_gouv": {
        "Gazole": "2026-06-09 08:21:35",
        "E10": "2026-06-05 08:42:34",
        "SP98": "2026-05-29 08:35:15"
      }
    },
    {
      "id": "38530004",
      "lat": 45.47,
      "lon": 5.993,
      "cp": "38530",
      "ville": "Chapareillan",
      "prix": {
        "Gazole": 0.0020259999999999996,
        "E85": 0.000798,
        "E10": 0.0020169999999999997,
        "SP98": 0.0022389999999999997
      },
      "maj_gouv": {
        "Gazole": "2026-06-08 14:06:45",
        "E85": "2026-05-16 09:23:49",
        "E10": "2026-06-05 10:02:10",
        "SP98": "2026-05-29 11:47:08"
      }
    },
    {
      "id": "38080003",
      "lat": 45.61432,
      "lon": 5.2251,
      "cp": "38080",
      "ville": "L'ISLE-D'ABEAU",
      "prix": {
        "Gazole": 0.0019790000000000003,
        "SP95": 0.002079,
        "E85": 0.000799,
        "E10": 0.001999,
        "SP98": 0.002019
      },
      "maj_gouv": {
        "Gazole": "2026-06-04 08:59:55",
        "SP95": "2026-06-04 08:59:55",
        "E85": "2026-06-04 08:59:55",
        "E10": "2026-06-04 08:59:55",
        "SP98": "2026-06-04 08:59:55"
      }
    },
    {
      "id": "38114002",
      "lat": 45.126,
      "lon": 6.033,
      "cp": "38114",
      "ville": "ALLEMOND",
      "prix": {
        "Gazole": 0.00216,
        "SP95": 0.0020800000000000003
      },
      "maj_gouv": {
        "Gazole": "2026-06-04 11:29:43",
        "SP95": "2026-06-04 11:29:43"
      }
    },
    {
      "id": "38270006",
      "lat": 45.341649573689004,
      "lon": 5.0652477531786,
      "cp": "38270",
      "ville": "ST BARTHELEMY DE BEAUREPAIRE",
      "prix": {
        "Gazole": 0.001957,
        "E10": 0.001939,
        "SP98": 0.002059
      },
      "maj_gouv": {
        "Gazole": "2026-06-09 14:25:04",
        "E10": "2026-06-09 14:25:04",
        "SP98": "2026-06-09 14:25:04"
      }
    },
    {
      "id": "38830002",
      "lat": 45.374469000000005,
      "lon": 6.051571999999999,
      "cp": "38830",
      "ville": "CRETS EN BELLEDONNE",
      "prix": {
        "Gazole": 0.002089,
        "E85": 0.000798,
        "E10": 0.001999
      },
      "maj_gouv": {
        "Gazole": "2026-06-01 07:00:41",
        "E85": "2026-05-22 11:34:01",
        "E10": "2026-06-01 07:00:42"
      }
    },
    {
      "id": "38300004",
      "lat": 45.586,
      "lon": 5.264,
      "cp": "38300",
      "ville": "Bourgoin-Jallieu",
      "prix": {
        "Gazole": 0.001988,
        "E10": 0.001958,
        "SP98": 0.002038
      },
      "maj_gouv": {
        "Gazole": "2026-06-04 11:20:00",
        "E10": "2026-06-04 11:20:00",
        "SP98": "2026-06-04 11:20:00"
      }
    },
    {
      "id": "38190004",
      "lat": 45.247,
      "lon": 5.868,
      "cp": "38330",
      "ville": "Saint-Nazaire-les-Eymes",
      "prix": {
        "Gazole": 0.0022480000000000004,
        "E10": 0.002179,
        "SP98": 0.0022789999999999998
      },
      "maj_gouv": {
        "Gazole": "2026-06-06 06:31:00",
        "E10": "2026-06-06 06:31:00",
        "SP98": "2026-06-06 06:31:00"
      }
    },
    {
      "id": "38160003",
      "lat": 45.161,
      "lon": 5.35,
      "cp": "38160",
      "ville": "SAINT-SAUVEUR",
      "prix": {
        "Gazole": 0.0019479999999999999,
        "E85": 0.000798,
        "E10": 0.0019890000000000003,
        "SP98": 0.002069
      },
      "maj_gouv": {
        "Gazole": "2026-06-09 10:11:21",
        "E85": "2026-05-15 14:07:29",
        "E10": "2026-06-09 10:11:21",
        "SP98": "2026-06-09 10:11:21"
      }
    },
    {
      "id": "38380003",
      "lat": 45.388,
      "lon": 5.73,
      "cp": "38380",
      "ville": "Saint-Laurent-du-Pont",
      "prix": {
        "Gazole": 0.001999,
        "E85": 0.000798,
        "E10": 0.001929,
        "SP98": 0.002019
      },
      "maj_gouv": {
        "Gazole": "2026-06-09 08:19:06",
        "E85": "2026-05-15 08:30:01",
        "E10": "2026-06-09 08:19:06",
        "SP98": "2026-06-09 08:19:06"
      }
    },
    {
      "id": "38440004",
      "lat": 45.496,
      "lon": 5.143,
      "cp": "38440",
      "ville": "SAINT JEAN DE BOURNAY",
      "prix": {
        "Gazole": 0.001955,
        "E85": 0.000798,
        "E10": 0.001899
      },
      "maj_gouv": {
        "Gazole": "2026-06-09 10:53:14",
        "E85": "2026-05-22 09:41:37",
        "E10": "2026-06-09 10:53:14"
      }
    },
    {
      "id": "38350006",
      "lat": 44.941,
      "lon": 5.763,
      "cp": "38350",
      "ville": "SUSVILLE",
      "prix": {},
      "maj_gouv": {}
    },
    {
      "id": "38420004",
      "lat": 45.212,
      "lon": 5.857,
      "cp": "38420",
      "ville": "LE VERSOUD",
      "prix": {
        "Gazole": 0.00206,
        "E10": 0.00199,
        "SP98": 0.00199
      },
      "maj_gouv": {
        "Gazole": "2026-06-10 06:07:58",
        "E10": "2026-06-10 06:07:58",
        "SP98": "2026-06-10 06:07:58"
      }
    },
    {
      "id": "38380001",
      "lat": 45.423,
      "lon": 5.773,
      "cp": "38380",
      "ville": "Entre-deux-Guiers",
      "prix": {
        "Gazole": 0.001999,
        "E10": 0.001929,
        "SP98": 0.002019
      },
      "maj_gouv": {
        "Gazole": "2026-06-09 10:33:30",
        "E10": "2026-06-09 10:33:30",
        "SP98": "2026-06-09 10:33:30"
      }
    },
    {
      "id": "38340015",
      "lat": 45.289,
      "lon": 5.639,
      "cp": "38340",
      "ville": "Voreppe",
      "prix": {
        "Gazole": 0.001999,
        "E85": 0.00085,
        "E10": 0.0019479999999999999
      },
      "maj_gouv": {
        "Gazole": "2026-06-09 07:17:15",
        "E85": "2026-05-18 08:26:05",
        "E10": "2026-06-05 09:29:42"
      }
    },
    {
      "id": "38500008",
      "lat": 45.363782,
      "lon": 5.5911230000000005,
      "cp": "38500",
      "ville": "VOIRON",
      "prix": {
        "Gazole": 0.0019850000000000002,
        "SP95": 0.001999,
        "SP98": 0.002022
      },
      "maj_gouv": {
        "Gazole": "2026-06-08 10:40:46",
        "SP95": "2026-06-08 10:40:46",
        "SP98": "2026-06-08 10:40:47"
      }
    },
    {
      "id": "38690006",
      "lat": 45.397578329194005,
      "lon": 5.466751273971799,
      "cp": "38690",
      "ville": "COLOMBE",
      "prix": {
        "Gazole": 0.001949,
        "SP95": 0.0019690000000000003,
        "E10": 0.001879,
        "SP98": 0.001999
      },
      "maj_gouv": {
        "Gazole": "2026-06-09 09:07:21",
        "SP95": "2026-06-08 09:20:40",
        "E10": "2026-06-09 09:07:21",
        "SP98": "2026-06-08 09:20:41"
      }
    },
    {
      "id": "38630006",
      "lat": 45.630258,
      "lon": 5.548851999999999,
      "cp": "38630",
      "ville": "VEYRINS THUELLIN",
      "prix": {
        "Gazole": 0.002059,
        "E10": 0.0019890000000000003,
        "SP98": 0.002169
      },
      "maj_gouv": {
        "Gazole": "2026-06-01 13:18:44",
        "E10": "2026-06-01 13:18:44",
        "SP98": "2026-06-01 13:18:44"
      }
    },
    {
      "id": "38340006",
      "lat": 45.3,
      "lon": 5.628,
      "cp": "38340",
      "ville": "VOREPPE",
      "prix": {
        "Gazole": 0.001999,
        "E10": 0.0019479999999999999,
        "SP98": 0.0020440000000000002
      },
      "maj_gouv": {
        "Gazole": "2026-06-09 07:16:35",
        "E10": "2026-06-05 09:30:29",
        "SP98": "2026-06-08 08:33:30"
      }
    },
    {
      "id": "38520001",
      "lat": 45.067,
      "lon": 6.022,
      "cp": "38520",
      "ville": "Le Bourg-d'Oisans",
      "prix": {
        "Gazole": 0.0020499999999999997,
        "E10": 0.00199,
        "SP98": 0.00199
      },
      "maj_gouv": {
        "Gazole": "2026-06-10 07:06:11",
        "E10": "2026-06-10 07:06:12",
        "SP98": "2026-06-10 07:06:12"
      }
    },
    {
      "id": "38270005",
      "lat": 45.341,
      "lon": 5.048,
      "cp": "38270",
      "ville": "Beaurepaire",
      "prix": {
        "Gazole": 0.001999,
        "E85": 0.0008399999999999999,
        "E10": 0.001949,
        "SP98": 0.002069
      },
      "maj_gouv": {
        "Gazole": "2026-06-09 08:00:49",
        "E85": "2026-06-02 14:04:09",
        "E10": "2026-06-09 08:00:50",
        "SP98": "2026-06-09 08:00:50"
      }
    },
    {
      "id": "38570005",
      "lat": 45.302,
      "lon": 5.952,
      "cp": "38570",
      "ville": "TENCIN",
      "prix": {
        "Gazole": 0.002059,
        "E10": 0.00202,
        "SP98": 0.00212
      },
      "maj_gouv": {
        "Gazole": "2026-06-04 05:48:14",
        "E10": "2026-06-04 05:48:14",
        "SP98": "2026-06-04 05:48:14"
      }
    },
    {
      "id": "38440003",
      "lat": 45.499,
      "lon": 5.138,
      "cp": "38440",
      "ville": "Saint-Jean-de-Bournay",
      "prix": {
        "Gazole": 0.0019450000000000001,
        "E85": 0.000798,
        "E10": 0.001899,
        "SP98": 0.002059
      },
      "maj_gouv": {
        "Gazole": "2026-06-09 09:31:38",
        "E85": "2026-05-22 07:36:34",
        "E10": "2026-06-09 09:31:38",
        "SP98": "2026-06-09 09:31:38"
      }
    },
    {
      "id": "38300024",
      "lat": 45.627446928568,
      "lon": 5.3053724861477,
      "cp": "38300",
      "ville": "st savin",
      "prix": {
        "Gazole": 0.002209,
        "E10": 0.00199,
        "SP98": 0.00199
      },
      "maj_gouv": {
        "Gazole": "2026-06-02 16:18:06",
        "E10": "2026-06-02 16:18:06",
        "SP98": "2026-06-02 16:18:06"
      }
    },
    {
      "id": "38590001",
      "lat": 45.354,
      "lon": 5.334,
      "cp": "38590",
      "ville": "SAINT-ÉTIENNE-DE-SAINT-GEOIRS",
      "prix": {
        "Gazole": 0.0019890000000000003,
        "E85": 0.000798,
        "E10": 0.001949,
        "SP98": 0.002029
      },
      "maj_gouv": {
        "Gazole": "2026-06-08 08:25:00",
        "E85": "2026-06-09 08:25:00",
        "E10": "2026-06-08 08:25:00",
        "SP98": "2026-06-05 08:25:00"
      }
    },
    {
      "id": "38110004",
      "lat": 45.568,
      "lon": 5.425,
      "cp": "38110",
      "ville": "SAINT-JEAN-DE-SOUDAIN",
      "prix": {
        "Gazole": 0.001941,
        "E85": 0.000798,
        "E10": 0.001899,
        "SP98": 0.001999
      },
      "maj_gouv": {
        "Gazole": "2026-06-09 08:44:07",
        "E85": "2026-06-09 08:44:07",
        "E10": "2026-06-09 08:44:08",
        "SP98": "2026-06-09 08:44:08"
      }
    },
    {
      "id": "38260009",
      "lat": 45.439745,
      "lon": 5.295729000000001,
      "cp": "38260",
      "ville": "CHAMPIER",
      "prix": {
        "Gazole": 0.00213,
        "SP95": 0.00199,
        "SP98": 0.00199
      },
      "maj_gouv": {
        "Gazole": "2026-06-10 05:51:01",
        "SP95": "2026-05-29 10:59:49",
        "SP98": "2026-05-29 10:59:49"
      }
    },
    {
      "id": "38220002",
      "lat": 45.083,
      "lon": 5.766,
      "cp": "38220",
      "ville": "VIZILLE",
      "prix": {
        "Gazole": 0.0020499999999999997,
        "E85": 0.000879,
        "GPLc": 0.00107,
        "E10": 0.00199,
        "SP98": 0.00199
      },
      "maj_gouv": {
        "Gazole": "2026-06-09 21:53:04",
        "E85": "2026-05-19 08:24:31",
        "GPLc": "2026-04-01 06:00:00",
        "E10": "2026-06-06 08:31:57",
        "SP98": "2026-06-08 10:15:21"
      }
    },
    {
      "id": "38070001",
      "lat": 45.637,
      "lon": 5.108,
      "cp": "38070",
      "ville": "SAINT-QUENTIN-FALLAVIER",
      "prix": {
        "Gazole": 0.001999,
        "E10": 0.0019690000000000003,
        "SP98": 0.002079
      },
      "maj_gouv": {
        "Gazole": "2026-06-08 10:52:06",
        "E10": "2026-06-08 10:52:06",
        "SP98": "2026-06-08 10:52:06"
      }
    },
    {
      "id": "38431001",
      "lat": 45.157919426704005,
      "lon": 5.7239079849312,
      "cp": "38130",
      "ville": "ÉCHIROLLES",
      "prix": {
        "Gazole": 0.001967,
        "SP95": 0.001988,
        "E85": 0.000879,
        "E10": 0.0019019999999999998,
        "SP98": 0.002045
      },
      "maj_gouv": {
        "Gazole": "2026-06-09 08:35:59",
        "SP95": "2026-06-09 08:35:59",
        "E85": "2026-06-09 08:36:00",
        "E10": "2026-06-09 08:36:00",
        "SP98": "2026-06-09 08:36:00"
      }
    },
    {
      "id": "38210004",
      "lat": 45.29804,
      "lon": 5.48762,
      "cp": "38210",
      "ville": "TULLINS",
      "prix": {
        "Gazole": 0.001964,
        "E10": 0.001939,
        "SP98": 0.002068
      },
      "maj_gouv": {
        "Gazole": "2026-06-04 09:49:27",
        "E10": "2026-06-08 09:16:39",
        "SP98": "2026-06-08 09:16:39"
      }
    },
    {
      "id": "38300026",
      "lat": 45.585676,
      "lon": 5.262491,
      "cp": "38300",
      "ville": "BOURGOIN",
      "prix": {
        "Gazole": 0.002099,
        "E85": 0.000869,
        "E10": 0.001999,
        "SP98": 0.002099
      },
      "maj_gouv": {
        "Gazole": "2026-06-10 06:00:00",
        "E85": "2026-06-10 06:00:00",
        "E10": "2026-06-10 06:00:00",
        "SP98": "2026-06-10 06:00:00"
      }
    },
    {
      "id": "38120001",
      "lat": 45.24,
      "lon": 5.664,
      "cp": "38120",
      "ville": "SAINT-ÉGRèVE",
      "prix": {
        "Gazole": 0.002,
        "E10": 0.0018939999999999999,
        "SP98": 0.0020510000000000003
      },
      "maj_gouv": {
        "Gazole": "2026-06-10 00:42:00",
        "E10": "2026-06-10 00:42:00",
        "SP98": "2026-06-10 00:42:00"
      }
    },
    {
      "id": "38230005",
      "lat": 45.751,
      "lon": 5.145,
      "cp": "38230",
      "ville": "Charvieu-Chavagneux",
      "prix": {
        "Gazole": 0.0019790000000000003,
        "E85": 0.000757,
        "E10": 0.001949,
        "SP98": 0.002019
      },
      "maj_gouv": {
        "Gazole": "2026-06-10 01:15:00",
        "E85": "2026-06-10 01:15:00",
        "E10": "2026-06-10 01:15:00",
        "SP98": "2026-06-10 01:15:00"
      }
    },
    {
      "id": "38260008",
      "lat": 45.341,
      "lon": 5.197,
      "cp": "38260",
      "ville": "MARCILLOLES",
      "prix": {
        "Gazole": 0.00213,
        "SP95": 0.00199
      },
      "maj_gouv": {
        "Gazole": "2026-06-09 05:30:00",
        "SP95": "2026-06-09 05:30:00"
      }
    },
    {
      "id": "38680001",
      "lat": 45.064875311603,
      "lon": 5.2674007162912,
      "cp": "38680",
      "ville": "Saint-Just-de-Claix",
      "prix": {
        "Gazole": 0.0019790000000000003,
        "E10": 0.002009
      },
      "maj_gouv": {
        "Gazole": "2026-06-08 13:55:34",
        "E10": "2026-06-08 13:55:34"
      }
    },
    {
      "id": "38110002",
      "lat": 45.56,
      "lon": 5.453,
      "cp": "38110",
      "ville": "La Tour-du-Pin",
      "prix": {
        "Gazole": 0.002093,
        "E85": 0.000839,
        "E10": 0.00199
      },
      "maj_gouv": {
        "Gazole": "2026-06-08 19:04:19",
        "E85": "2026-06-05 19:50:34",
        "E10": "2026-06-05 19:50:34"
      }
    },
    {
      "id": "38360006",
      "lat": 45.205,
      "lon": 5.664,
      "cp": "38360",
      "ville": "SASSENAGE",
      "prix": {
        "Gazole": 0.001965,
        "E10": 0.001905,
        "SP98": 0.00199
      },
      "maj_gouv": {
        "Gazole": "2026-06-10 00:01:00",
        "E10": "2026-06-10 00:01:00",
        "SP98": "2026-06-10 00:01:00"
      }
    },
    {
      "id": "38300025",
      "lat": 45.504,
      "lon": 5.303,
      "cp": "38300",
      "ville": "ECLOSE BADINIERES",
      "prix": {
        "Gazole": 0.001956,
        "E85": 0.000798,
        "E10": 0.0019,
        "SP98": 0.002019
      },
      "maj_gouv": {
        "Gazole": "2026-06-09 11:56:19",
        "E85": "2026-06-03 11:05:41",
        "E10": "2026-06-09 09:41:21",
        "SP98": "2026-06-09 09:41:21"
      }
    },
    {
      "id": "38150005",
      "lat": 45.324650795146006,
      "lon": 4.8082875238038,
      "cp": "38150",
      "ville": "CHANAS",
      "prix": {
        "Gazole": 0.0019590000000000002,
        "SP95": 0.001975,
        "E10": 0.001887
      },
      "maj_gouv": {
        "Gazole": "2026-06-08 14:50:24",
        "SP95": "2026-06-02 11:24:49",
        "E10": "2026-06-08 11:13:10"
      }
    },
    {
      "id": "38350007",
      "lat": 44.923592169504,
      "lon": 5.782743239123801,
      "cp": "38350",
      "ville": "SUSVILLE",
      "prix": {
        "Gazole": 0.0019950000000000002,
        "E10": 0.001893
      },
      "maj_gouv": {
        "Gazole": "2026-06-08 11:17:38",
        "E10": "2026-06-08 11:17:38"
      }
    },
    {
      "id": "38430003",
      "lat": 45.348,
      "lon": 5.597,
      "cp": "38430",
      "ville": "Saint-Jean-de-Moirans",
      "prix": {
        "Gazole": 0.002055,
        "E10": 0.002009,
        "SP98": 0.0021219999999999998
      },
      "maj_gouv": {
        "Gazole": "2026-06-02 15:46:46",
        "E10": "2026-06-02 15:46:46",
        "SP98": "2026-06-02 15:46:46"
      }
    },
    {
      "id": "38080006",
      "lat": 45.613,
      "lon": 5.213,
      "cp": "38080",
      "ville": "L'Isle-d'Abeau",
      "prix": {
        "Gazole": 0.0021869999999999997,
        "E85": 0.000998,
        "GPLc": 0.001098,
        "E10": 0.00199,
        "SP98": 0.00199
      },
      "maj_gouv": {
        "Gazole": "2026-06-10 00:01:00",
        "E85": "2026-06-10 00:01:00",
        "GPLc": "2026-06-10 00:01:00",
        "E10": "2026-06-10 00:01:00",
        "SP98": "2026-06-10 00:01:00"
      }
    },
    {
      "id": "38300009",
      "lat": 45.59,
      "lon": 5.244,
      "cp": "38300",
      "ville": "Domarin",
      "prix": {
        "Gazole": 0.001999,
        "SP95": 0.001999,
        "E10": 0.0019690000000000003
      },
      "maj_gouv": {
        "Gazole": "2026-06-04 09:14:52",
        "SP95": "2026-06-04 09:14:52",
        "E10": "2026-06-04 09:14:52"
      }
    },
    {
      "id": "38000019",
      "lat": 45.182628,
      "lon": 5.7342569999999995,
      "cp": "38000",
      "ville": "GRENOBLE",
      "prix": {
        "Gazole": 0.002129,
        "E10": 0.002029
      },
      "maj_gouv": {
        "Gazole": "2026-06-10 06:00:00",
        "E10": "2026-06-10 06:00:00"
      }
    },
    {
      "id": "38160007",
      "lat": 45.155,
      "lon": 5.311,
      "cp": "38160",
      "ville": "SAINT MARCELLIN",
      "prix": {
        "Gazole": 0.002099,
        "E10": 0.002059,
        "SP98": 0.002109
      },
      "maj_gouv": {
        "Gazole": "2026-06-05 20:00:00",
        "E10": "2026-06-05 20:00:00",
        "SP98": "2026-06-05 20:00:00"
      }
    }
  ]
}