{
  "departement": "64",
  "date": "2026-06-10",
  "stations": [
    {
      "id": "64500006",
      "lat": 43.382,
      "lon": -1.649,
      "cp": "64500",
      "ville": "Saint-Jean-de-Luz",
      "prix": {
        "Gazole": 0.002034,
        "E10": 0.001977
      },
      "maj_gouv": {
        "Gazole": "2026-06-10 00:01:00",
        "E10": "2026-06-10 00:01:00"
      }
    },
    {
      "id": "64330001",
      "lat": 43.557,
      "lon": -0.284,
      "cp": "64330",
      "ville": "GARLIN",
      "prix": {
        "Gazole": 0.001996,
        "E85": 0.000798,
        "E10": 0.002076,
        "SP98": 0.002196
      },
      "maj_gouv": {
        "Gazole": "2026-06-03 10:29:37",
        "E85": "2026-06-03 10:29:37",
        "E10": "2026-06-03 10:29:37",
        "SP98": "2026-06-03 10:29:37"
      }
    },
    {
      "id": "64100010",
      "lat": 43.483,
      "lon": -1.488,
      "cp": "64100",
      "ville": "Bayonne",
      "prix": {
        "Gazole": 0.0020099999999999996,
        "SP95": 0.001965,
        "SP98": 0.002006
      },
      "maj_gouv": {
        "Gazole": "2026-06-08 11:00:04",
        "SP95": "2026-06-08 13:40:55",
        "SP98": "2026-06-08 13:40:55"
      }
    },
    {
      "id": "64520001",
      "lat": 43.482,
      "lon": -1.144,
      "cp": "64520",
      "ville": "BIDACHE",
      "prix": {
        "Gazole": 0.00222,
        "SP95": 0.00199
      },
      "maj_gouv": {
        "Gazole": "2026-06-05 07:12:06",
        "SP95": "2026-03-09 20:13:28"
      }
    },
    {
      "id": "64150008",
      "lat": 43.385654130567,
      "lon": -0.61129551817699,
      "cp": "64150",
      "ville": "OS MARSILLON",
      "prix": {
        "Gazole": 0.0020819999999999996,
        "SP95": 0.002096,
        "SP98": 0.002183
      },
      "maj_gouv": {
        "Gazole": "2026-06-06 19:00:00",
        "SP95": "2026-06-06 19:00:00",
        "SP98": "2026-06-06 19:00:00"
      }
    },
    {
      "id": "64210005",
      "lat": 43.42214,
      "lon": -1.5976,
      "cp": "64210",
      "ville": "BIDART",
      "prix": {
        "Gazole": 0.0021920000000000004,
        "E85": 0.000998,
        "GPLc": 0.0010689999999999999,
        "E10": 0.00199,
        "SP98": 0.00199
      },
      "maj_gouv": {
        "Gazole": "2026-06-10 00:01:00",
        "E85": "2026-06-10 00:01:00",
        "GPLc": "2026-06-10 00:01:00",
        "E10": "2026-06-10 00:01:00",
        "SP98": "2026-06-10 00:01:00"
      }
    },
    {
      "id": "64000009",
      "lat": 43.317,
      "lon": -0.356,
      "cp": "64000",
      "ville": "PAU",
      "prix": {
        "Gazole": 0.001977,
        "SP95": 0.001978,
        "E85": 0.000812,
        "E10": 0.001909,
        "SP98": 0.002008
      },
      "maj_gouv": {
        "Gazole": "2026-06-10 01:16:00",
        "SP95": "2026-06-10 01:16:00",
        "E85": "2026-06-10 01:16:00",
        "E10": "2026-06-10 01:16:00",
        "SP98": "2026-06-10 01:16:00"
      }
    },
    {
      "id": "64240005",
      "lat": 43.49396204,
      "lon": -1.29340512,
      "cp": "64240",
      "ville": "URT",
      "prix": {
        "Gazole": 0.002079,
        "SP95": 0.002075,
        "SP98": 0.002144
      },
      "maj_gouv": {
        "Gazole": "2026-06-08 10:27:32",
        "SP95": "2026-06-08 10:27:32",
        "SP98": "2026-05-26 10:15:20"
      }
    },
    {
      "id": "64500003",
      "lat": 43.403,
      "lon": -1.627,
      "cp": "64500",
      "ville": "SAINT-JEAN-DE-LUZ",
      "prix": {
        "Gazole": 0.001974,
        "SP95": 0.001996,
        "E85": 0.000815,
        "GPLc": 0.000923,
        "E10": 0.001932,
        "SP98": 0.0020729999999999998
      },
      "maj_gouv": {
        "Gazole": "2026-06-10 00:42:00",
        "SP95": "2026-06-10 00:42:00",
        "E85": "2026-06-10 00:42:00",
        "GPLc": "2026-06-10 00:42:00",
        "E10": "2026-06-10 00:42:00",
        "SP98": "2026-06-10 00:42:00"
      }
    },
    {
      "id": "64240004",
      "lat": 43.385,
      "lon": -1.297,
      "cp": "64240",
      "ville": "HASPARREN",
      "prix": {
        "Gazole": 0.002169,
        "SP95": 0.002159,
        "E85": 0.000909,
        "SP98": 0.002199
      },
      "maj_gouv": {
        "Gazole": "2026-06-05 08:56:16",
        "SP95": "2026-06-05 08:56:17",
        "E85": "2026-03-30 09:00:40",
        "SP98": "2026-06-05 08:56:17"
      }
    },
    {
      "id": "64000016",
      "lat": 43.3186488,
      "lon": -0.37831660000000006,
      "cp": "64000",
      "ville": "PAU",
      "prix": {
        "Gazole": 0.001953,
        "E85": 0.000829,
        "GPLc": 0.001049,
        "E10": 0.001891
      },
      "maj_gouv": {
        "Gazole": "2026-06-10 00:01:00",
        "E85": "2026-06-10 00:01:00",
        "GPLc": "2026-06-10 00:01:00",
        "E10": "2026-06-10 00:01:00"
      }
    },
    {
      "id": "64440002",
      "lat": 42.99129,
      "lon": -0.42454,
      "cp": "64440",
      "ville": "LARUNS",
      "prix": {
        "Gazole": 0.002028,
        "SP95": 0.002003,
        "E10": 0.0019690000000000003
      },
      "maj_gouv": {
        "Gazole": "2026-06-09 09:47:05",
        "SP95": "2026-06-09 09:47:05",
        "E10": "2026-06-09 09:47:05"
      }
    },
    {
      "id": "64190004",
      "lat": 43.32,
      "lon": -0.755,
      "cp": "64190",
      "ville": "Navarrenx",
      "prix": {
        "Gazole": 0.002245,
        "SP95": 0.00215,
        "SP98": 0.00225
      },
      "maj_gouv": {
        "Gazole": "2026-04-25 11:42:08",
        "SP95": "2026-04-25 11:42:08",
        "SP98": "2026-04-25 11:42:08"
      }
    },
    {
      "id": "64210006",
      "lat": 43.42244,
      "lon": -1.59844,
      "cp": "64210",
      "ville": "BIDART",
      "prix": {
        "Gazole": 0.0021869999999999997,
        "E85": 0.000998,
        "GPLc": 0.0010689999999999999,
        "E10": 0.00199,
        "SP98": 0.00199
      },
      "maj_gouv": {
        "Gazole": "2026-06-10 00:01:00",
        "E85": "2026-06-10 00:01:00",
        "GPLc": "2026-06-10 00:01:00",
        "E10": "2026-06-10 00:01:00",
        "SP98": "2026-06-10 00:01:00"
      }
    },
    {
      "id": "64520002",
      "lat": 43.48409,
      "lon": -1.13843,
      "cp": "64520",
      "ville": "BIDACHE",
      "prix": {
        "Gazole": 0.001977,
        "SP95": 0.002059,
        "E10": 0.001999
      },
      "maj_gouv": {
        "Gazole": "2026-06-04 06:23:53",
        "SP95": "2026-05-28 11:35:41",
        "E10": "2026-05-28 11:35:41"
      }
    },
    {
      "id": "64200006",
      "lat": 43.464,
      "lon": -1.539,
      "cp": "64200",
      "ville": "Biarritz",
      "prix": {
        "Gazole": 0.00199,
        "E85": 0.00079,
        "E10": 0.0019299999999999999,
        "SP98": 0.00202
      },
      "maj_gouv": {
        "Gazole": "2026-06-08 13:11:08",
        "E85": "2026-04-21 09:50:11",
        "E10": "2026-06-08 13:11:08",
        "SP98": "2026-06-08 13:11:09"
      }
    },
    {
      "id": "64400005",
      "lat": 43.181,
      "lon": -0.615,
      "cp": "64400",
      "ville": "Oloron-Sainte-Marie",
      "prix": {
        "Gazole": 0.0020350000000000004,
        "E10": 0.0019590000000000002,
        "SP98": 0.002061
      },
      "maj_gouv": {
        "Gazole": "2026-06-08 09:03:40",
        "E10": "2026-06-08 09:03:40",
        "SP98": "2026-06-08 09:03:41"
      }
    },
    {
      "id": "64390002",
      "lat": 43.401,
      "lon": -0.948,
      "cp": "64390",
      "ville": "SAUVETERRE-DE-BéARN",
      "prix": {
        "Gazole": 0.002029,
        "SP95": 0.002012,
        "E10": 0.001984
      },
      "maj_gouv": {
        "Gazole": "2026-06-06 08:50:19",
        "SP95": "2026-06-06 08:50:19",
        "E10": "2026-06-06 08:50:19"
      }
    },
    {
      "id": "64430001",
      "lat": 43.183,
      "lon": -1.335,
      "cp": "64430",
      "ville": "Saint-Étienne-de-Baïgorry",
      "prix": {
        "Gazole": 0.001994,
        "E10": 0.002039,
        "SP98": 0.0020870000000000003
      },
      "maj_gouv": {
        "Gazole": "2026-06-05 10:22:30",
        "E10": "2026-05-20 09:03:52",
        "SP98": "2026-04-09 08:22:21"
      }
    },
    {
      "id": "64120005",
      "lat": 43.3324985,
      "lon": -1.0161424000000001,
      "cp": "64120",
      "ville": "Aïcirits-Camou-Suhast",
      "prix": {
        "Gazole": 0.002029,
        "SP95": 0.001999,
        "E85": 0.000838,
        "E10": 0.001999
      },
      "maj_gouv": {
        "Gazole": "2026-05-30 08:55:00",
        "SP95": "2026-06-08 09:39:34",
        "E85": "2026-05-30 08:55:00",
        "E10": "2026-06-03 09:10:31"
      }
    },
    {
      "id": "64300002",
      "lat": 43.49,
      "lon": -0.787,
      "cp": "64300",
      "ville": "ORTHEZ",
      "prix": {
        "Gazole": 0.00209,
        "E85": 0.000928,
        "E10": 0.00199,
        "SP98": 0.00199
      },
      "maj_gouv": {
        "Gazole": "2026-06-09 09:43:58",
        "E85": "2026-06-09 09:43:58",
        "E10": "2026-06-09 09:43:58",
        "SP98": "2026-06-09 09:43:58"
      }
    },
    {
      "id": "64160001",
      "lat": 43.351,
      "lon": -0.263,
      "cp": "64160",
      "ville": "MORLAàS",
      "prix": {
        "Gazole": 0.001997,
        "E85": 0.00085,
        "E10": 0.00197,
        "SP98": 0.002061
      },
      "maj_gouv": {
        "Gazole": "2026-06-04 11:08:19",
        "E85": "2026-06-04 11:08:19",
        "E10": "2026-06-04 11:08:19",
        "SP98": "2026-06-04 11:08:19"
      }
    },
    {
      "id": "64200008",
      "lat": 43.46,
      "lon": -1.548,
      "cp": "64200",
      "ville": "BIARRITZ",
      "prix": {
        "Gazole": 0.002019,
        "E10": 0.001949,
        "SP98": 0.002079
      },
      "maj_gouv": {
        "Gazole": "2026-06-09 12:07:49",
        "E10": "2026-06-09 12:07:49",
        "SP98": "2026-06-09 12:07:50"
      }
    },
    {
      "id": "64800005",
      "lat": 43.1749,
      "lon": -0.23574,
      "cp": "64800",
      "ville": "COARRAZE",
      "prix": {
        "Gazole": 0.00196,
        "SP95": 0.002088,
        "E10": 0.002023,
        "SP98": 0.002145
      },
      "maj_gouv": {
        "Gazole": "2026-06-09 12:43:54",
        "SP95": "2026-06-09 12:45:53",
        "E10": "2026-06-09 14:40:00",
        "SP98": "2026-06-09 14:40:00"
      }
    },
    {
      "id": "64600007",
      "lat": 43.492,
      "lon": -1.533,
      "cp": "64600",
      "ville": "ANGLET",
      "prix": {
        "Gazole": 0.001943,
        "E85": 0.000851,
        "E10": 0.001871
      },
      "maj_gouv": {
        "Gazole": "2026-06-10 00:01:00",
        "E85": "2026-06-10 00:01:00",
        "E10": "2026-06-10 00:01:00"
      }
    },
    {
      "id": "64160003",
      "lat": 43.347,
      "lon": -0.254,
      "cp": "64160",
      "ville": "Morlaàs",
      "prix": {
        "Gazole": 0.001952,
        "E10": 0.00196,
        "SP98": 0.0020499999999999997
      },
      "maj_gouv": {
        "Gazole": "2026-06-09 10:46:47",
        "E10": "2026-06-04 09:53:03",
        "SP98": "2026-06-04 09:53:03"
      }
    },
    {
      "id": "64290001",
      "lat": 43.218,
      "lon": -0.384,
      "cp": "64290",
      "ville": "GAN",
      "prix": {
        "Gazole": 0.001999,
        "E85": 0.00079,
        "E10": 0.0019590000000000002,
        "SP98": 0.002069
      },
      "maj_gouv": {
        "Gazole": "2026-06-08 14:35:48",
        "E85": "2026-06-08 14:35:48",
        "E10": "2026-06-08 14:35:48",
        "SP98": "2026-06-08 14:35:48"
      }
    },
    {
      "id": "64600009",
      "lat": 43.484,
      "lon": -1.501,
      "cp": "64600",
      "ville": "Anglet",
      "prix": {
        "Gazole": 0.0019450000000000001,
        "E10": 0.001889,
        "SP98": 0.001975
      },
      "maj_gouv": {
        "Gazole": "2026-06-06 08:24:23",
        "E10": "2026-06-06 08:24:23",
        "SP98": "2026-06-06 08:24:24"
      }
    },
    {
      "id": "64800007",
      "lat": 43.186,
      "lon": -0.24,
      "cp": "64800",
      "ville": "Bénéjacq",
      "prix": {
        "Gazole": 0.002019,
        "SP95": 0.001999,
        "E10": 0.001999,
        "SP98": 0.002039
      },
      "maj_gouv": {
        "Gazole": "2026-06-09 06:17:23",
        "SP95": "2026-06-04 12:07:32",
        "E10": "2026-06-09 06:17:23",
        "SP98": "2026-06-04 12:07:32"
      }
    },
    {
      "id": "64000001",
      "lat": 43.305,
      "lon": -0.33,
      "cp": "64000",
      "ville": "Pau",
      "prix": {
        "Gazole": 0.001977,
        "E85": 0.000812,
        "GPLc": 0.001059,
        "E10": 0.001909,
        "SP98": 0.002008
      },
      "maj_gouv": {
        "Gazole": "2026-06-09 09:52:34",
        "E85": "2026-06-09 09:52:34",
        "GPLc": "2026-06-09 09:52:34",
        "E10": "2026-06-09 09:52:34",
        "SP98": "2026-06-09 09:52:35"
      }
    },
    {
      "id": "64100014",
      "lat": 43.50489,
      "lon": -1.46719,
      "cp": "64100",
      "ville": "BAYONNE",
      "prix": {
        "Gazole": 0.001949,
        "E85": 0.000839,
        "E10": 0.001887
      },
      "maj_gouv": {
        "Gazole": "2026-06-10 00:01:00",
        "E85": "2026-06-10 00:01:00",
        "E10": "2026-06-10 00:01:00"
      }
    },
    {
      "id": "64800003",
      "lat": 43.157,
      "lon": -0.23,
      "cp": "64800",
      "ville": "IGON",
      "prix": {
        "Gazole": 0.00213,
        "SP95": 0.00199
      },
      "maj_gouv": {
        "Gazole": "2026-06-02 18:41:56",
        "SP95": "2026-06-02 18:41:56"
      }
    },
    {
      "id": "64420001",
      "lat": 43.27,
      "lon": -0.201,
      "cp": "64420",
      "ville": "NOUSTY",
      "prix": {
        "Gazole": 0.002019,
        "SP95": 0.002049,
        "E85": 0.000798,
        "E10": 0.0019790000000000003,
        "SP98": 0.002139
      },
      "maj_gouv": {
        "Gazole": "2026-06-05 08:15:36",
        "SP95": "2026-06-05 08:15:36",
        "E85": "2026-06-03 07:47:02",
        "E10": "2026-06-03 07:47:02",
        "SP98": "2026-06-05 08:15:36"
      }
    },
    {
      "id": "64140006",
      "lat": 43.319,
      "lon": -0.379,
      "cp": "64140",
      "ville": "Lons",
      "prix": {
        "Gazole": 0.001978,
        "E85": 0.000798,
        "E10": 0.001909
      },
      "maj_gouv": {
        "Gazole": "2026-06-08 10:46:16",
        "E85": "2026-06-08 10:46:16",
        "E10": "2026-06-08 10:46:16"
      }
    },
    {
      "id": "64990001",
      "lat": 43.478,
      "lon": -1.457,
      "cp": "64990",
      "ville": "SAINT-PIERRE-D'IRUBE",
      "prix": {
        "Gazole": 0.0020459999999999996,
        "E10": 0.0019850000000000002
      },
      "maj_gouv": {
        "Gazole": "2026-06-10 07:08:52",
        "E10": "2026-06-10 07:08:52"
      }
    },
    {
      "id": "64121004",
      "lat": 43.376,
      "lon": -0.38,
      "cp": "64121",
      "ville": "Serres-Castet",
      "prix": {
        "Gazole": 0.001999,
        "GPLc": 0.001159,
        "E10": 0.0019450000000000001,
        "SP98": 0.0020350000000000004
      },
      "maj_gouv": {
        "Gazole": "2026-06-08 08:18:20",
        "GPLc": "2026-05-04 08:30:00",
        "E10": "2026-06-08 08:18:20",
        "SP98": "2026-06-08 08:18:20"
      }
    },
    {
      "id": "64400003",
      "lat": 43.1973594487,
      "lon": -0.617139056977,
      "cp": "64400",
      "ville": "OLORON-SAINTE-MARIE",
      "prix": {
        "Gazole": 0.002025,
        "SP95": 0.001994,
        "E85": 0.000829,
        "E10": 0.001949
      },
      "maj_gouv": {
        "Gazole": "2026-06-08 08:38:01",
        "SP95": "2026-06-08 08:38:01",
        "E85": "2026-06-01 08:36:49",
        "E10": "2026-06-08 08:38:01"
      }
    },
    {
      "id": "64121003",
      "lat": 43.354,
      "lon": -0.38,
      "cp": "64121",
      "ville": "Montardon",
      "prix": {
        "Gazole": 0.001954,
        "E10": 0.001895
      },
      "maj_gouv": {
        "Gazole": "2026-06-10 00:01:00",
        "E10": "2026-06-10 00:01:00"
      }
    },
    {
      "id": "64320003",
      "lat": 43.295,
      "lon": -0.322,
      "cp": "64320",
      "ville": "IDRON",
      "prix": {
        "Gazole": 0.0019690000000000003,
        "E10": 0.0019219999999999999,
        "SP98": 0.001999
      },
      "maj_gouv": {
        "Gazole": "2026-06-06 08:51:08",
        "E10": "2026-06-06 08:51:08",
        "SP98": "2026-06-06 08:51:08"
      }
    },
    {
      "id": "64230006",
      "lat": 43.346495316027,
      "lon": -0.47879722090508003,
      "cp": "64230",
      "ville": "POEY-DE-LESCAR",
      "prix": {
        "Gazole": 0.00209,
        "SP95": 0.002075,
        "SP98": 0.00216
      },
      "maj_gouv": {
        "Gazole": "2026-05-28 06:24:59",
        "SP95": "2026-05-28 06:24:59",
        "SP98": "2026-05-28 06:24:59"
      }
    },
    {
      "id": "64100009",
      "lat": 43.491699413999996,
      "lon": -1.45279168155,
      "cp": "64100",
      "ville": "BAYONNE",
      "prix": {
        "Gazole": 0.002019,
        "E85": 0.000798,
        "E10": 0.0019590000000000002,
        "SP98": 0.002029
      },
      "maj_gouv": {
        "Gazole": "2026-06-09 10:27:25",
        "E85": "2026-05-22 08:39:04",
        "E10": "2026-06-09 10:27:25",
        "SP98": "2026-06-09 10:27:25"
      }
    },
    {
      "id": "64370001",
      "lat": 43.476,
      "lon": -0.613,
      "cp": "64370",
      "ville": "Arthez-de-Béarn",
      "prix": {
        "Gazole": 0.001999,
        "SP95": 0.001998,
        "SP98": 0.002169
      },
      "maj_gouv": {
        "Gazole": "2026-06-04 12:20:13",
        "SP95": "2026-06-04 12:20:13",
        "SP98": "2026-06-04 12:20:14"
      }
    },
    {
      "id": "64120004",
      "lat": 43.327,
      "lon": -1.033,
      "cp": "64120",
      "ville": "Amendeuix-Oneix",
      "prix": {
        "Gazole": 0.002029,
        "SP95": 0.002005,
        "E10": 0.001999,
        "SP98": 0.002089
      },
      "maj_gouv": {
        "Gazole": "2026-06-08 10:52:12",
        "SP95": "2026-06-08 10:52:12",
        "E10": "2026-06-08 10:52:12",
        "SP98": "2026-06-02 10:10:54"
      }
    },
    {
      "id": "64000011",
      "lat": 43.319,
      "lon": -0.347,
      "cp": "64000",
      "ville": "PAU",
      "prix": {
        "Gazole": 0.001958,
        "E85": 0.0008179999999999999,
        "E10": 0.001935,
        "SP98": 0.00221
      },
      "maj_gouv": {
        "Gazole": "2026-06-09 08:30:00",
        "E85": "2026-04-29 08:30:00",
        "E10": "2026-06-05 08:30:00",
        "SP98": "2026-06-09 08:30:00"
      }
    },
    {
      "id": "64300005",
      "lat": 43.48,
      "lon": -0.748,
      "cp": "64300",
      "ville": "Orthez",
      "prix": {
        "Gazole": 0.001999,
        "E85": 0.000839,
        "E10": 0.001939,
        "SP98": 0.002049
      },
      "maj_gouv": {
        "Gazole": "2026-06-05 09:09:27",
        "E85": "2026-04-22 08:02:04",
        "E10": "2026-06-09 08:50:52",
        "SP98": "2026-06-08 07:59:41"
      }
    },
    {
      "id": "64310001",
      "lat": 43.359,
      "lon": -1.575,
      "cp": "64310",
      "ville": "SAINT-PEE-SUR-NIVELLE",
      "prix": {
        "Gazole": 0.001976,
        "E85": 0.000798,
        "E10": 0.001909,
        "SP98": 0.002019
      },
      "maj_gouv": {
        "Gazole": "2026-06-05 10:43:17",
        "E85": "2026-05-26 21:00:00",
        "E10": "2026-06-05 10:43:18",
        "SP98": "2026-06-05 10:43:18"
      }
    },
    {
      "id": "64130003",
      "lat": 43.23,
      "lon": -0.874,
      "cp": "64130",
      "ville": "Chéraute",
      "prix": {
        "Gazole": 0.001978,
        "SP95": 0.001965,
        "E85": 0.000798,
        "E10": 0.0019019999999999998,
        "SP98": 0.0021469999999999996
      },
      "maj_gouv": {
        "Gazole": "2026-06-05 08:38:42",
        "SP95": "2026-06-05 08:38:42",
        "E85": "2026-05-26 16:34:45",
        "E10": "2026-06-05 08:38:43",
        "SP98": "2026-06-01 11:17:14"
      }
    },
    {
      "id": "64500005",
      "lat": 43.401559341893,
      "lon": -1.6332701136,
      "cp": "64500",
      "ville": "Saint-Jean-de-Luz",
      "prix": {
        "Gazole": 0.001976,
        "SP95": 0.0019790000000000003,
        "E10": 0.001909,
        "SP98": 0.001999
      },
      "maj_gouv": {
        "Gazole": "2026-06-10 01:17:00",
        "SP95": "2026-06-10 01:17:00",
        "E10": "2026-06-10 01:17:00",
        "SP98": "2026-06-10 01:17:00"
      }
    },
    {
      "id": "64150003",
      "lat": 43.367,
      "lon": -0.581,
      "cp": "64150",
      "ville": "Pardies",
      "prix": {
        "Gazole": 0.002049,
        "E85": 0.000861,
        "E10": 0.001981,
        "SP98": 0.00199
      },
      "maj_gouv": {
        "Gazole": "2026-06-10 06:35:28",
        "E85": "2026-06-10 06:35:28",
        "E10": "2026-06-10 06:35:28",
        "SP98": "2026-06-09 07:35:31"
      }
    },
    {
      "id": "64103001",
      "lat": 43.505,
      "lon": -1.444,
      "cp": "64100",
      "ville": "BAYONNE",
      "prix": {
        "Gazole": 0.0019890000000000003,
        "SP95": 0.002009,
        "E10": 0.001899,
        "SP98": 0.002029
      },
      "maj_gouv": {
        "Gazole": "2026-06-10 01:17:00",
        "SP95": "2026-06-10 01:17:00",
        "E10": "2026-06-10 01:17:00",
        "SP98": "2026-06-10 01:17:00"
      }
    },
    {
      "id": "64210004",
      "lat": 43.44745,
      "lon": -1.57436,
      "cp": "64210",
      "ville": "Bidart",
      "prix": {
        "Gazole": 0.0019450000000000001,
        "SP95": 0.001965,
        "E85": 0.000798,
        "E10": 0.001899,
        "SP98": 0.001999
      },
      "maj_gouv": {
        "Gazole": "2026-06-09 17:05:29",
        "SP95": "2026-06-08 10:49:59",
        "E85": "2026-05-30 08:46:44",
        "E10": "2026-06-09 09:57:19",
        "SP98": "2026-06-08 10:49:59"
      }
    },
    {
      "id": "64600002",
      "lat": 43.486,
      "lon": -1.501,
      "cp": "64600",
      "ville": "Anglet",
      "prix": {
        "Gazole": 0.0019450000000000001,
        "E85": 0.000855,
        "GPLc": 0.000954,
        "E10": 0.001889,
        "SP98": 0.001999
      },
      "maj_gouv": {
        "Gazole": "2026-06-06 09:11:03",
        "E85": "2026-06-06 09:11:03",
        "GPLc": "2026-06-06 09:11:03",
        "E10": "2026-06-06 09:11:03",
        "SP98": "2026-06-06 09:11:03"
      }
    },
    {
      "id": "64140004",
      "lat": 43.304,
      "lon": -0.4,
      "cp": "64140",
      "ville": "Billère",
      "prix": {
        "Gazole": 0.0019690000000000003,
        "E85": 0.000798,
        "E10": 0.001915,
        "SP98": 0.0020499999999999997
      },
      "maj_gouv": {
        "Gazole": "2026-06-09 10:06:47",
        "E85": "2026-06-09 10:06:47",
        "E10": "2026-06-09 10:06:48",
        "SP98": "2026-06-09 10:06:48"
      }
    },
    {
      "id": "64170012",
      "lat": 43.421426,
      "lon": -0.598996,
      "cp": "64170",
      "ville": "LACQ AUDEJOS SUD",
      "prix": {
        "Gazole": 0.002299,
        "E85": 0.001049,
        "GPLc": 0.001149,
        "E10": 0.002199,
        "SP98": 0.002299
      },
      "maj_gouv": {
        "Gazole": "2026-06-10 00:01:00",
        "E85": "2026-06-10 00:01:00",
        "GPLc": "2026-06-10 00:01:00",
        "E10": "2026-06-10 00:01:00",
        "SP98": "2026-06-10 00:01:00"
      }
    },
    {
      "id": "64170013",
      "lat": 43.418747,
      "lon": -0.584483,
      "cp": "64170",
      "ville": "LACQ AUDEJOS NORD - ARTIX",
      "prix": {
        "Gazole": 0.002299,
        "E10": 0.002199,
        "SP98": 0.002299
      },
      "maj_gouv": {
        "Gazole": "2026-06-10 00:01:00",
        "E10": "2026-06-10 00:01:00",
        "SP98": "2026-06-10 00:01:00"
      }
    },
    {
      "id": "64270001",
      "lat": 43.475,
      "lon": -0.913,
      "cp": "64270",
      "ville": "SALIES-DE-BéARN",
      "prix": {
        "Gazole": 0.0020710000000000004,
        "E10": 0.00199,
        "SP98": 0.00199
      },
      "maj_gouv": {
        "Gazole": "2026-06-09 06:54:53",
        "E10": "2026-06-09 06:54:53",
        "SP98": "2026-06-09 06:54:54"
      }
    },
    {
      "id": "64360000",
      "lat": 43.336,
      "lon": -0.583,
      "cp": "64360",
      "ville": "Monein",
      "prix": {
        "Gazole": 0.002019,
        "SP95": 0.002029,
        "SP98": 0.002069
      },
      "maj_gouv": {
        "Gazole": "2026-06-01 12:38:10",
        "SP95": "2026-06-01 12:38:10",
        "SP98": "2026-06-01 12:38:10"
      }
    },
    {
      "id": "64700001",
      "lat": 43.347,
      "lon": -1.766,
      "cp": "64700",
      "ville": "HENDAYE",
      "prix": {
        "Gazole": 0.002157,
        "E10": 0.00199
      },
      "maj_gouv": {
        "Gazole": "2026-06-08 11:50:21",
        "E10": "2026-03-30 09:46:22"
      }
    },
    {
      "id": "64120001",
      "lat": 43.331,
      "lon": -1.039,
      "cp": "64120",
      "ville": "Amendeuix-Oneix",
      "prix": {
        "Gazole": 0.002098,
        "E10": 0.00199,
        "SP98": 0.00199
      },
      "maj_gouv": {
        "Gazole": "2026-06-09 08:23:25",
        "E10": "2026-06-06 08:13:07",
        "SP98": "2026-05-29 16:47:19"
      }
    },
    {
      "id": "64000015",
      "lat": 43.323,
      "lon": -0.368,
      "cp": "64000",
      "ville": "PAU",
      "prix": {
        "Gazole": 0.002049,
        "E10": 0.001988
      },
      "maj_gouv": {
        "Gazole": "2026-06-10 00:01:00",
        "E10": "2026-06-10 00:01:00"
      }
    },
    {
      "id": "64140005",
      "lat": 43.306,
      "lon": -0.403,
      "cp": "64140",
      "ville": "BILLERE",
      "prix": {
        "Gazole": 0.002049,
        "GPLc": 0.001054,
        "E10": 0.00199
      },
      "maj_gouv": {
        "Gazole": "2026-06-10 00:01:00",
        "GPLc": "2026-06-10 00:01:00",
        "E10": "2026-06-10 00:01:00"
      }
    },
    {
      "id": "64230004",
      "lat": 43.436444,
      "lon": -0.4664254,
      "cp": "64230",
      "ville": "MAZEROLLES",
      "prix": {
        "Gazole": 0.002041,
        "SP98": 0.00199
      },
      "maj_gouv": {
        "Gazole": "2026-06-10 00:01:00",
        "SP98": "2026-06-10 00:01:00"
      }
    },
    {
      "id": "64320005",
      "lat": 43.303805476815995,
      "lon": -0.32323738530372,
      "cp": "64320",
      "ville": "BIZANOS",
      "prix": {
        "Gazole": 0.001952,
        "GPLc": 0.001039
      },
      "maj_gouv": {
        "Gazole": "2026-06-10 00:01:00",
        "GPLc": "2026-06-10 00:01:00"
      }
    },
    {
      "id": "64400002",
      "lat": 43.19072,
      "lon": -0.61765,
      "cp": "64400",
      "ville": "Oloron-Sainte-Marie",
      "prix": {
        "Gazole": 0.00207,
        "E85": 0.000859,
        "GPLc": 0.0011899999999999999,
        "E10": 0.00199,
        "SP98": 0.00199
      },
      "maj_gouv": {
        "Gazole": "2026-06-09 06:41:28",
        "E85": "2026-06-05 06:50:08",
        "GPLc": "2026-04-01 09:47:26",
        "E10": "2026-06-09 06:41:37",
        "SP98": "2026-04-24 16:01:01"
      }
    },
    {
      "id": "64990002",
      "lat": 43.487,
      "lon": -1.357,
      "cp": "64990",
      "ville": "URCUIT",
      "prix": {
        "Gazole": 0.001992,
        "SP95": 0.002032,
        "E10": 0.001926,
        "SP98": 0.002077
      },
      "maj_gouv": {
        "Gazole": "2026-06-09 10:36:24",
        "SP95": "2026-06-09 10:36:24",
        "E10": "2026-06-09 10:36:24",
        "SP98": "2026-06-09 10:36:24"
      }
    },
    {
      "id": "64233001",
      "lat": 43.318,
      "lon": -0.424,
      "cp": "64230",
      "ville": "LESCAR",
      "prix": {
        "Gazole": 0.001994,
        "SP95": 0.002005,
        "E85": 0.000769,
        "E10": 0.0019370000000000001,
        "SP98": 0.002059
      },
      "maj_gouv": {
        "Gazole": "2026-06-10 00:42:00",
        "SP95": "2026-06-10 00:42:00",
        "E85": "2026-06-10 00:42:00",
        "E10": "2026-06-10 00:42:00",
        "SP98": "2026-06-10 00:42:00"
      }
    },
    {
      "id": "64470001",
      "lat": 43.121,
      "lon": -0.867,
      "cp": "64470",
      "ville": "TARDETS-SORHOLUS",
      "prix": {
        "Gazole": 0.002139,
        "SP95": 0.00199,
        "SP98": 0.00199
      },
      "maj_gouv": {
        "Gazole": "2026-06-08 15:29:40",
        "SP95": "2026-05-28 17:51:59",
        "SP98": "2026-05-28 17:51:59"
      }
    },
    {
      "id": "64410001",
      "lat": 43.536,
      "lon": -0.41,
      "cp": "64410",
      "ville": "ARZACQARRAZIGUET",
      "prix": {
        "Gazole": 0.0020499999999999997,
        "SP95": 0.001976,
        "SP98": 0.002112
      },
      "maj_gouv": {
        "Gazole": "2026-06-09 08:17:00",
        "SP95": "2026-06-09 08:17:00",
        "SP98": "2026-06-03 08:55:37"
      }
    },
    {
      "id": "64270002",
      "lat": 43.47492,
      "lon": -0.91425000000002,
      "cp": "64270",
      "ville": "Salies-de-Béarn",
      "prix": {
        "Gazole": 0.001999,
        "E10": 0.001949,
        "SP98": 0.002069
      },
      "maj_gouv": {
        "Gazole": "2026-06-04 08:10:38",
        "E10": "2026-05-29 08:58:59",
        "SP98": "2026-05-29 08:58:59"
      }
    },
    {
      "id": "64110006",
      "lat": 43.28562,
      "lon": -0.38335,
      "cp": "64110",
      "ville": "JURANCON",
      "prix": {
        "Gazole": 0.001952,
        "E85": 0.000829,
        "E10": 0.0018919999999999998
      },
      "maj_gouv": {
        "Gazole": "2026-06-10 00:01:00",
        "E85": "2026-06-10 00:01:00",
        "E10": "2026-06-10 00:01:00"
      }
    },
    {
      "id": "64570002",
      "lat": 43.122,
      "lon": -0.727,
      "cp": "64570",
      "ville": "ARAMITS",
      "prix": {
        "Gazole": 0.002029,
        "E10": 0.001961,
        "SP98": 0.00209
      },
      "maj_gouv": {
        "Gazole": "2026-06-08 09:00:14",
        "E10": "2026-06-08 09:00:14",
        "SP98": "2026-06-08 09:00:14"
      }
    },
    {
      "id": "64510001",
      "lat": 43.25,
      "lon": -0.279,
      "cp": "64510",
      "ville": "BORDES",
      "prix": {
        "Gazole": 0.002016,
        "SP95": 0.001978,
        "SP98": 0.002027
      },
      "maj_gouv": {
        "Gazole": "2026-06-08 08:38:19",
        "SP95": "2026-06-08 08:38:20",
        "SP98": "2026-06-08 08:38:20"
      }
    },
    {
      "id": "64310002",
      "lat": 43.352,
      "lon": -1.55,
      "cp": "64310",
      "ville": "Saint-Pée-sur-Nivelle",
      "prix": {
        "Gazole": 0.001976,
        "SP95": 0.0019890000000000003,
        "E10": 0.001909
      },
      "maj_gouv": {
        "Gazole": "2026-06-05 10:42:27",
        "SP95": "2026-06-05 10:42:28",
        "E10": "2026-06-05 10:42:28"
      }
    },
    {
      "id": "64100016",
      "lat": 43.512,
      "lon": -1.44,
      "cp": "64100",
      "ville": "Bayonne",
      "prix": {
        "Gazole": 0.0020870000000000003,
        "E85": 0.000873
      },
      "maj_gouv": {
        "Gazole": "2026-06-09 09:09:30",
        "E85": "2026-06-05 09:11:58"
      }
    },
    {
      "id": "64530004",
      "lat": 43.23019,
      "lon": -0.07925,
      "cp": "64530",
      "ville": "GER",
      "prix": {
        "Gazole": 0.002153,
        "E85": 0.000999,
        "GPLc": 0.001089,
        "E10": 0.00199,
        "SP98": 0.00199
      },
      "maj_gouv": {
        "Gazole": "2026-06-10 00:01:00",
        "E85": "2026-06-10 00:01:00",
        "GPLc": "2026-06-10 00:01:00",
        "E10": "2026-06-10 00:01:00",
        "SP98": "2026-06-10 00:01:00"
      }
    },
    {
      "id": "64190002",
      "lat": 43.31906,
      "lon": -0.7712,
      "cp": "64190",
      "ville": "Susmiou",
      "prix": {
        "Gazole": 0.002052,
        "E85": 0.000759,
        "E10": 0.00198,
        "SP98": 0.002166
      },
      "maj_gouv": {
        "Gazole": "2026-06-08 10:21:08",
        "E85": "2026-06-08 10:21:08",
        "E10": "2026-06-08 10:21:08",
        "SP98": "2026-06-08 10:21:08"
      }
    },
    {
      "id": "64300006",
      "lat": 43.464,
      "lon": -0.741,
      "cp": "64300",
      "ville": "BIRON",
      "prix": {},
      "maj_gouv": {}
    },
    {
      "id": "64480005",
      "lat": 43.423,
      "lon": -1.465,
      "cp": "64480",
      "ville": "USTARITZ",
      "prix": {
        "Gazole": 0.00219,
        "SP95": 0.00198
      },
      "maj_gouv": {
        "Gazole": "2026-06-08 07:39:12",
        "SP95": "2026-06-08 07:39:12"
      }
    },
    {
      "id": "64122001",
      "lat": 43.375,
      "lon": -1.679,
      "cp": "64122",
      "ville": "Urrugne",
      "prix": {
        "Gazole": 0.0019790000000000003,
        "SP95": 0.001965,
        "E10": 0.001909,
        "SP98": 0.001999
      },
      "maj_gouv": {
        "Gazole": "2026-06-10 01:17:00",
        "SP95": "2026-06-10 01:17:00",
        "E10": "2026-06-10 01:17:00",
        "SP98": "2026-06-10 01:17:00"
      }
    },
    {
      "id": "64240006",
      "lat": 43.386440367815,
      "lon": -1.313921444,
      "cp": "64240",
      "ville": "Hasparren",
      "prix": {
        "Gazole": 0.001999,
        "E10": 0.0019590000000000002,
        "SP98": 0.002049
      },
      "maj_gouv": {
        "Gazole": "2026-06-10 01:18:00",
        "E10": "2026-06-10 01:18:00",
        "SP98": "2026-06-10 01:18:00"
      }
    },
    {
      "id": "64480004",
      "lat": 43.372,
      "lon": -1.435,
      "cp": "64480",
      "ville": "LARRESSORE",
      "prix": {
        "Gazole": 0.00218,
        "E10": 0.00199,
        "SP98": 0.00199
      },
      "maj_gouv": {
        "Gazole": "2026-06-09 11:22:52",
        "E10": "2026-06-09 11:22:52",
        "SP98": "2026-06-09 11:22:52"
      }
    },
    {
      "id": "64260005",
      "lat": 43.098,
      "lon": -0.416,
      "cp": "64260",
      "ville": "Louvie-Juzon",
      "prix": {
        "Gazole": 0.0020099999999999996,
        "E10": 0.0019590000000000002,
        "SP98": 0.002069
      },
      "maj_gouv": {
        "Gazole": "2026-06-08 08:20:35",
        "E10": "2026-06-08 17:30:49",
        "SP98": "2026-06-03 18:27:23"
      }
    },
    {
      "id": "64300007",
      "lat": 43.542533211343994,
      "lon": -0.6828918786267301,
      "cp": "64300",
      "ville": "SAULT DE NAVAILLES",
      "prix": {
        "Gazole": 0.001999,
        "E10": 0.0019690000000000003,
        "SP98": 0.002049
      },
      "maj_gouv": {
        "Gazole": "2026-06-08 10:57:48",
        "E10": "2026-06-08 10:57:48",
        "SP98": "2026-06-08 10:57:48"
      }
    },
    {
      "id": "64530002",
      "lat": 43.186,
      "lon": -0.115,
      "cp": "64530",
      "ville": "PONTACQ",
      "prix": {
        "Gazole": 0.001968,
        "E10": 0.0019790000000000003,
        "SP98": 0.002099
      },
      "maj_gouv": {
        "Gazole": "2026-06-03 15:40:50",
        "E10": "2026-06-03 15:40:51",
        "SP98": "2026-06-03 15:40:51"
      }
    },
    {
      "id": "64490001",
      "lat": 42.974,
      "lon": -0.601,
      "cp": "64490",
      "ville": "Accous",
      "prix": {
        "Gazole": 0.002199,
        "SP95": 0.002129,
        "SP98": 0.002189
      },
      "maj_gouv": {
        "Gazole": "2026-05-26 10:17:56",
        "SP95": "2026-05-26 10:17:57",
        "SP98": "2026-05-26 10:17:57"
      }
    },
    {
      "id": "64260002",
      "lat": 43.109,
      "lon": -0.432,
      "cp": "64260",
      "ville": "ARUDY",
      "prix": {
        "Gazole": 0.002028,
        "SP95": 0.002003,
        "SP98": 0.002085
      },
      "maj_gouv": {
        "Gazole": "2026-06-04 19:00:00",
        "SP95": "2026-06-04 19:00:00",
        "SP98": "2026-06-04 19:00:00"
      }
    },
    {
      "id": "64250001",
      "lat": 43.338,
      "lon": -1.405,
      "cp": "64250",
      "ville": "ITXASSOU",
      "prix": {
        "Gazole": 0.0019890000000000003,
        "SP95": 0.002049,
        "E10": 0.0019890000000000003,
        "SP98": 0.002099
      },
      "maj_gouv": {
        "Gazole": "2026-06-09 19:00:00",
        "SP95": "2026-06-05 09:00:00",
        "E10": "2026-06-09 09:00:00",
        "SP98": "2026-06-05 09:00:00"
      }
    },
    {
      "id": "64200009",
      "lat": 43.482,
      "lon": -1.543,
      "cp": "64200",
      "ville": "BIARRITZ",
      "prix": {
        "Gazole": 0.002039,
        "E85": 0.0008489999999999999,
        "E10": 0.001976
      },
      "maj_gouv": {
        "Gazole": "2026-06-10 00:01:00",
        "E85": "2026-06-10 00:01:00",
        "E10": "2026-06-10 00:01:00"
      }
    },
    {
      "id": "64270005",
      "lat": 43.527,
      "lon": -0.917,
      "cp": "64270",
      "ville": "PUYOO",
      "prix": {
        "Gazole": 0.001998,
        "E85": 0.000838,
        "E10": 0.0019479999999999999
      },
      "maj_gouv": {
        "Gazole": "2026-06-10 01:18:00",
        "E85": "2026-06-10 01:18:00",
        "E10": "2026-06-10 01:18:00"
      }
    },
    {
      "id": "64110004",
      "lat": 43.279,
      "lon": -0.361,
      "cp": "64110",
      "ville": "Mazères-Lezons",
      "prix": {
        "Gazole": 0.0019690000000000003,
        "E85": 0.0008169999999999999,
        "GPLc": 0.001059,
        "E10": 0.0019190000000000001,
        "SP98": 0.001999
      },
      "maj_gouv": {
        "Gazole": "2026-06-10 01:18:00",
        "E85": "2026-06-10 01:18:00",
        "GPLc": "2026-06-10 01:18:00",
        "E10": "2026-06-10 01:18:00",
        "SP98": "2026-06-10 01:18:00"
      }
    },
    {
      "id": "64500004",
      "lat": 43.39172,
      "lon": -1.65483,
      "cp": "64500",
      "ville": "SAINT-JEAN-DE-LUZ",
      "prix": {
        "Gazole": 0.002075,
        "E10": 0.00199
      },
      "maj_gouv": {
        "Gazole": "2026-06-09 08:45:24",
        "E10": "2026-06-09 08:45:24"
      }
    },
    {
      "id": "64780001",
      "lat": 43.234385637161,
      "lon": -1.2965108393474,
      "cp": "64780",
      "ville": "Ossès",
      "prix": {
        "Gazole": 0.001999,
        "E10": 0.0019890000000000003,
        "SP98": 0.002099
      },
      "maj_gouv": {
        "Gazole": "2026-06-10 01:18:00",
        "E10": "2026-06-10 01:18:00",
        "SP98": "2026-06-10 01:18:00"
      }
    },
    {
      "id": "64220004",
      "lat": 43.165,
      "lon": -1.234,
      "cp": "64220",
      "ville": "Saint-Jean-Pied-de-Port",
      "prix": {
        "Gazole": 0.002047,
        "SP95": 0.001977,
        "E85": 0.000937,
        "SP98": 0.0020510000000000003
      },
      "maj_gouv": {
        "Gazole": "2026-06-09 10:49:54",
        "SP95": "2026-06-09 10:49:54",
        "E85": "2026-06-09 10:49:55",
        "SP98": "2026-06-09 10:49:55"
      }
    },
    {
      "id": "64100015",
      "lat": 43.492,
      "lon": -1.459,
      "cp": "64100",
      "ville": "BAYONNE",
      "prix": {
        "Gazole": 0.001953,
        "E85": 0.000839,
        "GPLc": 0.000933,
        "E10": 0.001895
      },
      "maj_gouv": {
        "Gazole": "2026-06-10 00:01:00",
        "E85": "2026-06-10 00:01:00",
        "GPLc": "2026-06-10 00:01:00",
        "E10": "2026-06-10 00:01:00"
      }
    },
    {
      "id": "64140007",
      "lat": 43.329,
      "lon": -0.382,
      "cp": "64140",
      "ville": "Lons",
      "prix": {
        "Gazole": 0.001977,
        "E85": 0.000812,
        "GPLc": 0.001159,
        "E10": 0.001909,
        "SP98": 0.002008
      },
      "maj_gouv": {
        "Gazole": "2026-06-08 12:37:18",
        "E85": "2026-06-09 11:38:26",
        "GPLc": "2026-06-09 11:38:26",
        "E10": "2026-06-09 11:38:26",
        "SP98": "2026-06-05 11:13:20"
      }
    },
    {
      "id": "64150004",
      "lat": 43.374,
      "lon": -0.623,
      "cp": "64150",
      "ville": "Mourenx",
      "prix": {
        "Gazole": 0.001992,
        "SP95": 0.001984,
        "E10": 0.001935
      },
      "maj_gouv": {
        "Gazole": "2026-06-09 09:00:00",
        "SP95": "2026-06-09 09:00:00",
        "E10": "2026-06-09 09:00:00"
      }
    },
    {
      "id": "64000007",
      "lat": 43.339,
      "lon": -0.38,
      "cp": "64000",
      "ville": "Pau",
      "prix": {
        "Gazole": 0.001993,
        "E85": 0.0009609999999999999,
        "E10": 0.0019479999999999999,
        "SP98": 0.002028
      },
      "maj_gouv": {
        "Gazole": "2026-06-09 07:41:00",
        "E85": "2026-06-09 07:41:00",
        "E10": "2026-06-09 07:41:00",
        "SP98": "2026-06-09 07:41:00"
      }
    },
    {
      "id": "64110003",
      "lat": 43.28,
      "lon": -0.388,
      "cp": "64110",
      "ville": "Jurançon",
      "prix": {
        "Gazole": 0.0020440000000000002,
        "E10": 0.001981,
        "SP98": 0.00199
      },
      "maj_gouv": {
        "Gazole": "2026-06-10 06:46:20",
        "E10": "2026-06-10 06:46:21",
        "SP98": "2026-06-10 06:46:21"
      }
    },
    {
      "id": "64220003",
      "lat": 43.169,
      "lon": -1.228,
      "cp": "64220",
      "ville": "Ispoure",
      "prix": {
        "Gazole": 0.001982,
        "SP95": 0.0019690000000000003,
        "E10": 0.001907,
        "SP98": 0.002016
      },
      "maj_gouv": {
        "Gazole": "2026-06-05 08:25:47",
        "SP95": "2026-06-05 08:25:47",
        "E10": "2026-06-05 08:25:47",
        "SP98": "2026-06-05 08:25:47"
      }
    },
    {
      "id": "64250006",
      "lat": 43.361990417914996,
      "lon": -1.4037713241495,
      "cp": "64250",
      "ville": "CAMBO-LES-BAINS",
      "prix": {
        "Gazole": 0.002139,
        "SP95": 0.002169,
        "SP98": 0.0022589999999999997
      },
      "maj_gouv": {
        "Gazole": "2026-05-30 06:49:52",
        "SP95": "2026-05-26 09:01:32",
        "SP98": "2026-05-26 09:01:32"
      }
    },
    {
      "id": "64000017",
      "lat": 43.307,
      "lon": -0.376,
      "cp": "64000",
      "ville": "PAU",
      "prix": {
        "Gazole": 0.0021190000000000002,
        "E85": 0.0008449999999999999,
        "GPLc": 0.001089,
        "E10": 0.002129,
        "SP98": 0.002219
      },
      "maj_gouv": {
        "Gazole": "2026-06-09 23:50:00",
        "E85": "2026-06-09 23:50:00",
        "GPLc": "2026-06-09 23:50:00",
        "E10": "2026-06-09 23:50:00",
        "SP98": "2026-06-09 23:50:00"
      }
    },
    {
      "id": "64200002",
      "lat": 43.475,
      "lon": -1.553,
      "cp": "64200",
      "ville": "Biarritz",
      "prix": {
        "Gazole": 0.00225,
        "E10": 0.00199
      },
      "maj_gouv": {
        "Gazole": "2026-05-18 08:47:12",
        "E10": "2026-03-14 13:29:51"
      }
    },
    {
      "id": "64170001",
      "lat": 43.415,
      "lon": -0.628,
      "cp": "64170",
      "ville": "LACQ",
      "prix": {
        "Gazole": 0.0020510000000000003,
        "E85": 0.000859,
        "E10": 0.001988,
        "SP98": 0.00199
      },
      "maj_gouv": {
        "Gazole": "2026-06-09 21:45:19",
        "E85": "2026-06-09 21:45:19",
        "E10": "2026-06-09 21:45:19",
        "SP98": "2026-06-09 21:45:19"
      }
    },
    {
      "id": "64220002",
      "lat": 43.165,
      "lon": -1.195,
      "cp": "64220",
      "ville": "SAINT-JEAN-LE-VIEUX",
      "prix": {
        "Gazole": 0.002112,
        "E10": 0.00199,
        "SP98": 0.00199
      },
      "maj_gouv": {
        "Gazole": "2026-06-09 07:09:41",
        "E10": "2026-06-06 07:54:12",
        "SP98": "2026-06-06 07:54:13"
      }
    },
    {
      "id": "64450001",
      "lat": 43.444,
      "lon": -0.324,
      "cp": "64450",
      "ville": "Astis",
      "prix": {
        "Gazole": 0.001999,
        "E10": 0.001999,
        "SP98": 0.002149
      },
      "maj_gouv": {
        "Gazole": "2026-05-29 05:47:10",
        "E10": "2026-05-29 05:47:11",
        "SP98": "2026-05-29 05:47:11"
      }
    },
    {
      "id": "64170005",
      "lat": 43.398,
      "lon": -0.571,
      "cp": "64170",
      "ville": "Artix",
      "prix": {
        "Gazole": 0.001992,
        "SP95": 0.001984,
        "SP98": 0.002019
      },
      "maj_gouv": {
        "Gazole": "2026-06-09 09:00:00",
        "SP95": "2026-06-09 09:00:00",
        "SP98": "2026-06-09 09:00:00"
      }
    },
    {
      "id": "64450002",
      "lat": 43.466308074834004,
      "lon": -0.32354437640108,
      "cp": "64450",
      "ville": "AURIAC",
      "prix": {
        "Gazole": 0.002195
      },
      "maj_gouv": {
        "Gazole": "2026-05-17 22:10:00"
      }
    },
    {
      "id": "64100013",
      "lat": 43.482,
      "lon": -1.483,
      "cp": "64100",
      "ville": "BAYONNE",
      "prix": {
        "Gazole": 0.002019,
        "E10": 0.001929
      },
      "maj_gouv": {
        "Gazole": "2026-06-09 12:11:45",
        "E10": "2026-06-09 12:11:45"
      }
    },
    {
      "id": "64240003",
      "lat": 43.385,
      "lon": -1.313,
      "cp": "64240",
      "ville": "Hasparren",
      "prix": {
        "Gazole": 0.00202,
        "E85": 0.000798,
        "E10": 0.0020459999999999996,
        "SP98": 0.002063
      },
      "maj_gouv": {
        "Gazole": "2026-06-06 09:38:07",
        "E85": "2026-05-30 09:09:21",
        "E10": "2026-06-06 09:38:08",
        "SP98": "2026-06-06 09:38:08"
      }
    },
    {
      "id": "64300003",
      "lat": 43.49,
      "lon": -0.797,
      "cp": "64300",
      "ville": "Orthez",
      "prix": {
        "Gazole": 0.001998,
        "E85": 0.000838,
        "GPLc": 0.001047,
        "E10": 0.0019479999999999999,
        "SP98": 0.0019890000000000003
      },
      "maj_gouv": {
        "Gazole": "2026-06-10 01:17:00",
        "E85": "2026-06-10 01:17:00",
        "GPLc": "2026-06-10 01:17:00",
        "E10": "2026-06-10 01:17:00",
        "SP98": "2026-06-10 01:17:00"
      }
    },
    {
      "id": "64350003",
      "lat": 43.450533459820996,
      "lon": -0.10784007597158,
      "cp": "64350",
      "ville": "LEMBEYE",
      "prix": {
        "Gazole": 0.002099,
        "SP95": 0.002145,
        "SP98": 0.002169
      },
      "maj_gouv": {
        "Gazole": "2026-05-29 13:34:35",
        "SP95": "2026-05-20 13:01:22",
        "SP98": "2026-05-20 13:01:23"
      }
    },
    {
      "id": "64480001",
      "lat": 43.393,
      "lon": -1.457,
      "cp": "64480",
      "ville": "Ustaritz",
      "prix": {
        "Gazole": 0.001999,
        "E85": 0.000855,
        "E10": 0.0019890000000000003,
        "SP98": 0.002099
      },
      "maj_gouv": {
        "Gazole": "2026-06-05 08:53:08",
        "E85": "2026-04-27 15:23:55",
        "E10": "2026-06-05 08:53:08",
        "SP98": "2026-06-01 11:07:56"
      }
    },
    {
      "id": "64604001",
      "lat": 43.49346,
      "lon": -1.51826,
      "cp": "64600",
      "ville": "Anglet",
      "prix": {
        "Gazole": 0.001999,
        "SP95": 0.0019890000000000003,
        "E85": 0.000855,
        "E10": 0.0019399999999999999,
        "SP98": 0.002029
      },
      "maj_gouv": {
        "Gazole": "2026-06-09 09:34:11",
        "SP95": "2026-06-09 09:34:11",
        "E85": "2026-04-11 09:38:53",
        "E10": "2026-06-09 09:34:11",
        "SP98": "2026-06-09 09:34:11"
      }
    },
    {
      "id": "64170014",
      "lat": 43.392439,
      "lon": -0.555477,
      "cp": "64170",
      "ville": "ARTIX",
      "prix": {
        "Gazole": 0.0019950000000000002,
        "E85": 0.00085,
        "GPLc": 0.00109,
        "E10": 0.002029,
        "SP98": 0.002126
      },
      "maj_gouv": {
        "Gazole": "2026-06-05 10:06:47",
        "E85": "2026-06-05 10:06:47",
        "GPLc": "2026-05-24 07:47:41",
        "E10": "2026-06-05 10:06:47",
        "SP98": "2026-06-05 10:06:47"
      }
    },
    {
      "id": "64130006",
      "lat": 43.226,
      "lon": -0.886,
      "cp": "64130",
      "ville": "MAULEON LICHARRE",
      "prix": {
        "Gazole": 0.002099,
        "SP95": 0.00204,
        "SP98": 0.002062
      },
      "maj_gouv": {
        "Gazole": "2026-06-05 14:01:40",
        "SP95": "2026-06-05 14:01:40",
        "SP98": "2026-06-05 14:01:40"
      }
    },
    {
      "id": "64440003",
      "lat": 42.981734,
      "lon": -0.422651,
      "cp": "64440",
      "ville": "LARUNS",
      "prix": {
        "Gazole": 0.0021000000000000003,
        "SP95": 0.00199,
        "SP98": 0.00199
      },
      "maj_gouv": {
        "Gazole": "2026-06-05 11:49:16",
        "SP95": "2026-06-05 11:49:16",
        "SP98": "2026-06-05 11:49:16"
      }
    }
  ]
}