{
  "departement": "06",
  "date": "2026-05-12",
  "stations": [
    {
      "id": "6110002",
      "lat": 43.572,
      "lon": 7.016,
      "cp": "06110",
      "ville": "Le Cannet",
      "prix": {
        "Gazole": 0.002199,
        "E10": 0.002039,
        "SP98": 0.002129
      },
      "maj_gouv": {
        "Gazole": "2026-05-07 23:14:00",
        "E10": "2026-05-07 23:14:00",
        "SP98": "2026-05-07 23:14:00"
      }
    },
    {
      "id": "6201001",
      "lat": 43.73,
      "lon": 7.186,
      "cp": "06200",
      "ville": "Nice",
      "prix": {
        "Gazole": 0.002096,
        "SP95": 0.0020729999999999998,
        "GPLc": 0.000983,
        "E10": 0.002002,
        "SP98": 0.0021669999999999997
      },
      "maj_gouv": {
        "Gazole": "2026-05-11 22:39:00",
        "SP95": "2026-05-11 22:39:00",
        "GPLc": "2026-05-11 22:39:00",
        "E10": "2026-05-11 22:39:00",
        "SP98": "2026-05-11 22:39:00"
      }
    },
    {
      "id": "6580001",
      "lat": 43.592,
      "lon": 6.93,
      "cp": "06580",
      "ville": "PéGOMAS",
      "prix": {
        "Gazole": 0.002189,
        "SP95": 0.002139,
        "E85": 0.000739,
        "E10": 0.002049,
        "SP98": 0.002149
      },
      "maj_gouv": {
        "Gazole": "2026-05-06 08:03:36",
        "SP95": "2026-05-06 08:03:37",
        "E85": "2026-05-06 08:03:37",
        "E10": "2026-05-06 08:03:37",
        "SP98": "2026-05-06 08:03:37"
      }
    },
    {
      "id": "6600008",
      "lat": 43.574,
      "lon": 7.124,
      "cp": "06600",
      "ville": "Antibes",
      "prix": {
        "Gazole": 0.0021579999999999998,
        "E85": 0.000944,
        "E10": 0.002003,
        "SP98": 0.0021190000000000002
      },
      "maj_gouv": {
        "Gazole": "2026-05-11 11:30:00",
        "E85": "2026-05-11 11:30:00",
        "E10": "2026-05-11 11:30:00",
        "SP98": "2026-05-11 11:30:00"
      }
    },
    {
      "id": "6540002",
      "lat": 43.964,
      "lon": 7.524,
      "cp": "06540",
      "ville": "Breil-sur-Roya",
      "prix": {
        "Gazole": 0.00229,
        "E10": 0.0020670000000000003,
        "SP98": 0.0021190000000000002
      },
      "maj_gouv": {
        "Gazole": "2026-04-20 18:05:10",
        "E10": "2026-04-20 18:05:10",
        "SP98": "2026-04-20 18:05:10"
      }
    },
    {
      "id": "6640002",
      "lat": 43.743572997273,
      "lon": 7.1463555621190995,
      "cp": "06640",
      "ville": "SAINT JEANNET",
      "prix": {
        "Gazole": 0.002305,
        "E10": 0.002154,
        "SP98": 0.0022029999999999997
      },
      "maj_gouv": {
        "Gazole": "2026-04-13 07:17:50",
        "E10": "2026-05-04 08:16:08",
        "SP98": "2026-05-04 08:16:08"
      }
    },
    {
      "id": "6670010",
      "lat": 43.855493454462994,
      "lon": 7.1973328111143005,
      "cp": "06670",
      "ville": "PLAN DU VAR",
      "prix": {
        "Gazole": 0.00225
      },
      "maj_gouv": {
        "Gazole": "2026-05-11 15:39:09"
      }
    },
    {
      "id": "6150011",
      "lat": 43.5506,
      "lon": 6.9923,
      "cp": "06150",
      "ville": "CANNES LA BOCCA",
      "prix": {
        "Gazole": 0.002229,
        "E10": 0.002129,
        "SP98": 0.002229
      },
      "maj_gouv": {
        "Gazole": "2026-05-11 20:00:00",
        "E10": "2026-05-11 20:00:00",
        "SP98": "2026-05-11 20:00:00"
      }
    },
    {
      "id": "6370002",
      "lat": 43.61390093000001,
      "lon": 6.97646643,
      "cp": "06370",
      "ville": "Mouans Sartoux",
      "prix": {
        "Gazole": 0.002175,
        "E85": 0.000778,
        "E10": 0.002069,
        "SP98": 0.0021669999999999997
      },
      "maj_gouv": {
        "Gazole": "2026-05-07 17:03:47",
        "E85": "2026-05-07 17:03:47",
        "E10": "2026-05-07 17:03:47",
        "SP98": "2026-05-07 17:03:47"
      }
    },
    {
      "id": "6200031",
      "lat": 43.665,
      "lon": 7.201,
      "cp": "06200",
      "ville": "Nice",
      "prix": {
        "Gazole": 0.002269,
        "E85": 0.000879,
        "E10": 0.002169,
        "SP98": 0.0022589999999999997
      },
      "maj_gouv": {
        "Gazole": "2026-05-11 14:00:00",
        "E85": "2026-05-11 14:00:00",
        "E10": "2026-05-11 14:00:00",
        "SP98": "2026-05-11 14:00:00"
      }
    },
    {
      "id": "6100006",
      "lat": 43.724,
      "lon": 7.256,
      "cp": "06100",
      "ville": "Nice",
      "prix": {
        "Gazole": 0.002179,
        "E10": 0.0021190000000000002,
        "SP98": 0.002269
      },
      "maj_gouv": {
        "Gazole": "2026-05-12 06:23:21",
        "E10": "2026-05-12 06:23:21",
        "SP98": "2026-05-12 06:23:21"
      }
    },
    {
      "id": "6510003",
      "lat": 43.764,
      "lon": 7.2,
      "cp": "06510",
      "ville": "GATTIERES",
      "prix": {
        "Gazole": 0.002199,
        "E10": 0.002049,
        "SP98": 0.002165
      },
      "maj_gouv": {
        "Gazole": "2026-05-05 08:44:59",
        "E10": "2026-05-05 08:45:00",
        "SP98": "2026-05-05 08:45:00"
      }
    },
    {
      "id": "6200014",
      "lat": 43.759,
      "lon": 7.2,
      "cp": "06200",
      "ville": "Nice",
      "prix": {
        "Gazole": 0.002128,
        "E10": 0.002055,
        "SP98": 0.0021349999999999997
      },
      "maj_gouv": {
        "Gazole": "2026-05-11 06:30:00",
        "E10": "2026-05-11 06:30:00",
        "SP98": "2026-05-11 06:30:00"
      }
    },
    {
      "id": "6110010",
      "lat": 43.569,
      "lon": 6.996,
      "cp": "06110",
      "ville": "Le Cannet",
      "prix": {
        "Gazole": 0.002139,
        "E85": 0.0008179999999999999,
        "E10": 0.001996
      },
      "maj_gouv": {
        "Gazole": "2026-05-05 10:10:37",
        "E85": "2026-04-21 08:29:03",
        "E10": "2026-05-05 10:10:37"
      }
    },
    {
      "id": "6300018",
      "lat": 43.72,
      "lon": 7.286,
      "cp": "06300",
      "ville": "NICE",
      "prix": {
        "Gazole": 0.002111,
        "E10": 0.00199,
        "SP98": 0.00199
      },
      "maj_gouv": {
        "Gazole": "2026-05-12 00:01:00",
        "E10": "2026-05-12 00:01:00",
        "SP98": "2026-05-12 00:01:00"
      }
    },
    {
      "id": "6410003",
      "lat": 43.62474,
      "lon": 7.10244,
      "cp": "06410",
      "ville": "BIOT",
      "prix": {
        "Gazole": 0.002399,
        "SP95": 0.002209,
        "SP98": 0.002269
      },
      "maj_gouv": {
        "Gazole": "2026-04-17 11:17:16",
        "SP95": "2026-03-24 09:51:55",
        "SP98": "2026-04-03 08:43:16"
      }
    },
    {
      "id": "6800031",
      "lat": 43.654,
      "lon": 7.147,
      "cp": "06800",
      "ville": "CAGNES SUR MER",
      "prix": {
        "Gazole": 0.002229,
        "E85": 0.000929,
        "E10": 0.002129,
        "SP98": 0.002229
      },
      "maj_gouv": {
        "Gazole": "2026-05-11 21:00:00",
        "E85": "2026-05-11 21:00:00",
        "E10": "2026-05-11 21:00:00",
        "SP98": "2026-05-11 21:00:00"
      }
    },
    {
      "id": "6150005",
      "lat": 43.55,
      "lon": 6.97,
      "cp": "06150",
      "ville": "CANNES",
      "prix": {
        "Gazole": 0.002155,
        "E85": 0.000819,
        "E10": 0.002022,
        "SP98": 0.002098
      },
      "maj_gouv": {
        "Gazole": "2026-05-07 09:30:49",
        "E85": "2026-05-07 09:30:49",
        "E10": "2026-05-07 09:30:49",
        "SP98": "2026-05-07 09:30:49"
      }
    },
    {
      "id": "6600012",
      "lat": 43.607,
      "lon": 7.124,
      "cp": "06600",
      "ville": "ANTIBES",
      "prix": {
        "Gazole": 0.00225,
        "SP95": 0.00199
      },
      "maj_gouv": {
        "Gazole": "2026-04-09 11:01:12",
        "SP95": "2026-04-09 11:01:12"
      }
    },
    {
      "id": "6190011",
      "lat": 43.762348422213,
      "lon": 7.457574677783099,
      "cp": "06190",
      "ville": "ROQUEBRUNE CAP MARTIN",
      "prix": {
        "Gazole": 0.002249,
        "E10": 0.002149,
        "SP98": 0.002249
      },
      "maj_gouv": {
        "Gazole": "2026-05-12 06:00:00",
        "E10": "2026-05-12 06:00:00",
        "SP98": "2026-05-12 06:00:00"
      }
    },
    {
      "id": "6800018",
      "lat": 43.66223,
      "lon": 7.14933,
      "cp": "06800",
      "ville": "Cagnes-sur-Mer",
      "prix": {
        "Gazole": 0.0021709999999999998,
        "E10": 0.00199
      },
      "maj_gouv": {
        "Gazole": "2026-05-12 00:01:00",
        "E10": "2026-05-12 00:01:00"
      }
    },
    {
      "id": "6140005",
      "lat": 43.7251854,
      "lon": 7.0962481,
      "cp": "06140",
      "ville": "vence",
      "prix": {
        "Gazole": 0.0023889999999999996,
        "E10": 0.002159,
        "SP98": 0.0023090000000000003
      },
      "maj_gouv": {
        "Gazole": "2026-05-02 07:03:48",
        "E10": "2026-05-02 07:03:49",
        "SP98": "2026-05-02 07:03:49"
      }
    },
    {
      "id": "6200026",
      "lat": 43.68588,
      "lon": 7.23677,
      "cp": "06200",
      "ville": "NICE",
      "prix": {
        "Gazole": 0.0021880000000000003,
        "E10": 0.00199,
        "SP98": 0.00199
      },
      "maj_gouv": {
        "Gazole": "2026-05-12 00:01:00",
        "E10": "2026-05-12 00:01:00",
        "SP98": "2026-05-12 00:01:00"
      }
    },
    {
      "id": "6460002",
      "lat": 43.698,
      "lon": 6.841,
      "cp": "06460",
      "ville": "Saint-Vallier-de-Thiey",
      "prix": {
        "Gazole": 0.002186,
        "E85": 0.0008179999999999999,
        "E10": 0.002076,
        "SP98": 0.002156
      },
      "maj_gouv": {
        "Gazole": "2026-05-11 15:14:29",
        "E85": "2026-05-11 15:14:30",
        "E10": "2026-05-11 15:14:30",
        "SP98": "2026-05-11 15:14:30"
      }
    },
    {
      "id": "6700006",
      "lat": 43.669,
      "lon": 7.192,
      "cp": "06700",
      "ville": "Saint-Laurent-du-Var",
      "prix": {
        "Gazole": 0.002175,
        "E85": 0.000889,
        "E10": 0.00199,
        "SP98": 0.00199
      },
      "maj_gouv": {
        "Gazole": "2026-05-12 00:01:00",
        "E85": "2026-05-12 00:01:00",
        "E10": "2026-05-12 00:01:00",
        "SP98": "2026-05-12 00:01:00"
      }
    },
    {
      "id": "6000028",
      "lat": 43.706,
      "lon": 7.251,
      "cp": "06000",
      "ville": "NICE",
      "prix": {
        "Gazole": 0.002199,
        "E85": 0.0008990000000000001
      },
      "maj_gouv": {
        "Gazole": "2026-05-12 00:01:00",
        "E85": "2026-05-12 00:01:00"
      }
    },
    {
      "id": "6530002",
      "lat": 43.64464,
      "lon": 6.88496,
      "cp": "06530",
      "ville": "Peymeinade",
      "prix": {
        "Gazole": 0.002159,
        "E85": 0.0008179999999999999,
        "E10": 0.002028,
        "SP98": 0.002148
      },
      "maj_gouv": {
        "Gazole": "2026-05-09 08:05:17",
        "E85": "2026-04-27 10:37:46",
        "E10": "2026-05-09 08:05:17",
        "SP98": "2026-05-09 08:05:17"
      }
    },
    {
      "id": "6530008",
      "lat": 43.650151177447,
      "lon": 6.8105790964874,
      "cp": "06530",
      "ville": "SAINT-CEZAIRE-SUR-SIAGNE",
      "prix": {
        "Gazole": 0.002219,
        "SP95": 0.002099,
        "SP98": 0.002189
      },
      "maj_gouv": {
        "Gazole": "2026-04-30 05:00:00",
        "SP95": "2026-04-30 05:00:00",
        "SP98": "2026-04-30 05:00:00"
      }
    },
    {
      "id": "6110008",
      "lat": 43.581,
      "lon": 7.007,
      "cp": "06110",
      "ville": "Le Cannet",
      "prix": {
        "Gazole": 0.0022589999999999997,
        "E85": 0.000919,
        "E10": 0.002096,
        "SP98": 0.0021680000000000002
      },
      "maj_gouv": {
        "Gazole": "2026-05-06 07:09:59",
        "E85": "2026-04-22 19:22:51",
        "E10": "2026-05-06 07:09:59",
        "SP98": "2026-04-22 19:22:52"
      }
    },
    {
      "id": "6500005",
      "lat": 43.805,
      "lon": 7.487,
      "cp": "06500",
      "ville": "MENTON",
      "prix": {
        "Gazole": 0.002196,
        "SP95": 0.0021680000000000002,
        "E85": 0.000819,
        "E10": 0.002118,
        "SP98": 0.0022240000000000003
      },
      "maj_gouv": {
        "Gazole": "2026-05-11 08:47:26",
        "SP95": "2026-05-11 08:47:27",
        "E85": "2026-05-11 08:47:27",
        "E10": "2026-05-11 08:47:27",
        "SP98": "2026-05-11 08:47:27"
      }
    },
    {
      "id": "6210009",
      "lat": 43.522,
      "lon": 6.899,
      "cp": "06210",
      "ville": "Mandelieu-la-Napoule",
      "prix": {
        "Gazole": 0.002139,
        "E85": 0.001039,
        "E10": 0.002039,
        "SP98": 0.002149
      },
      "maj_gouv": {
        "Gazole": "2026-05-12 06:19:39",
        "E85": "2026-05-12 06:19:39",
        "E10": "2026-05-12 06:19:39",
        "SP98": "2026-05-12 06:19:40"
      }
    },
    {
      "id": "6430001",
      "lat": 44.087683067888,
      "lon": 7.5937221262687,
      "cp": "06430",
      "ville": "Tende",
      "prix": {
        "Gazole": 0.0023,
        "SP95": 0.00218
      },
      "maj_gouv": {
        "Gazole": "2026-05-07 17:00:00",
        "SP95": "2026-04-30 08:12:13"
      }
    },
    {
      "id": "6560001",
      "lat": 43.645,
      "lon": 7.049,
      "cp": "06560",
      "ville": "VALBONNE",
      "prix": {
        "Gazole": 0.002033,
        "SP95": 0.002039,
        "SP98": 0.0021219999999999998
      },
      "maj_gouv": {
        "Gazole": "2026-05-11 08:04:09",
        "SP95": "2026-05-11 08:04:09",
        "SP98": "2026-05-11 08:04:09"
      }
    },
    {
      "id": "6650003",
      "lat": 43.668,
      "lon": 6.985,
      "cp": "06650",
      "ville": "Opio",
      "prix": {
        "Gazole": 0.00249,
        "E10": 0.00239
      },
      "maj_gouv": {
        "Gazole": "2026-04-10 08:51:03",
        "E10": "2026-04-10 08:51:04"
      }
    },
    {
      "id": "6156001",
      "lat": 43.571,
      "lon": 6.959,
      "cp": "06150",
      "ville": "Cannes",
      "prix": {
        "Gazole": 0.0021019999999999997,
        "E85": 0.0008259999999999999,
        "GPLc": 0.000979,
        "E10": 0.002024,
        "SP98": 0.002153
      },
      "maj_gouv": {
        "Gazole": "2026-05-12 00:39:00",
        "E85": "2026-05-12 00:39:00",
        "GPLc": "2026-01-29 12:08:45",
        "E10": "2026-05-12 00:39:00",
        "SP98": "2026-05-12 00:39:00"
      }
    },
    {
      "id": "6300012",
      "lat": 43.702,
      "lon": 7.294,
      "cp": "06300",
      "ville": "Nice",
      "prix": {
        "Gazole": 0.0023039999999999996,
        "E10": 0.00218,
        "SP98": 0.00228
      },
      "maj_gouv": {
        "Gazole": "2026-05-06 07:51:28",
        "E10": "2026-05-06 07:51:28",
        "SP98": "2026-05-06 07:51:28"
      }
    },
    {
      "id": "6270004",
      "lat": 43.64,
      "lon": 7.139,
      "cp": "06270",
      "ville": "VILLENEUVE LOUBET",
      "prix": {
        "Gazole": 0.002059,
        "GPLc": 0.000955,
        "E10": 0.0019590000000000002,
        "SP98": 0.002059
      },
      "maj_gouv": {
        "Gazole": "2026-05-11 08:39:28",
        "GPLc": "2026-05-11 08:39:28",
        "E10": "2026-05-11 08:39:28",
        "SP98": "2026-05-11 08:39:28"
      }
    },
    {
      "id": "6750002",
      "lat": 43.764,
      "lon": 6.656,
      "cp": "06750",
      "ville": "Séranon",
      "prix": {
        "Gazole": 0.00219,
        "E10": 0.0020800000000000003,
        "SP98": 0.00216
      },
      "maj_gouv": {
        "Gazole": "2026-05-11 13:41:25",
        "E10": "2026-05-11 13:41:25",
        "SP98": "2026-05-11 13:41:25"
      }
    },
    {
      "id": "6150007",
      "lat": 43.569,
      "lon": 6.966,
      "cp": "06150",
      "ville": "Cannes",
      "prix": {
        "Gazole": 0.0020819999999999996,
        "E10": 0.002032,
        "SP98": 0.002098
      },
      "maj_gouv": {
        "Gazole": "2026-05-09 09:18:53",
        "E10": "2026-05-08 09:45:37",
        "SP98": "2026-05-05 09:45:54"
      }
    },
    {
      "id": "6700008",
      "lat": 43.686012971315996,
      "lon": 7.1871525112118,
      "cp": "06700",
      "ville": "Saint-Laurent-du-Var",
      "prix": {
        "Gazole": 0.002126,
        "E85": 0.000889,
        "E10": 0.00199,
        "SP98": 0.00199
      },
      "maj_gouv": {
        "Gazole": "2026-05-11 09:01:16",
        "E85": "2026-05-11 09:01:16",
        "E10": "2026-05-11 09:01:16",
        "SP98": "2026-05-11 09:01:16"
      }
    },
    {
      "id": "6500004",
      "lat": 43.78,
      "lon": 7.482,
      "cp": "06500",
      "ville": "MENTON",
      "prix": {
        "Gazole": 0.002196,
        "E85": 0.000819,
        "E10": 0.002118,
        "SP98": 0.0022240000000000003
      },
      "maj_gouv": {
        "Gazole": "2026-05-11 09:14:05",
        "E85": "2026-05-11 09:14:05",
        "E10": "2026-05-11 09:14:05",
        "SP98": "2026-05-11 09:14:05"
      }
    },
    {
      "id": "6600022",
      "lat": 43.589,
      "lon": 7.12,
      "cp": "06600",
      "ville": "ANTIBES",
      "prix": {
        "Gazole": 0.002221,
        "E85": 0.000869,
        "SP98": 0.00199
      },
      "maj_gouv": {
        "Gazole": "2026-05-12 00:01:00",
        "E85": "2026-05-12 00:01:00",
        "SP98": "2026-05-12 00:01:00"
      }
    },
    {
      "id": "6600023",
      "lat": 43.598,
      "lon": 7.088,
      "cp": "06600",
      "ville": "ANTIBES",
      "prix": {
        "Gazole": 0.002185,
        "SP98": 0.00199
      },
      "maj_gouv": {
        "Gazole": "2026-05-12 00:01:00",
        "SP98": "2026-05-12 00:01:00"
      }
    },
    {
      "id": "6220006",
      "lat": 43.593,
      "lon": 7.057,
      "cp": "06220",
      "ville": "VALLAURIS",
      "prix": {
        "Gazole": 0.002059,
        "E85": 0.000758,
        "E10": 0.001994,
        "SP98": 0.002099
      },
      "maj_gouv": {
        "Gazole": "2026-05-11 08:40:31",
        "E85": "2026-04-15 08:44:54",
        "E10": "2026-05-11 08:40:32",
        "SP98": "2026-05-11 08:40:32"
      }
    },
    {
      "id": "6610002",
      "lat": 43.732,
      "lon": 7.163,
      "cp": "06610",
      "ville": "LA GAUDE",
      "prix": {
        "Gazole": 0.002263,
        "SP95": 0.002047,
        "E85": 0.0009599999999999999,
        "SP98": 0.002095
      },
      "maj_gouv": {
        "Gazole": "2026-03-25 11:38:44",
        "SP95": "2026-03-25 11:38:44",
        "E85": "2026-03-06 10:04:40",
        "SP98": "2026-03-25 11:38:44"
      }
    },
    {
      "id": "6110004",
      "lat": 43.575,
      "lon": 7.012,
      "cp": "06110",
      "ville": "Le Cannet",
      "prix": {
        "Gazole": 0.002143,
        "E85": 0.0009809999999999999,
        "E10": 0.001999,
        "SP98": 0.002118
      },
      "maj_gouv": {
        "Gazole": "2026-05-10 06:30:00",
        "E85": "2026-05-10 06:30:00",
        "E10": "2026-05-10 06:30:00",
        "SP98": "2026-05-10 06:30:00"
      }
    },
    {
      "id": "6300016",
      "lat": 43.715,
      "lon": 7.287,
      "cp": "06300",
      "ville": "NICE",
      "prix": {
        "Gazole": 0.002218
      },
      "maj_gouv": {
        "Gazole": "2026-05-12 06:00:00"
      }
    },
    {
      "id": "6420001",
      "lat": 44.184,
      "lon": 7.056,
      "cp": "06420",
      "ville": "ISOLA",
      "prix": {
        "Gazole": 0.002457,
        "SP95": 0.002169,
        "SP98": 0.002206
      },
      "maj_gouv": {
        "Gazole": "2026-04-10 04:00:00",
        "SP95": "2026-04-10 04:00:00",
        "SP98": "2026-04-10 04:00:00"
      }
    },
    {
      "id": "6190008",
      "lat": 43.764,
      "lon": 7.481,
      "cp": "06190",
      "ville": "Roquebrune-Cap-Martin",
      "prix": {
        "Gazole": 0.00215,
        "E85": 0.000859
      },
      "maj_gouv": {
        "Gazole": "2026-05-12 00:01:00",
        "E85": "2026-05-12 00:01:00"
      }
    },
    {
      "id": "6550002",
      "lat": 43.576,
      "lon": 6.952,
      "cp": "06550",
      "ville": "La Roquette-sur-Siagne",
      "prix": {
        "Gazole": 0.002189,
        "E85": 0.000819,
        "E10": 0.002059,
        "SP98": 0.002179
      },
      "maj_gouv": {
        "Gazole": "2026-05-08 17:41:44",
        "E85": "2026-04-23 18:27:45",
        "E10": "2026-05-08 17:41:44",
        "SP98": "2026-05-08 17:41:44"
      }
    },
    {
      "id": "6300019",
      "lat": 43.702,
      "lon": 7.293,
      "cp": "06300",
      "ville": "Nice",
      "prix": {
        "Gazole": 0.00225,
        "SP98": 0.00199
      },
      "maj_gouv": {
        "Gazole": "2026-05-11 08:44:56",
        "SP98": "2026-05-11 08:44:56"
      }
    },
    {
      "id": "6220003",
      "lat": 43.56968,
      "lon": 7.04684,
      "cp": "06220",
      "ville": "VALLAURIS",
      "prix": {
        "Gazole": 0.0022069999999999998,
        "E85": 0.0008179999999999999,
        "E10": 0.002081,
        "SP98": 0.0022029999999999997
      },
      "maj_gouv": {
        "Gazole": "2026-05-07 06:07:22",
        "E85": "2026-04-22 06:01:55",
        "E10": "2026-05-07 06:07:22",
        "SP98": "2026-05-07 06:07:22"
      }
    },
    {
      "id": "6130013",
      "lat": 43.641,
      "lon": 6.909,
      "cp": "06130",
      "ville": "Grasse",
      "prix": {
        "Gazole": 0.002169,
        "E85": 0.000939,
        "E10": 0.002089,
        "SP98": 0.002155
      },
      "maj_gouv": {
        "Gazole": "2026-05-07 17:14:32",
        "E85": "2026-04-16 16:27:58",
        "E10": "2026-05-07 17:14:33",
        "SP98": "2026-05-07 17:14:33"
      }
    },
    {
      "id": "6520001",
      "lat": 43.681,
      "lon": 6.969,
      "cp": "06520",
      "ville": "Grasse",
      "prix": {
        "Gazole": 0.002125,
        "E10": 0.002008,
        "SP98": 0.002132
      },
      "maj_gouv": {
        "Gazole": "2026-05-11 18:40:00",
        "E10": "2026-05-11 18:40:00",
        "SP98": "2026-05-11 18:40:00"
      }
    },
    {
      "id": "6700005",
      "lat": 43.66001,
      "lon": 7.18354,
      "cp": "06700",
      "ville": "Saint-Laurent-du-Var",
      "prix": {
        "Gazole": 0.0023,
        "SP95": 0.00225,
        "E10": 0.00219,
        "SP98": 0.0023
      },
      "maj_gouv": {
        "Gazole": "2026-04-29 05:58:35",
        "SP95": "2026-04-29 05:58:35",
        "E10": "2026-04-29 05:58:35",
        "SP98": "2026-04-29 05:58:35"
      }
    },
    {
      "id": "6670011",
      "lat": 43.762,
      "lon": 7.203,
      "cp": "06670",
      "ville": "Colomars",
      "prix": {
        "Gazole": 0.002099,
        "E10": 0.002069,
        "SP98": 0.002169
      },
      "maj_gouv": {
        "Gazole": "2026-05-11 21:00:00",
        "E10": "2026-05-11 21:00:00",
        "SP98": "2026-05-11 21:00:00"
      }
    },
    {
      "id": "6160008",
      "lat": 43.572753662013,
      "lon": 7.101651755897599,
      "cp": "06160",
      "ville": "Antibes",
      "prix": {
        "Gazole": 0.002269,
        "E10": 0.002129,
        "SP98": 0.002229
      },
      "maj_gouv": {
        "Gazole": "2026-05-12 05:45:00",
        "E10": "2026-05-12 05:45:00",
        "SP98": "2026-05-12 05:45:00"
      }
    },
    {
      "id": "6240004",
      "lat": 43.744768107496,
      "lon": 7.4266167809815995,
      "cp": "06240",
      "ville": "Beausoleil",
      "prix": {
        "Gazole": 0.0022589999999999997,
        "SP95": 0.002179,
        "SP98": 0.002249
      },
      "maj_gouv": {
        "Gazole": "2026-05-11 06:40:18",
        "SP95": "2026-05-11 06:40:18",
        "SP98": "2026-05-11 06:40:19"
      }
    },
    {
      "id": "6400005",
      "lat": 43.54738,
      "lon": 7.04418,
      "cp": "06400",
      "ville": "Cannes",
      "prix": {
        "Gazole": 0.00256,
        "SP95": 0.00231,
        "SP98": 0.00231
      },
      "maj_gouv": {
        "Gazole": "2026-03-31 09:27:54",
        "SP95": "2026-03-31 09:27:54",
        "SP98": "2026-03-31 09:27:54"
      }
    },
    {
      "id": "6300008",
      "lat": 43.722,
      "lon": 7.292,
      "cp": "06300",
      "ville": "Nice",
      "prix": {
        "Gazole": 0.0021000000000000003,
        "E10": 0.002036,
        "SP98": 0.0021160000000000003
      },
      "maj_gouv": {
        "Gazole": "2026-05-11 06:30:00",
        "E10": "2026-05-11 06:30:00",
        "SP98": "2026-05-11 06:30:00"
      }
    },
    {
      "id": "6296001",
      "lat": 43.6775,
      "lon": 7.22636,
      "cp": "06200",
      "ville": "Nice",
      "prix": {
        "Gazole": 0.002315,
        "SP95": 0.002182
      },
      "maj_gouv": {
        "Gazole": "2026-04-29 08:54:58",
        "SP95": "2026-04-29 08:55:20"
      }
    },
    {
      "id": "6320006",
      "lat": 43.72306286293401,
      "lon": 7.3977043091927,
      "cp": "06320",
      "ville": "Cap-d'Ail",
      "prix": {
        "Gazole": 0.002213,
        "E10": 0.00199,
        "SP98": 0.00199
      },
      "maj_gouv": {
        "Gazole": "2026-05-12 00:01:00",
        "E10": "2026-05-12 00:01:00",
        "SP98": "2026-05-12 00:01:00"
      }
    },
    {
      "id": "6400004",
      "lat": 43.547,
      "lon": 7.046,
      "cp": "06400",
      "ville": "Cannes",
      "prix": {
        "Gazole": 0.00216,
        "E10": 0.002048,
        "SP98": 0.002114
      },
      "maj_gouv": {
        "Gazole": "2026-05-08 06:30:00",
        "E10": "2026-05-08 06:30:00",
        "SP98": "2026-05-08 06:30:00"
      }
    },
    {
      "id": "6600009",
      "lat": 43.587,
      "lon": 7.119,
      "cp": "06600",
      "ville": "Antibes",
      "prix": {
        "Gazole": 0.0021579999999999998,
        "E10": 0.002003,
        "SP98": 0.002091
      },
      "maj_gouv": {
        "Gazole": "2026-05-11 10:40:00",
        "E10": "2026-05-11 10:40:00",
        "SP98": "2026-05-11 10:40:00"
      }
    },
    {
      "id": "6600010",
      "lat": 43.592,
      "lon": 7.105,
      "cp": "06600",
      "ville": "Antibes",
      "prix": {
        "Gazole": 0.0021469999999999996,
        "E10": 0.0020510000000000003,
        "SP98": 0.0021309999999999996
      },
      "maj_gouv": {
        "Gazole": "2026-05-08 06:31:00",
        "E10": "2026-05-08 06:31:00",
        "SP98": "2026-05-08 06:31:00"
      }
    },
    {
      "id": "6650002",
      "lat": 43.65814,
      "lon": 6.99578,
      "cp": "06650",
      "ville": "OPIO",
      "prix": {
        "Gazole": 0.0024,
        "SP95": 0.00215,
        "E85": 0.0011200000000000001,
        "SP98": 0.00226
      },
      "maj_gouv": {
        "Gazole": "2026-04-07 09:22:01",
        "SP95": "2026-04-07 09:22:02",
        "E85": "2026-03-16 13:19:41",
        "SP98": "2026-04-07 09:22:02"
      }
    },
    {
      "id": "6800006",
      "lat": 43.657,
      "lon": 7.174,
      "cp": "06800",
      "ville": "Cagnes-sur-Mer",
      "prix": {
        "Gazole": 0.002229,
        "E10": 0.002129,
        "SP98": 0.002229
      },
      "maj_gouv": {
        "Gazole": "2026-05-11 20:00:00",
        "E10": "2026-05-11 20:00:00",
        "SP98": "2026-05-11 20:00:00"
      }
    },
    {
      "id": "6130008",
      "lat": 43.648,
      "lon": 6.915,
      "cp": "06130",
      "ville": "Grasse",
      "prix": {
        "Gazole": 0.002125,
        "E85": 0.000945,
        "E10": 0.002008,
        "SP98": 0.002132
      },
      "maj_gouv": {
        "Gazole": "2026-05-11 18:40:00",
        "E85": "2026-05-11 18:40:00",
        "E10": "2026-05-11 18:40:00",
        "SP98": "2026-05-11 18:40:00"
      }
    },
    {
      "id": "62000015",
      "lat": 43.678,
      "lon": 7.219,
      "cp": "06200",
      "ville": "NICE",
      "prix": {
        "Gazole": 0.002229,
        "E10": 0.002149,
        "SP98": 0.002249
      },
      "maj_gouv": {
        "Gazole": "2026-05-11 20:00:00",
        "E10": "2026-05-11 20:00:00",
        "SP98": "2026-05-11 20:00:00"
      }
    },
    {
      "id": "6800025",
      "lat": 43.67,
      "lon": 7.125,
      "cp": "06800",
      "ville": "Cagnes-sur-Mer",
      "prix": {
        "Gazole": 0.002129,
        "E85": 0.001039,
        "E10": 0.002069,
        "SP98": 0.002159
      },
      "maj_gouv": {
        "Gazole": "2026-05-11 11:05:59",
        "E85": "2026-05-11 11:05:59",
        "E10": "2026-05-11 11:05:59",
        "SP98": "2026-05-11 11:06:00"
      }
    },
    {
      "id": "6200032",
      "lat": 43.67,
      "lon": 7.217,
      "cp": "06200",
      "ville": "NICE",
      "prix": {
        "Gazole": 0.0021190000000000002,
        "E85": 0.001019,
        "E10": 0.002059,
        "SP98": 0.002149
      },
      "maj_gouv": {
        "Gazole": "2026-05-12 06:24:39",
        "E85": "2026-05-12 06:24:40",
        "E10": "2026-05-12 06:24:39",
        "SP98": "2026-05-12 06:24:39"
      }
    },
    {
      "id": "6130009",
      "lat": 43.633,
      "lon": 6.958,
      "cp": "06130",
      "ville": "GRASSE",
      "prix": {
        "Gazole": 0.002156,
        "E85": 0.001099,
        "E10": 0.002099,
        "SP98": 0.0022890000000000002
      },
      "maj_gouv": {
        "Gazole": "2026-05-11 10:58:06",
        "E85": "2026-05-11 10:58:06",
        "E10": "2026-05-11 10:58:07",
        "SP98": "2026-05-11 10:58:07"
      }
    },
    {
      "id": "6250011",
      "lat": 43.612,
      "lon": 6.978,
      "cp": "06250",
      "ville": "MOUGINS",
      "prix": {
        "Gazole": 0.002229,
        "E85": 0.001039,
        "E10": 0.002139,
        "SP98": 0.0023090000000000003
      },
      "maj_gouv": {
        "Gazole": "2026-05-12 06:23:44",
        "E85": "2026-05-12 06:23:44",
        "E10": "2026-05-12 06:23:44",
        "SP98": "2026-05-12 06:23:44"
      }
    },
    {
      "id": "6500010",
      "lat": 43.766,
      "lon": 7.487,
      "cp": "06500",
      "ville": "MENTON",
      "prix": {
        "Gazole": 0.002109,
        "E85": 0.001049,
        "E10": 0.002039,
        "SP98": 0.002189
      },
      "maj_gouv": {
        "Gazole": "2026-05-12 06:18:20",
        "E85": "2026-05-12 06:18:19",
        "E10": "2026-05-12 06:18:19",
        "SP98": "2026-05-12 06:18:19"
      }
    },
    {
      "id": "6600001",
      "lat": 43.603,
      "lon": 7.085,
      "cp": "06600",
      "ville": "ANTIBES",
      "prix": {
        "Gazole": 0.002074,
        "SP95": 0.002078,
        "E10": 0.002003,
        "SP98": 0.002149
      },
      "maj_gouv": {
        "Gazole": "2026-05-11 22:49:00",
        "SP95": "2026-05-11 22:49:00",
        "E10": "2026-05-11 22:49:00",
        "SP98": "2026-05-11 22:49:00"
      }
    },
    {
      "id": "6000032",
      "lat": 43.71,
      "lon": 7.256,
      "cp": "06000",
      "ville": "Nice",
      "prix": {
        "Gazole": 0.002179,
        "E85": 0.001019,
        "E10": 0.0021190000000000002,
        "SP98": 0.002269
      },
      "maj_gouv": {
        "Gazole": "2026-05-12 06:19:23",
        "E85": "2026-05-12 06:19:22",
        "E10": "2026-05-12 06:19:23",
        "SP98": "2026-05-12 06:19:23"
      }
    },
    {
      "id": "6400010",
      "lat": 43.559,
      "lon": 7.002,
      "cp": "06400",
      "ville": "CANNES",
      "prix": {
        "Gazole": 0.002176,
        "E85": 0.000869,
        "SP98": 0.00199
      },
      "maj_gouv": {
        "Gazole": "2026-05-12 00:01:00",
        "E85": "2026-05-12 00:01:00",
        "SP98": "2026-05-12 00:01:00"
      }
    },
    {
      "id": "6560006",
      "lat": 43.626985999999995,
      "lon": 6.99861,
      "cp": "06560",
      "ville": "Valbonne",
      "prix": {
        "Gazole": 0.002121,
        "E85": 0.0008810000000000001
      },
      "maj_gouv": {
        "Gazole": "2026-05-11 07:18:25",
        "E85": "2026-05-11 07:18:26"
      }
    },
    {
      "id": "6000007",
      "lat": 43.69233,
      "lon": 7.24991,
      "cp": "06000",
      "ville": "NICE",
      "prix": {
        "Gazole": 0.002219,
        "E10": 0.002039,
        "SP98": 0.002099
      },
      "maj_gouv": {
        "Gazole": "2026-05-08 06:00:00",
        "E10": "2026-05-08 06:00:00",
        "SP98": "2026-05-08 06:00:00"
      }
    },
    {
      "id": "6140004",
      "lat": 43.715025979924,
      "lon": 7.117118026644899,
      "cp": "06140",
      "ville": "VENCE",
      "prix": {
        "Gazole": 0.002229,
        "GPLc": 0.001059,
        "E10": 0.00199,
        "SP98": 0.00199
      },
      "maj_gouv": {
        "Gazole": "2026-05-12 00:01:00",
        "GPLc": "2026-05-12 00:01:00",
        "E10": "2026-05-12 00:01:00",
        "SP98": "2026-05-12 00:01:00"
      }
    },
    {
      "id": "6480002",
      "lat": 43.674,
      "lon": 7.123,
      "cp": "06480",
      "ville": "LA COLLE-SUR-LOUP",
      "prix": {
        "Gazole": 0.002057,
        "SP95": 0.002029,
        "E10": 0.0019790000000000003,
        "SP98": 0.002059
      },
      "maj_gouv": {
        "Gazole": "2026-05-11 22:13:00",
        "SP95": "2026-05-11 22:13:00",
        "E10": "2026-05-11 22:15:00",
        "SP98": "2026-05-11 22:13:00"
      }
    },
    {
      "id": "6320003",
      "lat": 43.755,
      "lon": 7.398,
      "cp": "06320",
      "ville": "La Turbie",
      "prix": {
        "Gazole": 0.002307,
        "GPLc": 0.001059,
        "E10": 0.002156,
        "SP98": 0.0022559999999999998
      },
      "maj_gouv": {
        "Gazole": "2026-05-12 00:30:00",
        "GPLc": "2026-05-12 00:30:00",
        "E10": "2026-05-12 00:30:00",
        "SP98": "2026-05-12 00:30:00"
      }
    },
    {
      "id": "6500008",
      "lat": 43.784,
      "lon": 7.521,
      "cp": "06500",
      "ville": "MENTON",
      "prix": {
        "Gazole": 0.00225,
        "E10": 0.00199
      },
      "maj_gouv": {
        "Gazole": "2026-05-12 06:00:00",
        "E10": "2026-05-12 06:00:00"
      }
    },
    {
      "id": "6250010",
      "lat": 43.5833864141,
      "lon": 7.009567855869999,
      "cp": "06250",
      "ville": "MOUGINS",
      "prix": {
        "Gazole": 0.002091,
        "E85": 0.000885
      },
      "maj_gouv": {
        "Gazole": "2026-05-12 00:01:00",
        "E85": "2026-05-12 00:01:00"
      }
    },
    {
      "id": "6110009",
      "lat": 43.562,
      "lon": 6.967,
      "cp": "06110",
      "ville": "LE CANNET",
      "prix": {
        "Gazole": 0.002091,
        "E10": 0.00199,
        "SP98": 0.00199
      },
      "maj_gouv": {
        "Gazole": "2026-05-12 00:01:00",
        "E10": "2026-05-12 00:01:00",
        "SP98": "2026-05-12 00:01:00"
      }
    },
    {
      "id": "6320004",
      "lat": 43.745,
      "lon": 7.392,
      "cp": "06320",
      "ville": "LA TURBIE",
      "prix": {
        "Gazole": 0.002359,
        "SP95": 0.002225,
        "E85": 0.001038,
        "SP98": 0.0022660000000000002
      },
      "maj_gouv": {
        "Gazole": "2026-05-09 18:44:29",
        "SP95": "2026-05-09 18:44:29",
        "E85": "2026-05-09 18:44:29",
        "SP98": "2026-05-09 18:44:29"
      }
    },
    {
      "id": "6190004",
      "lat": 43.764,
      "lon": 7.48,
      "cp": "06190",
      "ville": "Roquebrune-Cap-Martin",
      "prix": {
        "Gazole": 0.002299,
        "E85": 0.001139,
        "E10": 0.002129,
        "SP98": 0.002249
      },
      "maj_gouv": {
        "Gazole": "2026-04-19 17:45:10",
        "E85": "2026-04-19 17:45:10",
        "E10": "2026-05-04 08:23:26",
        "SP98": "2026-05-04 08:23:26"
      }
    },
    {
      "id": "6770002",
      "lat": 43.767,
      "lon": 7.201,
      "cp": "06770",
      "ville": "GATTIERES",
      "prix": {
        "Gazole": 0.002091,
        "E85": 0.000889,
        "SP98": 0.00199
      },
      "maj_gouv": {
        "Gazole": "2026-05-12 06:25:55",
        "E85": "2026-05-12 06:25:55",
        "SP98": "2026-05-12 06:25:55"
      }
    },
    {
      "id": "6400001",
      "lat": 43.5553,
      "lon": 7.02483,
      "cp": "06400",
      "ville": "Cannes",
      "prix": {
        "Gazole": 0.0021230000000000003,
        "E10": 0.00199,
        "SP98": 0.00199
      },
      "maj_gouv": {
        "Gazole": "2026-05-11 08:32:44",
        "E10": "2026-04-08 08:19:53",
        "SP98": "2026-04-08 08:19:53"
      }
    },
    {
      "id": "6600007",
      "lat": 43.600876047599996,
      "lon": 7.12225595196,
      "cp": "06600",
      "ville": "ANTIBES",
      "prix": {
        "Gazole": 0.002249,
        "GPLc": 0.001049,
        "E10": 0.002059,
        "SP98": 0.0021190000000000002
      },
      "maj_gouv": {
        "Gazole": "2026-05-08 07:00:15",
        "GPLc": "2026-05-08 07:00:15",
        "E10": "2026-05-08 07:00:15",
        "SP98": "2026-05-08 07:00:16"
      }
    },
    {
      "id": "6000026",
      "lat": 43.707,
      "lon": 7.292,
      "cp": "06300",
      "ville": "NICE",
      "prix": {
        "Gazole": 0.002216,
        "E85": 0.000879,
        "GPLc": 0.001059,
        "E10": 0.00199,
        "SP98": 0.00199
      },
      "maj_gouv": {
        "Gazole": "2026-05-12 00:01:00",
        "E85": "2026-05-12 00:01:00",
        "GPLc": "2026-05-12 00:01:00",
        "E10": "2026-05-12 00:01:00",
        "SP98": "2026-05-12 00:01:00"
      }
    },
    {
      "id": "6260002",
      "lat": 43.954755139463,
      "lon": 6.89044101879,
      "cp": "06260",
      "ville": "PUGET-THENIERS",
      "prix": {
        "Gazole": 0.002069,
        "SP95": 0.0019890000000000003,
        "SP98": 0.001999
      },
      "maj_gouv": {
        "Gazole": "2026-05-08 07:00:00",
        "SP95": "2026-05-02 08:00:19",
        "SP98": "2026-05-02 08:00:19"
      }
    },
    {
      "id": "6450002",
      "lat": 43.993,
      "lon": 7.319,
      "cp": "06450",
      "ville": "La Bollène-Vésubie",
      "prix": {
        "Gazole": 0.0022789999999999998,
        "SP95": 0.002169,
        "E10": 0.002128,
        "SP98": 0.0022389999999999997
      },
      "maj_gouv": {
        "Gazole": "2026-04-29 21:07:47",
        "SP95": "2026-05-06 06:42:12",
        "E10": "2026-05-06 06:42:12",
        "SP98": "2026-05-06 06:42:12"
      }
    },
    {
      "id": "6200027",
      "lat": 43.68801625970001,
      "lon": 7.197364288269999,
      "cp": "06200",
      "ville": "NICE",
      "prix": {
        "Gazole": 0.002091,
        "E85": 0.000889,
        "E10": 0.00199
      },
      "maj_gouv": {
        "Gazole": "2026-05-12 00:01:00",
        "E85": "2026-05-12 00:01:00",
        "E10": "2026-05-12 00:01:00"
      }
    },
    {
      "id": "6600024",
      "lat": 43.599,
      "lon": 7.087,
      "cp": "06600",
      "ville": "ANTIBES",
      "prix": {
        "Gazole": 0.002091,
        "E85": 0.0008449999999999999
      },
      "maj_gouv": {
        "Gazole": "2026-05-12 00:01:00",
        "E85": "2026-05-12 00:01:00"
      }
    },
    {
      "id": "6150008",
      "lat": 43.55,
      "lon": 6.958,
      "cp": "06150",
      "ville": "Cannes",
      "prix": {
        "Gazole": 0.002091,
        "E85": 0.000839,
        "E10": 0.00199,
        "SP98": 0.00199
      },
      "maj_gouv": {
        "Gazole": "2026-05-12 00:01:00",
        "E85": "2026-05-12 00:01:00",
        "E10": "2026-05-12 00:01:00",
        "SP98": "2026-05-12 00:01:00"
      }
    },
    {
      "id": "6260001",
      "lat": 43.95599,
      "lon": 6.89387,
      "cp": "06260",
      "ville": "PUGET-THéNIERS",
      "prix": {
        "Gazole": 0.0021309999999999996,
        "E10": 0.00199
      },
      "maj_gouv": {
        "Gazole": "2026-05-11 09:17:24",
        "E10": "2026-05-11 09:17:24"
      }
    },
    {
      "id": "6510001",
      "lat": 43.776,
      "lon": 7.199,
      "cp": "06510",
      "ville": "Carros",
      "prix": {
        "Gazole": 0.002126
      },
      "maj_gouv": {
        "Gazole": "2026-05-11 07:21:44"
      }
    },
    {
      "id": "6700002",
      "lat": 43.666,
      "lon": 7.193,
      "cp": "06700",
      "ville": "SAINT-LAURENT-DU-VAR",
      "prix": {
        "Gazole": 0.002245,
        "E85": 0.000999,
        "GPLc": 0.001045,
        "E10": 0.002049,
        "SP98": 0.002139
      },
      "maj_gouv": {
        "Gazole": "2026-05-07 23:12:00",
        "E85": "2026-05-07 23:12:00",
        "GPLc": "2026-05-07 23:12:00",
        "E10": "2026-05-07 23:12:00",
        "SP98": "2026-05-07 23:12:00"
      }
    },
    {
      "id": "6230003",
      "lat": 43.706,
      "lon": 7.32,
      "cp": "06230",
      "ville": "Villefranche-sur-Mer",
      "prix": {
        "Gazole": 0.002215
      },
      "maj_gouv": {
        "Gazole": "2026-05-12 00:01:00"
      }
    },
    {
      "id": "6530009",
      "lat": 43.634466130711,
      "lon": 6.8536449026235,
      "cp": "06530",
      "ville": "LE TIGNET",
      "prix": {
        "Gazole": 0.002199,
        "SP95": 0.0021190000000000002
      },
      "maj_gouv": {
        "Gazole": "2026-05-05 08:44:58",
        "SP95": "2026-05-05 08:44:58"
      }
    },
    {
      "id": "6600026",
      "lat": 43.590643167347004,
      "lon": 7.109473952493801,
      "cp": "06600",
      "ville": "Antibes",
      "prix": {
        "Gazole": 0.002149,
        "E85": 0.0008449999999999999,
        "E10": 0.001994,
        "SP98": 0.0021720000000000003
      },
      "maj_gouv": {
        "Gazole": "2026-05-11 09:14:17",
        "E85": "2026-04-10 09:03:10",
        "E10": "2026-05-11 09:14:17",
        "SP98": "2026-05-11 09:14:18"
      }
    },
    {
      "id": "6220005",
      "lat": 43.58,
      "lon": 7.062,
      "cp": "06220",
      "ville": "Golfe-Juan",
      "prix": {
        "Gazole": 0.002183,
        "SP98": 0.00199
      },
      "maj_gouv": {
        "Gazole": "2026-05-12 00:01:00",
        "SP98": "2026-05-12 00:01:00"
      }
    },
    {
      "id": "6610005",
      "lat": 43.717648206695,
      "lon": 7.1522485398704,
      "cp": "06610",
      "ville": "LA GAUDE",
      "prix": {
        "Gazole": 0.002299,
        "E10": 0.002099,
        "SP98": 0.002199
      },
      "maj_gouv": {
        "Gazole": "2026-03-28 09:58:38",
        "E10": "2026-03-28 09:58:39",
        "SP98": "2026-03-28 09:58:39"
      }
    },
    {
      "id": "6340001",
      "lat": 43.757,
      "lon": 7.32,
      "cp": "06340",
      "ville": "Drap",
      "prix": {
        "Gazole": 0.00227,
        "SP95": 0.00217,
        "SP98": 0.00221
      },
      "maj_gouv": {
        "Gazole": "2026-05-06 07:05:42",
        "SP95": "2026-04-15 07:11:55",
        "SP98": "2026-04-15 07:11:56"
      }
    },
    {
      "id": "6110006",
      "lat": 43.573,
      "lon": 7.001,
      "cp": "06110",
      "ville": "Le Cannet",
      "prix": {
        "Gazole": 0.002125,
        "SP95": 0.002105,
        "E10": 0.002055,
        "SP98": 0.00214
      },
      "maj_gouv": {
        "Gazole": "2026-05-07 09:00:00",
        "SP95": "2026-05-07 09:00:00",
        "E10": "2026-05-07 09:00:00",
        "SP98": "2026-05-07 09:00:00"
      }
    },
    {
      "id": "6210010",
      "lat": 43.534,
      "lon": 6.934,
      "cp": "06210",
      "ville": "MANDELIEU LA NAPOULE",
      "prix": {
        "Gazole": 0.0020819999999999996,
        "E85": 0.001039,
        "GPLc": 0.000999,
        "E10": 0.002032,
        "SP98": 0.002098
      },
      "maj_gouv": {
        "Gazole": "2026-05-11 09:32:13",
        "E85": "2026-05-11 14:51:32",
        "GPLc": "2026-05-11 09:32:14",
        "E10": "2026-05-11 09:32:14",
        "SP98": "2026-05-11 09:32:14"
      }
    },
    {
      "id": "6345001",
      "lat": 43.743310338554004,
      "lon": 7.3213261846714,
      "cp": "06345",
      "ville": "La Trinité",
      "prix": {
        "Gazole": 0.00214,
        "E85": 0.0008179999999999999,
        "E10": 0.001999,
        "SP98": 0.0021379999999999997
      },
      "maj_gouv": {
        "Gazole": "2026-05-11 08:51:38",
        "E85": "2026-05-11 08:51:38",
        "E10": "2026-05-11 08:51:38",
        "SP98": "2026-05-11 08:51:38"
      }
    },
    {
      "id": "6330003",
      "lat": 43.667,
      "lon": 7.051,
      "cp": "06330",
      "ville": "Roquefort-les-Pins",
      "prix": {
        "Gazole": 0.002202,
        "E85": 0.000869,
        "E10": 0.00199
      },
      "maj_gouv": {
        "Gazole": "2026-05-12 05:53:13",
        "E85": "2026-05-11 06:46:49",
        "E10": "2026-05-11 06:46:49"
      }
    },
    {
      "id": "6240006",
      "lat": 43.75,
      "lon": 7.423,
      "cp": "06240",
      "ville": "Beausoleil",
      "prix": {
        "Gazole": 0.00227,
        "GPLc": 0.0010680000000000002,
        "E10": 0.0021379999999999997,
        "SP98": 0.002205
      },
      "maj_gouv": {
        "Gazole": "2026-05-08 17:53:14",
        "GPLc": "2026-05-08 17:53:14",
        "E10": "2026-05-08 09:43:14",
        "SP98": "2026-05-08 09:43:14"
      }
    },
    {
      "id": "6130012",
      "lat": 43.639023713571,
      "lon": 6.9763076001534,
      "cp": "06130",
      "ville": "PLASCASSIER - GRASSE",
      "prix": {
        "Gazole": 0.0021160000000000003,
        "E85": 0.0008539999999999999,
        "E10": 0.001999,
        "SP98": 0.0021230000000000003
      },
      "maj_gouv": {
        "Gazole": "2026-05-11 10:45:37",
        "E85": "2026-05-11 10:45:38",
        "E10": "2026-05-11 10:45:38",
        "SP98": "2026-05-11 10:45:38"
      }
    },
    {
      "id": "6270003",
      "lat": 43.629,
      "lon": 7.134,
      "cp": "06270",
      "ville": "Villeneuve-Loubet",
      "prix": {
        "Gazole": 0.002159,
        "E10": 0.002059,
        "SP98": 0.002149
      },
      "maj_gouv": {
        "Gazole": "2026-05-11 19:16:26",
        "E10": "2026-05-11 19:16:26",
        "SP98": "2026-05-11 19:16:26"
      }
    },
    {
      "id": "6250009",
      "lat": 43.584,
      "lon": 7.025,
      "cp": "06250",
      "ville": "MOUGINS",
      "prix": {
        "Gazole": 0.0022229999999999997,
        "E85": 0.000998,
        "GPLc": 0.001078,
        "E10": 0.00199,
        "SP98": 0.00199
      },
      "maj_gouv": {
        "Gazole": "2026-05-12 00:01:00",
        "E85": "2026-05-12 00:01:00",
        "GPLc": "2026-05-12 00:01:00",
        "E10": "2026-05-12 00:01:00",
        "SP98": "2026-05-12 00:01:00"
      }
    },
    {
      "id": "6230002",
      "lat": 43.706,
      "lon": 7.301,
      "cp": "06230",
      "ville": "Villefranche-sur-Mer",
      "prix": {
        "Gazole": 0.002156,
        "E10": 0.002052,
        "SP98": 0.002132
      },
      "maj_gouv": {
        "Gazole": "2026-05-11 06:30:00",
        "E10": "2026-05-11 06:30:00",
        "SP98": "2026-05-11 06:30:00"
      }
    },
    {
      "id": "6600027",
      "lat": 43.577344000000004,
      "lon": 7.107005,
      "cp": "06600",
      "ville": "ANTIBES",
      "prix": {
        "Gazole": 0.002059,
        "E85": 0.000819,
        "E10": 0.00199
      },
      "maj_gouv": {
        "Gazole": "2026-05-11 19:00:12",
        "E85": "2026-04-21 13:03:49",
        "E10": "2026-05-11 19:00:12"
      }
    },
    {
      "id": "6620001",
      "lat": 43.79666099999999,
      "lon": 6.949831,
      "cp": "06620",
      "ville": "Gréolières",
      "prix": {
        "Gazole": 0.002321,
        "E10": 0.002101
      },
      "maj_gouv": {
        "Gazole": "2026-04-30 16:18:23",
        "E10": "2026-04-30 16:18:24"
      }
    },
    {
      "id": "6250001",
      "lat": 43.579827627633996,
      "lon": 6.9959674750295004,
      "cp": "06250",
      "ville": "MOUGINS",
      "prix": {
        "Gazole": 0.002149,
        "E85": 0.000889,
        "E10": 0.002039,
        "SP98": 0.002169
      },
      "maj_gouv": {
        "Gazole": "2026-05-07 12:36:52",
        "E85": "2026-05-07 12:36:52",
        "E10": "2026-05-07 12:36:52",
        "SP98": "2026-05-07 12:36:52"
      }
    },
    {
      "id": "6400013",
      "lat": 43.552,
      "lon": 7.006,
      "cp": "06400",
      "ville": "CANNES",
      "prix": {
        "Gazole": 0.002129,
        "E10": 0.002069,
        "SP98": 0.002219
      },
      "maj_gouv": {
        "Gazole": "2026-05-12 06:18:41",
        "E10": "2026-05-12 06:18:41",
        "SP98": "2026-05-12 06:18:41"
      }
    },
    {
      "id": "6800029",
      "lat": 43.66,
      "lon": 7.138,
      "cp": "06800",
      "ville": "CAGNES SUR MER",
      "prix": {
        "Gazole": 0.002129,
        "GPLc": 0.0011690000000000001,
        "E10": 0.002069,
        "SP98": 0.002219
      },
      "maj_gouv": {
        "Gazole": "2026-05-12 06:21:19",
        "GPLc": "2026-05-12 06:21:20",
        "E10": "2026-05-12 06:21:19",
        "SP98": "2026-05-12 06:21:19"
      }
    },
    {
      "id": "6130007",
      "lat": 43.652,
      "lon": 6.946,
      "cp": "06130",
      "ville": "Grasse",
      "prix": {
        "Gazole": 0.002115,
        "E85": 0.000853,
        "E10": 0.001996,
        "SP98": 0.0021219999999999998
      },
      "maj_gouv": {
        "Gazole": "2026-05-11 10:22:41",
        "E85": "2026-05-11 10:22:41",
        "E10": "2026-05-11 10:22:42",
        "SP98": "2026-05-11 10:22:42"
      }
    },
    {
      "id": "6440001",
      "lat": 43.77850599999999,
      "lon": 7.338931,
      "cp": "06440",
      "ville": "BLAUSASC",
      "prix": {
        "Gazole": 0.00214,
        "E85": 0.0008179999999999999,
        "E10": 0.002049,
        "SP98": 0.0021680000000000002
      },
      "maj_gouv": {
        "Gazole": "2026-05-11 10:09:35",
        "E85": "2026-04-20 06:08:13",
        "E10": "2026-05-11 10:09:35",
        "SP98": "2026-05-11 10:09:35"
      }
    },
    {
      "id": "6800017",
      "lat": 43.665,
      "lon": 7.171,
      "cp": "06800",
      "ville": "Cagnes-sur-Mer",
      "prix": {
        "Gazole": 0.002176,
        "E85": 0.000889,
        "E10": 0.00199,
        "SP98": 0.00199
      },
      "maj_gouv": {
        "Gazole": "2026-05-12 00:01:00",
        "E85": "2026-05-12 00:01:00",
        "E10": "2026-05-12 00:01:00",
        "SP98": "2026-05-12 00:01:00"
      }
    },
    {
      "id": "6200028",
      "lat": 43.675,
      "lon": 7.229,
      "cp": "06200",
      "ville": "NICE",
      "prix": {
        "Gazole": 0.002183,
        "E85": 0.0008990000000000001,
        "GPLc": 0.001039,
        "E10": 0.00199,
        "SP98": 0.00199
      },
      "maj_gouv": {
        "Gazole": "2026-05-12 00:01:00",
        "E85": "2026-05-12 00:01:00",
        "GPLc": "2026-05-12 00:01:00",
        "E10": "2026-05-12 00:01:00",
        "SP98": "2026-05-12 00:01:00"
      }
    },
    {
      "id": "6800019",
      "lat": 43.65936,
      "lon": 7.16732,
      "cp": "06800",
      "ville": "Cagnes-sur-Mer",
      "prix": {
        "Gazole": 0.002091,
        "E10": 0.00199
      },
      "maj_gouv": {
        "Gazole": "2026-05-12 00:01:00",
        "E10": "2026-05-12 00:01:00"
      }
    },
    {
      "id": "6670008",
      "lat": 43.856,
      "lon": 7.227,
      "cp": "06670",
      "ville": "Levens",
      "prix": {
        "Gazole": 0.002499,
        "SP95": 0.002313
      },
      "maj_gouv": {
        "Gazole": "2026-04-09 18:00:00",
        "SP95": "2026-04-01 18:14:40"
      }
    },
    {
      "id": "6130001",
      "lat": 43.635,
      "lon": 6.952,
      "cp": "06130",
      "ville": "GRASSE",
      "prix": {
        "Gazole": 0.0021160000000000003,
        "E85": 0.0008539999999999999,
        "GPLc": 0.000999,
        "E10": 0.001997,
        "SP98": 0.0021230000000000003
      },
      "maj_gouv": {
        "Gazole": "2026-05-11 09:29:18",
        "E85": "2026-05-11 09:29:18",
        "GPLc": "2026-05-11 09:29:18",
        "E10": "2026-05-11 09:29:18",
        "SP98": "2026-05-11 09:29:18"
      }
    },
    {
      "id": "6200033",
      "lat": 43.687258275145005,
      "lon": 7.2274375422793,
      "cp": "06200",
      "ville": "Nice",
      "prix": {
        "Gazole": 0.00209,
        "E10": 0.00199,
        "SP98": 0.00199
      },
      "maj_gouv": {
        "Gazole": "2026-05-10 08:18:57",
        "E10": "2026-05-10 08:18:58",
        "SP98": "2026-05-10 08:18:58"
      }
    },
    {
      "id": "6201002",
      "lat": 43.71005,
      "lon": 7.18846,
      "cp": "06200",
      "ville": "Nice",
      "prix": {
        "Gazole": 0.002089,
        "SP95": 0.0020510000000000003,
        "GPLc": 0.000983,
        "E10": 0.001992,
        "SP98": 0.002128
      },
      "maj_gouv": {
        "Gazole": "2026-05-11 10:32:56",
        "SP95": "2026-05-11 10:32:56",
        "GPLc": "2026-05-11 10:32:56",
        "E10": "2026-05-11 10:32:57",
        "SP98": "2026-05-11 10:32:57"
      }
    },
    {
      "id": "6910002",
      "lat": 43.874,
      "lon": 7.004,
      "cp": "06910",
      "ville": "Roquesteron",
      "prix": {
        "Gazole": 0.002589,
        "SP98": 0.0023090000000000003
      },
      "maj_gouv": {
        "Gazole": "2026-04-09 11:25:07",
        "SP98": "2026-04-09 11:25:07"
      }
    },
    {
      "id": "6000037",
      "lat": 43.717,
      "lon": 7.282,
      "cp": "06000",
      "ville": "NICE",
      "prix": {
        "Gazole": 0.002219,
        "E85": 0.000999,
        "E10": 0.002049,
        "SP98": 0.002099
      },
      "maj_gouv": {
        "Gazole": "2026-05-08 00:00:00",
        "E85": "2026-03-24 00:00:00",
        "E10": "2026-05-05 00:00:00",
        "SP98": "2026-05-08 00:00:00"
      }
    },
    {
      "id": "6660003",
      "lat": 44.226482999999995,
      "lon": 6.9602319999999995,
      "cp": "06660",
      "ville": "SAINT ETIENNE DE TINEE",
      "prix": {
        "SP95": 0.00199,
        "SP98": 0.00199
      },
      "maj_gouv": {
        "SP95": "2026-05-04 09:47:33",
        "SP98": "2026-05-04 09:47:33"
      }
    },
    {
      "id": "6650004",
      "lat": 43.672993340900994,
      "lon": 6.9940596192009,
      "cp": "06650",
      "ville": "LE ROURET",
      "prix": {
        "Gazole": 0.002115,
        "E10": 0.001999,
        "SP98": 0.002121
      },
      "maj_gouv": {
        "Gazole": "2026-05-11 14:41:41",
        "E10": "2026-05-11 14:41:42",
        "SP98": "2026-05-11 14:41:42"
      }
    },
    {
      "id": "6670007",
      "lat": 43.76,
      "lon": 7.2,
      "cp": "06670",
      "ville": "COLOMARS",
      "prix": {
        "Gazole": 0.002091
      },
      "maj_gouv": {
        "Gazole": "2026-05-12 00:01:00"
      }
    },
    {
      "id": "6330002",
      "lat": 43.668,
      "lon": 7.043,
      "cp": "06330",
      "ville": "Roquefort-les-Pins",
      "prix": {
        "Gazole": 0.002219,
        "E10": 0.002069,
        "SP98": 0.002185
      },
      "maj_gouv": {
        "Gazole": "2026-05-05 15:12:20",
        "E10": "2026-05-05 15:12:20",
        "SP98": "2026-05-05 15:12:20"
      }
    },
    {
      "id": "6000036",
      "lat": 43.728,
      "lon": 7.256,
      "cp": "06000",
      "ville": "Nice",
      "prix": {
        "Gazole": 0.002179,
        "E10": 0.0021190000000000002,
        "SP98": 0.002269
      },
      "maj_gouv": {
        "Gazole": "2026-05-12 06:22:02",
        "E10": "2026-05-12 06:22:02",
        "SP98": "2026-05-12 06:22:02"
      }
    },
    {
      "id": "6800020",
      "lat": 43.654,
      "lon": 7.148,
      "cp": "06800",
      "ville": "Cagnes-sur-Mer",
      "prix": {
        "Gazole": 0.002091
      },
      "maj_gouv": {
        "Gazole": "2026-05-12 00:01:00"
      }
    },
    {
      "id": "6450003",
      "lat": 44.059,
      "lon": 7.26,
      "cp": "06450",
      "ville": "Saint Martin Vésubie",
      "prix": {
        "Gazole": 0.002269,
        "E85": 0.000869,
        "E10": 0.002109,
        "SP98": 0.002179
      },
      "maj_gouv": {
        "Gazole": "2026-05-06 06:27:15",
        "E85": "2026-03-21 08:10:53",
        "E10": "2026-05-06 06:27:15",
        "SP98": "2026-05-06 06:27:15"
      }
    },
    {
      "id": "6380002",
      "lat": 43.87380862385,
      "lon": 7.4478779887466,
      "cp": "06380",
      "ville": "Sospel",
      "prix": {
        "Gazole": 0.0023039999999999996,
        "E10": 0.002126,
        "SP98": 0.0021939999999999998
      },
      "maj_gouv": {
        "Gazole": "2026-04-30 07:38:34",
        "E10": "2026-04-22 14:32:44",
        "SP98": "2026-04-22 14:32:44"
      }
    }
  ]
}