{
  "departement": "44",
  "date": "2026-05-12",
  "stations": [
    {
      "id": "44000009",
      "lat": 47.204,
      "lon": -1.547,
      "cp": "44200",
      "ville": "NANTES",
      "prix": {
        "Gazole": 0.002145
      },
      "maj_gouv": {
        "Gazole": "2026-05-12 00:01:00"
      }
    },
    {
      "id": "44260003",
      "lat": 47.35931,
      "lon": -1.86116,
      "cp": "44260",
      "ville": "Malville",
      "prix": {
        "Gazole": 0.002242,
        "SP95": 0.00212,
        "SP98": 0.0021579999999999998
      },
      "maj_gouv": {
        "Gazole": "2026-05-04 19:01:12",
        "SP95": "2026-05-04 19:01:29",
        "SP98": "2026-05-04 19:01:50"
      }
    },
    {
      "id": "44720005",
      "lat": 47.386232393331,
      "lon": -2.2034903965863997,
      "cp": "44720",
      "ville": "Saint-Joachim",
      "prix": {
        "Gazole": 0.002489,
        "SP95": 0.002029,
        "SP98": 0.002109
      },
      "maj_gouv": {
        "Gazole": "2026-04-07 17:12:43",
        "SP95": "2026-04-28 08:22:21",
        "SP98": "2026-04-28 08:22:21"
      }
    },
    {
      "id": "44220005",
      "lat": 47.21363,
      "lon": -1.72222,
      "cp": "44220",
      "ville": "COUERON",
      "prix": {
        "Gazole": 0.0021190000000000002,
        "SP95": 0.002049,
        "E10": 0.001999
      },
      "maj_gouv": {
        "Gazole": "2026-05-07 09:53:05",
        "SP95": "2026-05-07 09:53:05",
        "E10": "2026-05-07 09:53:05"
      }
    },
    {
      "id": "44120005",
      "lat": 47.173,
      "lon": -1.474,
      "cp": "44120",
      "ville": "VERTOU",
      "prix": {
        "Gazole": 0.002091,
        "E85": 0.000829,
        "GPLc": 0.000999
      },
      "maj_gouv": {
        "Gazole": "2026-05-12 00:01:00",
        "E85": "2026-05-12 00:01:00",
        "GPLc": "2026-05-12 00:01:00"
      }
    },
    {
      "id": "44780002",
      "lat": 47.482822997313995,
      "lon": -2.1613944821039,
      "cp": "44780",
      "ville": "MISSILLAC",
      "prix": {
        "Gazole": 0.002299,
        "E10": 0.002104
      },
      "maj_gouv": {
        "Gazole": "2026-05-04 11:01:44",
        "E10": "2026-05-04 11:01:45"
      }
    },
    {
      "id": "44110002",
      "lat": 47.705,
      "lon": -1.389,
      "cp": "44110",
      "ville": "CHâTEAUBRIANT",
      "prix": {
        "Gazole": 0.002113,
        "E10": 0.00199
      },
      "maj_gouv": {
        "Gazole": "2026-05-11 08:09:09",
        "E10": "2026-05-11 08:09:09"
      }
    },
    {
      "id": "44270001",
      "lat": 46.999,
      "lon": -1.817,
      "cp": "44270",
      "ville": "MACHECOUL",
      "prix": {
        "Gazole": 0.002099,
        "SP95": 0.0020440000000000002,
        "E85": 0.000719,
        "SP98": 0.002099
      },
      "maj_gouv": {
        "Gazole": "2026-05-11 08:50:14",
        "SP95": "2026-05-11 08:50:15",
        "E85": "2026-04-24 08:15:43",
        "SP98": "2026-05-07 08:34:54"
      }
    },
    {
      "id": "44360007",
      "lat": 47.278,
      "lon": -1.721,
      "cp": "44360",
      "ville": "Saint-Étienne-de-Montluc",
      "prix": {
        "Gazole": 0.002019,
        "E85": 0.000699,
        "E10": 0.0019790000000000003,
        "SP98": 0.002099
      },
      "maj_gouv": {
        "Gazole": "2026-05-11 11:28:33",
        "E85": "2026-05-11 11:28:34",
        "E10": "2026-05-11 11:28:34",
        "SP98": "2026-05-11 11:28:34"
      }
    },
    {
      "id": "44400006",
      "lat": 47.18,
      "lon": -1.533,
      "cp": "44400",
      "ville": "REZé",
      "prix": {
        "Gazole": 0.002165,
        "E10": 0.002039,
        "SP98": 0.002125
      },
      "maj_gouv": {
        "Gazole": "2026-05-05 08:14:58",
        "E10": "2026-05-10 09:51:53",
        "SP98": "2026-05-10 09:51:54"
      }
    },
    {
      "id": "44530003",
      "lat": 47.50937,
      "lon": -2.04035,
      "cp": "44530",
      "ville": "Saint-Gildas-des-Bois",
      "prix": {
        "Gazole": 0.002099,
        "SP95": 0.002029,
        "SP98": 0.002069
      },
      "maj_gouv": {
        "Gazole": "2026-05-11 08:26:48",
        "SP95": "2026-05-11 08:26:48",
        "SP98": "2026-05-11 08:26:48"
      }
    },
    {
      "id": "44118003",
      "lat": 47.09,
      "lon": -1.611,
      "cp": "44118",
      "ville": "La Chevrolière",
      "prix": {
        "Gazole": 0.002199,
        "SP95": 0.002079,
        "SP98": 0.0022589999999999997
      },
      "maj_gouv": {
        "Gazole": "2026-05-06 11:22:47",
        "SP95": "2026-05-06 11:22:47",
        "SP98": "2026-05-06 11:22:47"
      }
    },
    {
      "id": "44700005",
      "lat": 47.24,
      "lon": -1.59,
      "cp": "44700",
      "ville": "ORVAULT",
      "prix": {
        "Gazole": 0.002159,
        "E10": 0.002019,
        "SP98": 0.002169
      },
      "maj_gouv": {
        "Gazole": "2026-05-11 11:09:24",
        "E10": "2026-05-11 11:09:24",
        "SP98": "2026-05-11 11:09:24"
      }
    },
    {
      "id": "44430003",
      "lat": 47.237,
      "lon": -1.35,
      "cp": "44430",
      "ville": "Le Loroux-Bottereau",
      "prix": {
        "Gazole": 0.002229,
        "E10": 0.002059,
        "SP98": 0.002169
      },
      "maj_gouv": {
        "Gazole": "2026-05-05 07:59:30",
        "E10": "2026-05-05 07:59:30",
        "SP98": "2026-05-05 07:59:30"
      }
    },
    {
      "id": "44300020",
      "lat": 47.26,
      "lon": -1.576,
      "cp": "44300",
      "ville": "Nantes",
      "prix": {
        "Gazole": 0.002269,
        "E85": 0.000975,
        "GPLc": 0.001089,
        "E10": 0.002099,
        "SP98": 0.002229
      },
      "maj_gouv": {
        "Gazole": "2026-05-08 10:41:01",
        "E85": "2026-05-08 10:41:01",
        "GPLc": "2026-05-08 10:41:01",
        "E10": "2026-05-08 10:41:01",
        "SP98": "2026-05-08 10:41:01"
      }
    },
    {
      "id": "44700003",
      "lat": 47.24624,
      "lon": -1.58938,
      "cp": "44700",
      "ville": "Orvault",
      "prix": {
        "Gazole": 0.002229,
        "E85": 0.000819,
        "E10": 0.002039,
        "SP98": 0.002149
      },
      "maj_gouv": {
        "Gazole": "2026-05-05 08:00:00",
        "E85": "2026-04-17 08:17:56",
        "E10": "2026-05-05 08:00:00",
        "SP98": "2026-05-05 08:00:00"
      }
    },
    {
      "id": "44630002",
      "lat": 47.5425428,
      "lon": -1.8827017000000001,
      "cp": "44630",
      "ville": "Plessé",
      "prix": {
        "Gazole": 0.002225,
        "SP95": 0.002111,
        "SP98": 0.002202
      },
      "maj_gouv": {
        "Gazole": "2026-05-07 09:43:36",
        "SP95": "2026-05-07 09:43:36",
        "SP98": "2026-05-07 09:43:36"
      }
    },
    {
      "id": "44850002",
      "lat": 47.361,
      "lon": -1.408,
      "cp": "44850",
      "ville": "SAINT-MARS-DU-DéSERT",
      "prix": {
        "Gazole": 0.002149,
        "SP95": 0.002069,
        "SP98": 0.002099
      },
      "maj_gouv": {
        "Gazole": "2026-05-11 14:43:00",
        "SP95": "2026-05-11 14:43:00",
        "SP98": "2026-05-11 14:43:00"
      }
    },
    {
      "id": "44880001",
      "lat": 47.26,
      "lon": -1.655,
      "cp": "44880",
      "ville": "SAUTRON",
      "prix": {
        "Gazole": 0.002139,
        "SP95": 0.002069,
        "E85": 0.000759
      },
      "maj_gouv": {
        "Gazole": "2026-05-11 08:39:17",
        "SP95": "2026-05-11 08:39:17",
        "E85": "2026-04-24 12:33:25"
      }
    },
    {
      "id": "44120007",
      "lat": 47.187,
      "lon": -1.485,
      "cp": "44120",
      "ville": "VERTOU",
      "prix": {
        "Gazole": 0.002199,
        "GPLc": 0.000999,
        "E10": 0.002079,
        "SP98": 0.002156
      },
      "maj_gouv": {
        "Gazole": "2026-05-05 21:28:54",
        "GPLc": "2026-05-05 21:28:55",
        "E10": "2026-05-05 21:28:55",
        "SP98": "2026-05-05 21:28:55"
      }
    },
    {
      "id": "44830002",
      "lat": 47.144,
      "lon": -1.679,
      "cp": "44830",
      "ville": "BOUAYE",
      "prix": {
        "Gazole": 0.002099,
        "SP95": 0.002079,
        "SP98": 0.002099
      },
      "maj_gouv": {
        "Gazole": "2026-05-11 11:47:12",
        "SP95": "2026-05-11 11:47:12",
        "SP98": "2026-05-11 11:47:12"
      }
    },
    {
      "id": "44406001",
      "lat": 47.194,
      "lon": -1.572,
      "cp": "44400",
      "ville": "REZé",
      "prix": {
        "Gazole": 0.002091,
        "GPLc": 0.000991,
        "E10": 0.00199,
        "SP98": 0.002075
      },
      "maj_gouv": {
        "Gazole": "2026-05-12 01:17:00",
        "GPLc": "2026-05-12 01:17:00",
        "E10": "2026-05-12 01:17:00",
        "SP98": "2026-05-12 01:17:00"
      }
    },
    {
      "id": "44810001",
      "lat": 47.41492,
      "lon": -1.66024,
      "cp": "44810",
      "ville": "Héric",
      "prix": {
        "Gazole": 0.0021190000000000002,
        "E10": 0.002039,
        "SP98": 0.002099
      },
      "maj_gouv": {
        "Gazole": "2026-05-09 09:00:00",
        "E10": "2026-05-09 09:00:00",
        "SP98": "2026-05-09 09:00:00"
      }
    },
    {
      "id": "44400009",
      "lat": 47.16,
      "lon": -1.551,
      "cp": "44400",
      "ville": "REZE",
      "prix": {
        "E85": 0.0008359999999999999,
        "GPLc": 0.000999
      },
      "maj_gouv": {
        "E85": "2026-05-12 00:01:00",
        "GPLc": "2026-05-12 00:01:00"
      }
    },
    {
      "id": "44150001",
      "lat": 47.397,
      "lon": -1.19,
      "cp": "44150",
      "ville": "ANCENIS",
      "prix": {
        "Gazole": 0.00233,
        "SP95": 0.0022299999999999998,
        "GPLc": 0.0010789999999999999,
        "SP98": 0.00226
      },
      "maj_gouv": {
        "Gazole": "2026-05-06 15:13:09",
        "SP95": "2026-04-07 13:48:21",
        "GPLc": "2025-12-22 14:58:39",
        "SP98": "2026-04-07 13:48:21"
      }
    },
    {
      "id": "44190008",
      "lat": 47.099,
      "lon": -1.282,
      "cp": "44190",
      "ville": "Clisson",
      "prix": {
        "Gazole": 0.002125,
        "SP95": 0.002074,
        "E85": 0.000707,
        "E10": 0.002033,
        "SP98": 0.002118
      },
      "maj_gouv": {
        "Gazole": "2026-05-12 01:17:00",
        "SP95": "2026-05-12 01:17:00",
        "E85": "2026-05-12 01:17:00",
        "E10": "2026-05-12 01:17:00",
        "SP98": "2026-05-12 01:17:00"
      }
    },
    {
      "id": "44480002",
      "lat": 47.32906,
      "lon": -2.08771,
      "cp": "44480",
      "ville": "DONGES",
      "prix": {
        "Gazole": 0.002199,
        "E10": 0.002049,
        "SP98": 0.002159
      },
      "maj_gouv": {
        "Gazole": "2026-05-05 05:03:18",
        "E10": "2026-05-05 05:03:18",
        "SP98": "2026-05-05 05:03:18"
      }
    },
    {
      "id": "44560001",
      "lat": 47.284,
      "lon": -2.016,
      "cp": "44560",
      "ville": "PAIMBOEUF",
      "prix": {
        "Gazole": 0.002199,
        "SP95": 0.002099,
        "E10": 0.002056,
        "SP98": 0.002143
      },
      "maj_gouv": {
        "Gazole": "2026-05-06 08:55:35",
        "SP95": "2026-05-06 08:55:35",
        "E10": "2026-05-06 08:55:35",
        "SP98": "2026-05-06 08:55:35"
      }
    },
    {
      "id": "44320007",
      "lat": 47.2063373,
      "lon": -2.0440813,
      "cp": "44320",
      "ville": "Saint Pere En Retz",
      "prix": {
        "Gazole": 0.002219,
        "SP95": 0.002099,
        "SP98": 0.002143
      },
      "maj_gouv": {
        "Gazole": "2026-05-06 09:13:46",
        "SP95": "2026-05-06 09:13:47",
        "SP98": "2026-05-06 09:13:47"
      }
    },
    {
      "id": "44300013",
      "lat": 47.235,
      "lon": -1.52,
      "cp": "44300",
      "ville": "NANTES",
      "prix": {
        "Gazole": 0.002099,
        "E10": 0.001999,
        "SP98": 0.0021190000000000002
      },
      "maj_gouv": {
        "Gazole": "2026-05-09 12:48:42",
        "E10": "2026-05-09 12:48:42",
        "SP98": "2026-05-09 12:48:42"
      }
    },
    {
      "id": "44340004",
      "lat": 47.159,
      "lon": -1.6,
      "cp": "44340",
      "ville": "Bouguenais",
      "prix": {
        "Gazole": 0.00225
      },
      "maj_gouv": {
        "Gazole": "2026-05-11 08:50:29"
      }
    },
    {
      "id": "44420002",
      "lat": 47.353,
      "lon": -2.512,
      "cp": "44420",
      "ville": "LA TURBALLE",
      "prix": {
        "Gazole": 0.0021720000000000003,
        "E10": 0.0020259999999999996,
        "SP98": 0.002106
      },
      "maj_gouv": {
        "Gazole": "2026-05-04 08:30:00",
        "E10": "2026-05-06 08:30:00",
        "SP98": "2026-05-06 08:30:00"
      }
    },
    {
      "id": "44340006",
      "lat": 47.186,
      "lon": -1.602,
      "cp": "44340",
      "ville": "BOUGUENAIS",
      "prix": {
        "Gazole": 0.002091,
        "E85": 0.000839,
        "E10": 0.00199
      },
      "maj_gouv": {
        "Gazole": "2026-05-12 00:01:00",
        "E85": "2026-05-12 00:01:00",
        "E10": "2026-05-12 00:01:00"
      }
    },
    {
      "id": "44250005",
      "lat": 47.22914,
      "lon": -2.15541,
      "cp": "44250",
      "ville": "Saint-Brevin-les-Pins",
      "prix": {
        "Gazole": 0.002091,
        "E85": 0.000843,
        "GPLc": 0.001019,
        "SP98": 0.00199
      },
      "maj_gouv": {
        "Gazole": "2026-05-12 00:01:00",
        "E85": "2026-05-12 00:01:00",
        "GPLc": "2026-05-12 00:01:00",
        "SP98": "2026-05-12 00:01:00"
      }
    },
    {
      "id": "44130001",
      "lat": 47.473061839157,
      "lon": -1.7469807605743002,
      "cp": "44130",
      "ville": "BLAIN",
      "prix": {
        "Gazole": 0.00211,
        "SP95": 0.002109,
        "E10": 0.0020150000000000003,
        "SP98": 0.00209
      },
      "maj_gouv": {
        "Gazole": "2026-05-11 18:24:37",
        "SP95": "2026-05-09 09:34:44",
        "E10": "2026-05-09 09:34:44",
        "SP98": "2026-05-09 09:35:03"
      }
    },
    {
      "id": "44860002",
      "lat": 47.129,
      "lon": -1.583,
      "cp": "44860",
      "ville": "PONT-SAINT-MARTIN",
      "prix": {
        "Gazole": 0.002159,
        "SP95": 0.002089,
        "E10": 0.002049,
        "SP98": 0.002125
      },
      "maj_gouv": {
        "Gazole": "2026-05-06 09:30:19",
        "SP95": "2026-05-06 09:30:19",
        "E10": "2026-05-07 16:57:24",
        "SP98": "2026-05-07 16:57:24"
      }
    },
    {
      "id": "44420003",
      "lat": 47.397,
      "lon": -2.462,
      "cp": "44420",
      "ville": "MESQUER",
      "prix": {
        "E10": 0.002029,
        "SP98": 0.002169
      },
      "maj_gouv": {
        "E10": "2026-05-05 05:57:07",
        "SP98": "2026-05-05 05:57:08"
      }
    },
    {
      "id": "44400001",
      "lat": 47.177,
      "lon": -1.559,
      "cp": "44400",
      "ville": "Rezé",
      "prix": {
        "Gazole": 0.002091,
        "E10": 0.00199,
        "SP98": 0.002079
      },
      "maj_gouv": {
        "Gazole": "2026-05-11 08:17:00",
        "E10": "2026-05-11 08:17:00",
        "SP98": "2026-05-11 08:17:01"
      }
    },
    {
      "id": "44430004",
      "lat": 47.234,
      "lon": -1.367,
      "cp": "44430",
      "ville": "Loroux-Bottereau",
      "prix": {
        "Gazole": 0.002091,
        "E85": 0.000719,
        "E10": 0.00199,
        "SP98": 0.002099
      },
      "maj_gouv": {
        "Gazole": "2026-05-12 01:17:00",
        "E85": "2026-05-12 01:17:00",
        "E10": "2026-05-12 01:17:00",
        "SP98": "2026-05-12 01:17:00"
      }
    },
    {
      "id": "44110004",
      "lat": 47.706,
      "lon": -1.385,
      "cp": "44110",
      "ville": "CHâTEAUBRIANT",
      "prix": {
        "Gazole": 0.002179,
        "E85": 0.0008179999999999999,
        "E10": 0.001999,
        "SP98": 0.002097
      },
      "maj_gouv": {
        "Gazole": "2026-05-11 10:45:26",
        "E85": "2026-04-21 09:09:34",
        "E10": "2026-05-04 10:42:02",
        "SP98": "2026-05-11 10:45:26"
      }
    },
    {
      "id": "44800008",
      "lat": 47.211,
      "lon": -1.619,
      "cp": "44800",
      "ville": "Saint-Herblain",
      "prix": {
        "Gazole": 0.002091
      },
      "maj_gouv": {
        "Gazole": "2026-05-12 00:01:00"
      }
    },
    {
      "id": "44470005",
      "lat": 47.3,
      "lon": -1.498,
      "cp": "44470",
      "ville": "Carquefou",
      "prix": {
        "Gazole": 0.002189,
        "E85": 0.000809,
        "E10": 0.002029,
        "SP98": 0.002109
      },
      "maj_gouv": {
        "Gazole": "2026-05-11 11:35:00",
        "E85": "2026-05-11 11:35:00",
        "E10": "2026-05-11 11:35:00",
        "SP98": "2026-05-11 11:35:00"
      }
    },
    {
      "id": "44160006",
      "lat": 47.449842495365004,
      "lon": -2.127482917,
      "cp": "44160",
      "ville": "PONTCHATEAU",
      "prix": {
        "Gazole": 0.00225,
        "SP95": 0.00199,
        "SP98": 0.00199
      },
      "maj_gouv": {
        "Gazole": "2026-05-11 08:49:53",
        "SP95": "2026-04-22 14:54:41",
        "SP98": "2026-04-22 14:54:41"
      }
    },
    {
      "id": "44590001",
      "lat": 47.668,
      "lon": -1.663,
      "cp": "44590",
      "ville": "DERVAL",
      "prix": {
        "Gazole": 0.00222,
        "E10": 0.001999,
        "SP98": 0.00209
      },
      "maj_gouv": {
        "Gazole": "2026-05-09 19:25:00",
        "E10": "2026-05-09 08:25:00",
        "SP98": "2026-05-09 19:25:00"
      }
    },
    {
      "id": "44220001",
      "lat": 47.194,
      "lon": -1.53,
      "cp": "44200",
      "ville": "NANTES",
      "prix": {
        "Gazole": 0.00216,
        "SP95": 0.002064,
        "SP98": 0.002137
      },
      "maj_gouv": {
        "Gazole": "2026-05-11 15:20:56",
        "SP95": "2026-05-11 15:20:56",
        "SP98": "2026-05-11 15:20:56"
      }
    },
    {
      "id": "44170003",
      "lat": 47.564,
      "lon": -1.618,
      "cp": "44170",
      "ville": "NOZAY",
      "prix": {},
      "maj_gouv": {}
    },
    {
      "id": "44390001",
      "lat": 47.439,
      "lon": -1.48,
      "cp": "44390",
      "ville": "NORT-SUR-ERDRE",
      "prix": {
        "Gazole": 0.002099,
        "E85": 0.000819,
        "GPLc": 0.001099,
        "E10": 0.0019890000000000003,
        "SP98": 0.002099
      },
      "maj_gouv": {
        "Gazole": "2026-05-11 09:00:00",
        "E85": "2026-04-20 16:00:00",
        "GPLc": "2026-04-24 08:16:38",
        "E10": "2026-05-11 09:00:00",
        "SP98": "2026-05-11 09:00:00"
      }
    },
    {
      "id": "44230003",
      "lat": 47.192,
      "lon": -1.492,
      "cp": "44230",
      "ville": "Saint-Sébastien-sur-Loire",
      "prix": {
        "Gazole": 0.002199,
        "E85": 0.000799,
        "GPLc": 0.000999,
        "E10": 0.002079,
        "SP98": 0.002156
      },
      "maj_gouv": {
        "Gazole": "2026-05-06 11:37:05",
        "E85": "2026-03-24 09:31:08",
        "GPLc": "2026-04-29 09:07:20",
        "E10": "2026-05-06 11:37:05",
        "SP98": "2026-05-06 11:37:05"
      }
    },
    {
      "id": "44490002",
      "lat": 47.286,
      "lon": -2.507,
      "cp": "44490",
      "ville": "LE CROISIC",
      "prix": {
        "Gazole": 0.002229,
        "E85": 0.000819,
        "E10": 0.002049,
        "SP98": 0.002159
      },
      "maj_gouv": {
        "Gazole": "2026-05-06 08:35:09",
        "E85": "2026-04-23 07:59:30",
        "E10": "2026-05-06 08:35:09",
        "SP98": "2026-05-06 08:35:09"
      }
    },
    {
      "id": "44220002",
      "lat": 47.215,
      "lon": -1.685,
      "cp": "44220",
      "ville": "Couëron",
      "prix": {
        "Gazole": 0.002149,
        "E10": 0.002039,
        "SP98": 0.002099
      },
      "maj_gouv": {
        "Gazole": "2026-05-08 11:17:27",
        "E10": "2026-05-07 15:03:45",
        "SP98": "2026-05-08 11:17:28"
      }
    },
    {
      "id": "44240012",
      "lat": 47.285,
      "lon": -1.55,
      "cp": "44240",
      "ville": "La chapelle sur Erdre",
      "prix": {
        "Gazole": 0.002184,
        "E85": 0.000809,
        "GPLc": 0.0010689999999999999,
        "E10": 0.002028,
        "SP98": 0.002108
      },
      "maj_gouv": {
        "Gazole": "2026-05-11 11:30:00",
        "E85": "2026-05-11 11:30:00",
        "GPLc": "2026-05-11 11:30:00",
        "E10": "2026-05-11 11:30:00",
        "SP98": "2026-05-11 11:30:00"
      }
    },
    {
      "id": "44350003",
      "lat": 47.322,
      "lon": -2.424,
      "cp": "44350",
      "ville": "Guérande",
      "prix": {},
      "maj_gouv": {}
    },
    {
      "id": "44350001",
      "lat": 47.291,
      "lon": -2.398,
      "cp": "44350",
      "ville": "GUERANDE",
      "prix": {},
      "maj_gouv": {}
    },
    {
      "id": "44170001",
      "lat": 47.57,
      "lon": -1.629,
      "cp": "44170",
      "ville": "NOZAY",
      "prix": {
        "Gazole": 0.002169,
        "E85": 0.000759,
        "E10": 0.002059,
        "SP98": 0.002159
      },
      "maj_gouv": {
        "Gazole": "2026-05-07 09:10:32",
        "E85": "2026-04-28 11:43:16",
        "E10": "2026-05-07 09:10:32",
        "SP98": "2026-05-07 09:10:32"
      }
    },
    {
      "id": "44370008",
      "lat": 47.418,
      "lon": -1.018,
      "cp": "44370",
      "ville": "VARADES",
      "prix": {
        "Gazole": 0.00225,
        "E85": 0.000999,
        "E10": 0.00199,
        "SP98": 0.00199
      },
      "maj_gouv": {
        "Gazole": "2026-05-12 00:01:00",
        "E85": "2026-05-12 00:01:00",
        "E10": "2026-05-12 00:01:00",
        "SP98": "2026-05-12 00:01:00"
      }
    },
    {
      "id": "44650001",
      "lat": 46.8886,
      "lon": -1.59155,
      "cp": "44650",
      "ville": "LEGE",
      "prix": {
        "Gazole": 0.002149,
        "E85": 0.0007790000000000001,
        "E10": 0.001999,
        "SP98": 0.002089
      },
      "maj_gouv": {
        "Gazole": "2026-05-05 06:01:00",
        "E85": "2026-04-13 12:03:36",
        "E10": "2026-05-12 06:00:00",
        "SP98": "2026-05-12 06:00:00"
      }
    },
    {
      "id": "44290001",
      "lat": 47.635,
      "lon": -1.805,
      "cp": "44290",
      "ville": "Guémené-Penfao",
      "prix": {
        "Gazole": 0.002139,
        "E85": 0.000759,
        "E10": 0.001999,
        "SP98": 0.002099
      },
      "maj_gouv": {
        "Gazole": "2026-05-11 09:32:45",
        "E85": "2026-04-27 09:02:53",
        "E10": "2026-05-11 09:32:45",
        "SP98": "2026-05-11 09:32:45"
      }
    },
    {
      "id": "44570001",
      "lat": 47.301882584606,
      "lon": -2.212697736,
      "cp": "44570",
      "ville": "Trignac",
      "prix": {
        "Gazole": 0.002141,
        "GPLc": 0.001018,
        "E10": 0.001999,
        "SP98": 0.002096
      },
      "maj_gouv": {
        "Gazole": "2026-05-09 07:18:34",
        "GPLc": "2026-05-09 07:18:34",
        "E10": "2026-05-09 07:18:35",
        "SP98": "2026-05-09 07:18:35"
      }
    },
    {
      "id": "44570006",
      "lat": 47.293,
      "lon": -2.209,
      "cp": "44570",
      "ville": "TRIGNAC",
      "prix": {
        "Gazole": 0.002091,
        "E85": 0.0008539999999999999,
        "E10": 0.00199,
        "SP98": 0.00199
      },
      "maj_gouv": {
        "Gazole": "2026-05-12 00:01:00",
        "E85": "2026-05-12 00:01:00",
        "E10": "2026-05-12 00:01:00",
        "SP98": "2026-05-12 00:01:00"
      }
    },
    {
      "id": "44410007",
      "lat": 47.448,
      "lon": -2.241,
      "cp": "44410",
      "ville": "LA CHAPELLE DES MARAIS",
      "prix": {
        "Gazole": 0.002229,
        "E10": 0.002059,
        "SP98": 0.002139
      },
      "maj_gouv": {
        "Gazole": "2026-05-05 08:18:54",
        "E10": "2026-05-05 08:18:55",
        "SP98": "2026-05-05 08:18:55"
      }
    },
    {
      "id": "44320002",
      "lat": 47.114543249043,
      "lon": -1.9511237760851,
      "cp": "44320",
      "ville": "Arthon-en-Retz",
      "prix": {
        "Gazole": 0.002219,
        "E85": 0.000799,
        "E10": 0.002069,
        "SP98": 0.002129
      },
      "maj_gouv": {
        "Gazole": "2026-05-05 15:32:46",
        "E85": "2026-04-18 19:38:33",
        "E10": "2026-05-05 08:20:56",
        "SP98": "2026-05-05 08:20:57"
      }
    },
    {
      "id": "44240004",
      "lat": 47.302,
      "lon": -1.548,
      "cp": "44240",
      "ville": "La Chapelle-sur-Erdre",
      "prix": {
        "Gazole": 0.002189,
        "E10": 0.002029,
        "SP98": 0.002109
      },
      "maj_gouv": {
        "Gazole": "2026-05-06 09:19:22",
        "E10": "2026-05-06 09:19:23",
        "SP98": "2026-05-06 09:19:23"
      }
    },
    {
      "id": "44190007",
      "lat": 47.095,
      "lon": -1.292,
      "cp": "44190",
      "ville": "Clisson",
      "prix": {
        "Gazole": 0.002189,
        "SP95": 0.002049,
        "SP98": 0.002099
      },
      "maj_gouv": {
        "Gazole": "2026-04-20 10:52:04",
        "SP95": "2026-04-20 10:52:04",
        "SP98": "2026-04-20 10:52:05"
      }
    },
    {
      "id": "44410001",
      "lat": 47.45,
      "lon": -2.314,
      "cp": "44410",
      "ville": "HERBIGNAC",
      "prix": {
        "Gazole": 0.002141,
        "E85": 0.0008179999999999999,
        "E10": 0.0020099999999999996,
        "SP98": 0.0020859999999999997
      },
      "maj_gouv": {
        "Gazole": "2026-05-12 01:17:00",
        "E85": "2026-05-12 01:17:00",
        "E10": "2026-05-12 01:17:00",
        "SP98": "2026-05-12 01:17:00"
      }
    },
    {
      "id": "44470006",
      "lat": 47.266,
      "lon": -1.488,
      "cp": "44470",
      "ville": "CARQUEFOU",
      "prix": {
        "Gazole": 0.002091,
        "E85": 0.000832,
        "GPLc": 0.000999,
        "E10": 0.00199
      },
      "maj_gouv": {
        "Gazole": "2026-05-12 00:01:00",
        "E85": "2026-05-12 00:01:00",
        "GPLc": "2026-05-12 00:01:00",
        "E10": "2026-05-12 00:01:00"
      }
    },
    {
      "id": "44100006",
      "lat": 47.216,
      "lon": -1.606,
      "cp": "44100",
      "ville": "NANTES",
      "prix": {
        "Gazole": 0.002091
      },
      "maj_gouv": {
        "Gazole": "2026-05-12 00:01:00"
      }
    },
    {
      "id": "44119005",
      "lat": 47.336,
      "lon": -1.652,
      "cp": "44119",
      "ville": "TREILLIERES",
      "prix": {
        "Gazole": 0.0022400000000000002,
        "E85": 0.000998,
        "GPLc": 0.0011279999999999999,
        "SP98": 0.00199
      },
      "maj_gouv": {
        "Gazole": "2026-05-12 00:01:00",
        "E85": "2026-05-12 00:01:00",
        "GPLc": "2026-05-12 00:01:00",
        "SP98": "2026-05-12 00:01:00"
      }
    },
    {
      "id": "44450002",
      "lat": 47.269,
      "lon": -1.335,
      "cp": "44450",
      "ville": "LA CHAPELLE-BASSE-MER",
      "prix": {
        "Gazole": 0.002099,
        "E10": 0.00199,
        "SP98": 0.002099
      },
      "maj_gouv": {
        "Gazole": "2026-05-11 08:28:23",
        "E10": "2026-05-11 08:28:23",
        "SP98": "2026-05-11 08:28:23"
      }
    },
    {
      "id": "44450003",
      "lat": 47.248,
      "lon": -1.371,
      "cp": "44450",
      "ville": "SAINT-JULIEN-DE-CONCELLES",
      "prix": {
        "Gazole": 0.002169,
        "SP95": 0.002099,
        "SP98": 0.002169
      },
      "maj_gouv": {
        "Gazole": "2026-05-09 14:18:41",
        "SP95": "2026-05-09 14:18:41",
        "SP98": "2026-05-09 14:18:41"
      }
    },
    {
      "id": "44210004",
      "lat": 47.124357,
      "lon": -2.103635,
      "cp": "44210",
      "ville": "Pornic",
      "prix": {
        "Gazole": 0.002109,
        "E85": 0.0008489999999999999,
        "E10": 0.00199,
        "SP98": 0.00199
      },
      "maj_gouv": {
        "Gazole": "2026-05-11 08:56:44",
        "E85": "2026-05-11 08:56:44",
        "E10": "2026-05-11 08:56:44",
        "SP98": "2026-05-11 08:56:44"
      }
    },
    {
      "id": "44370005",
      "lat": 47.38927,
      "lon": -1.0203,
      "cp": "44370",
      "ville": "Varades",
      "prix": {
        "Gazole": 0.002179,
        "SP95": 0.002079,
        "E85": 0.000919,
        "GPLc": 0.001049,
        "SP98": 0.0021190000000000002
      },
      "maj_gouv": {
        "Gazole": "2026-05-12 06:09:33",
        "SP95": "2026-05-04 12:30:48",
        "E85": "2026-04-10 04:53:34",
        "GPLc": "2026-04-29 06:59:17",
        "SP98": "2026-05-04 12:30:48"
      }
    },
    {
      "id": "44522002",
      "lat": 47.435,
      "lon": -1.236,
      "cp": "44522",
      "ville": "MESANGER",
      "prix": {
        "Gazole": 0.002143,
        "E85": 0.000699,
        "E10": 0.002019,
        "SP98": 0.002093
      },
      "maj_gouv": {
        "Gazole": "2026-05-09 10:44:45",
        "E85": "2026-03-25 06:26:20",
        "E10": "2026-05-09 10:44:45",
        "SP98": "2026-05-09 10:44:45"
      }
    },
    {
      "id": "44740002",
      "lat": 47.278,
      "lon": -2.468,
      "cp": "44740",
      "ville": "Batz-sur-Mer",
      "prix": {
        "Gazole": 0.0022389999999999997,
        "E10": 0.002099,
        "SP98": 0.002199
      },
      "maj_gouv": {
        "Gazole": "2026-05-11 07:37:02",
        "E10": "2026-05-11 07:37:02",
        "SP98": "2026-05-11 07:37:02"
      }
    },
    {
      "id": "44120004",
      "lat": 47.162,
      "lon": -1.513,
      "cp": "44120",
      "ville": "VERTOU",
      "prix": {
        "Gazole": 0.002141,
        "E85": 0.000828,
        "E10": 0.00199,
        "SP98": 0.00199
      },
      "maj_gouv": {
        "Gazole": "2026-05-12 00:01:00",
        "E85": "2026-05-12 00:01:00",
        "E10": "2026-05-12 00:01:00",
        "SP98": "2026-05-12 00:01:00"
      }
    },
    {
      "id": "44410006",
      "lat": 47.395,
      "lon": -2.305,
      "cp": "44410",
      "ville": "Saint-Lyphard",
      "prix": {
        "Gazole": 0.002141,
        "E85": 0.0008179999999999999,
        "E10": 0.001999,
        "SP98": 0.0020859999999999997
      },
      "maj_gouv": {
        "Gazole": "2026-05-11 10:41:10",
        "E85": "2026-05-11 10:41:10",
        "E10": "2026-05-11 10:41:10",
        "SP98": "2026-05-11 10:41:10"
      }
    },
    {
      "id": "44150007",
      "lat": 47.373105051321,
      "lon": -1.1783565175484,
      "cp": "44150",
      "ville": "ANCENIS",
      "prix": {
        "Gazole": 0.002145,
        "E10": 0.002023,
        "SP98": 0.002095
      },
      "maj_gouv": {
        "Gazole": "2026-05-07 11:01:31",
        "E10": "2026-05-07 11:01:31",
        "SP98": "2026-05-07 11:01:31"
      }
    },
    {
      "id": "44580001",
      "lat": 47.041,
      "lon": -1.956,
      "cp": "44580",
      "ville": "Bourgneuf-en-Retz",
      "prix": {},
      "maj_gouv": {}
    },
    {
      "id": "44370009",
      "lat": 47.419621,
      "lon": -1.0145410000000001,
      "cp": "44370",
      "ville": "VARADES",
      "prix": {
        "Gazole": 0.00225,
        "E85": 0.000999,
        "GPLc": 0.001118,
        "E10": 0.00199,
        "SP98": 0.00199
      },
      "maj_gouv": {
        "Gazole": "2026-05-12 00:01:00",
        "E85": "2026-05-12 00:01:00",
        "GPLc": "2026-05-12 00:01:00",
        "E10": "2026-05-12 00:01:00",
        "SP98": "2026-05-12 00:01:00"
      }
    },
    {
      "id": "44521001",
      "lat": 47.39123,
      "lon": -1.29207,
      "cp": "44521",
      "ville": "COUFFé",
      "prix": {
        "Gazole": 0.00209,
        "SP95": 0.00199
      },
      "maj_gouv": {
        "Gazole": "2026-05-07 19:18:14",
        "SP95": "2026-05-07 19:18:24"
      }
    },
    {
      "id": "44510001",
      "lat": 47.27503,
      "lon": -2.44083,
      "cp": "44510",
      "ville": "LE POULIGUEN",
      "prix": {
        "Gazole": 0.0022010000000000003,
        "E10": 0.002032,
        "SP98": 0.002149
      },
      "maj_gouv": {
        "Gazole": "2026-04-29 09:00:00",
        "E10": "2026-05-07 09:00:00",
        "SP98": "2026-05-07 09:00:00"
      }
    },
    {
      "id": "44800004",
      "lat": 47.226,
      "lon": -1.635,
      "cp": "44800",
      "ville": "Saint-Herblain",
      "prix": {
        "Gazole": 0.002099,
        "E85": 0.000699,
        "GPLc": 0.0010689999999999999,
        "E10": 0.001999,
        "SP98": 0.002099
      },
      "maj_gouv": {
        "Gazole": "2026-05-12 01:16:00",
        "E85": "2026-05-12 01:16:00",
        "GPLc": "2026-05-12 01:16:00",
        "E10": "2026-05-12 01:16:00",
        "SP98": "2026-05-12 01:16:00"
      }
    },
    {
      "id": "44600002",
      "lat": 47.28,
      "lon": -2.228,
      "cp": "44600",
      "ville": "SAINT-NAZAIRE",
      "prix": {
        "Gazole": 0.002139,
        "E10": 0.002024,
        "SP98": 0.002095
      },
      "maj_gouv": {
        "Gazole": "2026-05-11 04:53:45",
        "E10": "2026-05-11 04:53:45",
        "SP98": "2026-05-11 04:53:45"
      }
    },
    {
      "id": "44220003",
      "lat": 47.21344,
      "lon": -1.719,
      "cp": "44220",
      "ville": "COUëRON",
      "prix": {
        "Gazole": 0.002108
      },
      "maj_gouv": {
        "Gazole": "2026-05-11 07:36:20"
      }
    },
    {
      "id": "44390004",
      "lat": 47.517434238999,
      "lon": -1.3012053214615,
      "cp": "44440",
      "ville": "Riaille",
      "prix": {
        "Gazole": 0.002209,
        "SP95": 0.002065,
        "SP98": 0.002155
      },
      "maj_gouv": {
        "Gazole": "2026-05-07 11:15:45",
        "SP95": "2026-05-07 11:15:46",
        "SP98": "2026-05-07 11:15:46"
      }
    },
    {
      "id": "44850001",
      "lat": 47.414,
      "lon": -1.392,
      "cp": "44850",
      "ville": "LIGNE",
      "prix": {
        "Gazole": 0.002169,
        "E85": 0.000795,
        "E10": 0.002039,
        "SP98": 0.002109
      },
      "maj_gouv": {
        "Gazole": "2026-05-07 09:34:37",
        "E85": "2026-05-07 09:34:37",
        "E10": "2026-05-07 09:34:37",
        "SP98": "2026-05-07 09:34:38"
      }
    },
    {
      "id": "44360008",
      "lat": 47.33,
      "lon": -1.781,
      "cp": "44360",
      "ville": "Vigneux-de-Bretagne",
      "prix": {
        "Gazole": 0.0021379999999999997,
        "E10": 0.00199
      },
      "maj_gouv": {
        "Gazole": "2026-05-12 00:01:00",
        "E10": "2026-05-12 00:01:00"
      }
    },
    {
      "id": "44210002",
      "lat": 47.11293,
      "lon": -2.08468,
      "cp": "44210",
      "ville": "PORNIC",
      "prix": {
        "Gazole": 0.00216,
        "SP95": 0.002052,
        "E85": 0.0008179999999999999,
        "GPLc": 0.000999,
        "E10": 0.002023
      },
      "maj_gouv": {
        "Gazole": "2026-05-11 10:34:32",
        "SP95": "2026-05-06 15:24:41",
        "E85": "2026-04-21 10:09:01",
        "GPLc": "2026-04-04 09:13:15",
        "E10": "2026-05-06 15:24:41"
      }
    },
    {
      "id": "44800007",
      "lat": 47.2412179839,
      "lon": -1.59335907484,
      "cp": "44800",
      "ville": "Saint-Herblain",
      "prix": {
        "Gazole": 0.002156,
        "E10": 0.00199
      },
      "maj_gouv": {
        "Gazole": "2026-05-12 00:01:00",
        "E10": "2026-05-12 00:01:00"
      }
    },
    {
      "id": "44300015",
      "lat": 47.2377,
      "lon": -1.56947,
      "cp": "44300",
      "ville": "NANTES",
      "prix": {
        "Gazole": 0.002118,
        "E85": 0.000859,
        "E10": 0.00199
      },
      "maj_gouv": {
        "Gazole": "2026-05-11 20:35:08",
        "E85": "2026-05-12 00:01:00",
        "E10": "2026-05-11 20:35:08"
      }
    },
    {
      "id": "44700002",
      "lat": 47.262,
      "lon": -1.588,
      "cp": "44700",
      "ville": "Orvault",
      "prix": {
        "Gazole": 0.0021160000000000003,
        "E10": 0.001999,
        "SP98": 0.002099
      },
      "maj_gouv": {
        "Gazole": "2026-05-12 01:17:00",
        "E10": "2026-05-12 01:17:00",
        "SP98": "2026-05-12 01:17:00"
      }
    },
    {
      "id": "44000005",
      "lat": 47.23769,
      "lon": -1.53264,
      "cp": "44300",
      "ville": "Nantes",
      "prix": {
        "Gazole": 0.00225,
        "SP95": 0.00199,
        "SP98": 0.00199
      },
      "maj_gouv": {
        "Gazole": "2026-05-11 07:45:03",
        "SP95": "2026-05-04 07:50:44",
        "SP98": "2026-05-04 07:50:44"
      }
    },
    {
      "id": "44260005",
      "lat": 47.368621940000004,
      "lon": -1.96231179,
      "cp": "44260",
      "ville": "SAVENAY",
      "prix": {
        "Gazole": 0.002099,
        "E85": 0.0007289999999999999,
        "E10": 0.002009,
        "SP98": 0.002099
      },
      "maj_gouv": {
        "Gazole": "2026-05-11 09:34:39",
        "E85": "2026-04-24 09:05:17",
        "E10": "2026-05-11 08:43:22",
        "SP98": "2026-05-11 08:43:22"
      }
    },
    {
      "id": "44170002",
      "lat": 47.564,
      "lon": -1.62,
      "cp": "44170",
      "ville": "NOZAY",
      "prix": {},
      "maj_gouv": {}
    },
    {
      "id": "44300017",
      "lat": 47.251,
      "lon": -1.518,
      "cp": "44300",
      "ville": "NANTES",
      "prix": {
        "Gazole": 0.002139,
        "E10": 0.002029,
        "SP98": 0.002099
      },
      "maj_gouv": {
        "Gazole": "2026-05-12 01:16:00",
        "E10": "2026-05-12 01:16:00",
        "SP98": "2026-05-12 01:16:00"
      }
    },
    {
      "id": "44750002",
      "lat": 47.412902747675005,
      "lon": -1.9705121262687,
      "cp": "44750",
      "ville": "CAMPBON",
      "prix": {
        "Gazole": 0.002169,
        "SP95": 0.002072,
        "SP98": 0.002128
      },
      "maj_gouv": {
        "Gazole": "2026-04-30 19:31:18",
        "SP95": "2026-04-20 10:03:28",
        "SP98": "2026-04-20 10:03:28"
      }
    },
    {
      "id": "44000001",
      "lat": 47.257,
      "lon": -1.513,
      "cp": "44300",
      "ville": "NANTES",
      "prix": {
        "Gazole": 0.00209,
        "SP95": 0.002025,
        "GPLc": 0.000999,
        "E10": 0.002005
      },
      "maj_gouv": {
        "Gazole": "2026-05-11 06:51:32",
        "SP95": "2026-05-11 06:51:33",
        "GPLc": "2026-05-11 06:51:33",
        "E10": "2026-05-11 06:51:33"
      }
    },
    {
      "id": "44730002",
      "lat": 47.17027,
      "lon": -2.14844,
      "cp": "44730",
      "ville": "SAINT-MICHEL-CHEF-CHEF",
      "prix": {
        "Gazole": 0.00218,
        "SP95": 0.002068,
        "E10": 0.002033,
        "SP98": 0.002109
      },
      "maj_gouv": {
        "Gazole": "2026-05-06 11:54:27",
        "SP95": "2026-05-06 11:54:27",
        "E10": "2026-05-06 11:54:27",
        "SP98": "2026-05-06 11:54:27"
      }
    },
    {
      "id": "44115003",
      "lat": 47.222,
      "lon": -1.473,
      "cp": "44115",
      "ville": "Basse-Goulaine",
      "prix": {
        "Gazole": 0.002091,
        "GPLc": 0.000999
      },
      "maj_gouv": {
        "Gazole": "2026-05-12 00:01:00",
        "GPLc": "2026-05-12 00:01:00"
      }
    },
    {
      "id": "44460001",
      "lat": 47.647,
      "lon": -2.078,
      "cp": "44460",
      "ville": "Saint-Nicolas-de-Redon",
      "prix": {
        "Gazole": 0.002099,
        "E85": 0.0007289999999999999,
        "GPLc": 0.001049,
        "E10": 0.002009,
        "SP98": 0.002099
      },
      "maj_gouv": {
        "Gazole": "2026-05-12 01:16:00",
        "E85": "2026-05-12 01:16:00",
        "GPLc": "2026-05-12 01:16:00",
        "E10": "2026-05-12 01:16:00",
        "SP98": "2026-05-12 01:16:00"
      }
    },
    {
      "id": "44250003",
      "lat": 47.242,
      "lon": -2.158,
      "cp": "44250",
      "ville": "Saint-Brevin-les-Pins",
      "prix": {
        "Gazole": 0.0021520000000000003,
        "E10": 0.00199,
        "SP98": 0.002109
      },
      "maj_gouv": {
        "Gazole": "2026-05-12 01:17:00",
        "E10": "2026-05-12 01:17:00",
        "SP98": "2026-05-12 01:17:00"
      }
    },
    {
      "id": "44100005",
      "lat": 47.2239,
      "lon": -1.52985,
      "cp": "44100",
      "ville": "NANTES",
      "prix": {
        "E85": 0.000858
      },
      "maj_gouv": {
        "E85": "2026-05-12 00:01:00"
      }
    },
    {
      "id": "44300016",
      "lat": 47.241,
      "lon": -1.508,
      "cp": "44300",
      "ville": "NANTES",
      "prix": {
        "Gazole": 0.002091,
        "E85": 0.0008309999999999999,
        "GPLc": 0.000999,
        "E10": 0.00199,
        "SP98": 0.00199
      },
      "maj_gouv": {
        "Gazole": "2026-05-12 00:01:00",
        "E85": "2026-05-12 00:01:00",
        "GPLc": "2026-05-12 00:01:00",
        "E10": "2026-05-12 00:01:00",
        "SP98": "2026-05-12 00:01:00"
      }
    },
    {
      "id": "44200002",
      "lat": 47.125,
      "lon": -2.123,
      "cp": "44210",
      "ville": "Pornic",
      "prix": {
        "Gazole": 0.0021520000000000003,
        "E10": 0.002,
        "SP98": 0.002088
      },
      "maj_gouv": {
        "Gazole": "2026-05-12 01:17:00",
        "E10": "2026-05-12 01:17:00",
        "SP98": "2026-05-12 01:17:00"
      }
    },
    {
      "id": "44710002",
      "lat": 47.131,
      "lon": -1.753,
      "cp": "44710",
      "ville": "PORT SAINT-PERE",
      "prix": {},
      "maj_gouv": {}
    },
    {
      "id": "44100004",
      "lat": 47.214,
      "lon": -1.586,
      "cp": "44100",
      "ville": "NANTES",
      "prix": {
        "Gazole": 0.002249,
        "E10": 0.002129,
        "SP98": 0.002229
      },
      "maj_gouv": {
        "Gazole": "2026-05-07 10:39:20",
        "E10": "2026-05-07 10:39:21",
        "SP98": "2026-05-07 10:39:21"
      }
    },
    {
      "id": "44412001",
      "lat": 47.16,
      "lon": -1.545,
      "cp": "44400",
      "ville": "REZé",
      "prix": {
        "Gazole": 0.002091,
        "GPLc": 0.000999,
        "E10": 0.00199,
        "SP98": 0.002075
      },
      "maj_gouv": {
        "Gazole": "2026-05-12 01:17:00",
        "GPLc": "2026-05-12 01:17:00",
        "E10": "2026-05-12 01:17:00",
        "SP98": "2026-05-12 01:17:00"
      }
    },
    {
      "id": "44110003",
      "lat": 47.706,
      "lon": -1.388,
      "cp": "44110",
      "ville": "CHâTEAUBRIANT",
      "prix": {
        "Gazole": 0.002179,
        "GPLc": 0.0009270000000000001,
        "E10": 0.002011,
        "SP98": 0.002098
      },
      "maj_gouv": {
        "Gazole": "2026-05-12 01:17:00",
        "GPLc": "2026-05-12 01:17:00",
        "E10": "2026-05-12 01:17:00",
        "SP98": "2026-05-12 01:17:00"
      }
    },
    {
      "id": "44210003",
      "lat": 47.12229,
      "lon": -2.11717,
      "cp": "44210",
      "ville": "PORNIC",
      "prix": {
        "Gazole": 0.0021520000000000003,
        "E85": 0.0008100000000000001,
        "E10": 0.002023,
        "SP98": 0.002088
      },
      "maj_gouv": {
        "Gazole": "2026-05-07 09:10:22",
        "E85": "2026-04-28 08:51:39",
        "E10": "2026-05-06 10:40:40",
        "SP98": "2026-05-04 09:07:37"
      }
    },
    {
      "id": "44240011",
      "lat": 47.256759,
      "lon": -1.546015,
      "cp": "44240",
      "ville": "La Chapelle-sur-Erdre",
      "prix": {
        "Gazole": 0.002091,
        "E85": 0.0008349999999999999,
        "GPLc": 0.000999,
        "E10": 0.00199,
        "SP98": 0.00199
      },
      "maj_gouv": {
        "Gazole": "2026-05-12 00:01:00",
        "E85": "2026-05-12 00:01:00",
        "GPLc": "2026-05-12 00:01:00",
        "E10": "2026-05-12 00:01:00",
        "SP98": "2026-05-12 00:01:00"
      }
    },
    {
      "id": "44380001",
      "lat": 47.258,
      "lon": -2.318,
      "cp": "44380",
      "ville": "PORNICHET",
      "prix": {
        "Gazole": 0.002211,
        "SP95": 0.002077,
        "SP98": 0.00216
      },
      "maj_gouv": {
        "Gazole": "2026-05-05 14:59:45",
        "SP95": "2026-05-05 14:59:46",
        "SP98": "2026-05-05 14:59:46"
      }
    },
    {
      "id": "44000006",
      "lat": 47.24459,
      "lon": -1.53364,
      "cp": "44300",
      "ville": "Nantes",
      "prix": {
        "Gazole": 0.00218,
        "E85": 0.000819,
        "E10": 0.001993,
        "SP98": 0.002104
      },
      "maj_gouv": {
        "Gazole": "2026-05-02 09:10:33",
        "E85": "2026-05-02 09:10:33",
        "E10": "2026-05-02 09:10:33",
        "SP98": "2026-05-02 09:10:33"
      }
    },
    {
      "id": "44000010",
      "lat": 47.247,
      "lon": -1.555,
      "cp": "44000",
      "ville": "NANTES",
      "prix": {
        "Gazole": 0.002091
      },
      "maj_gouv": {
        "Gazole": "2026-05-12 00:01:00"
      }
    },
    {
      "id": "44330003",
      "lat": 47.158229280939,
      "lon": -1.2747920508980999,
      "cp": "44330",
      "ville": "Vallet",
      "prix": {
        "Gazole": 0.002155,
        "SP95": 0.002075,
        "E85": 0.000719,
        "GPLc": 0.000999,
        "E10": 0.002034,
        "SP98": 0.002128
      },
      "maj_gouv": {
        "Gazole": "2026-05-08 09:15:00",
        "SP95": "2026-05-07 09:15:00",
        "E85": "2026-05-07 09:15:00",
        "GPLc": "2026-05-11 16:52:22",
        "E10": "2026-05-05 09:15:00",
        "SP98": "2026-05-11 09:15:00"
      }
    },
    {
      "id": "44300018",
      "lat": 47.248,
      "lon": -1.512,
      "cp": "44300",
      "ville": "NANTES",
      "prix": {
        "Gazole": 0.002139,
        "E10": 0.002029,
        "SP98": 0.002099
      },
      "maj_gouv": {
        "Gazole": "2026-05-12 01:16:00",
        "E10": "2026-05-12 01:16:00",
        "SP98": "2026-05-12 01:16:00"
      }
    },
    {
      "id": "44260006",
      "lat": 47.362,
      "lon": -1.956,
      "cp": "44260",
      "ville": "Savenay",
      "prix": {
        "Gazole": 0.002099,
        "GPLc": 0.0010689999999999999,
        "E10": 0.001999,
        "SP98": 0.002099
      },
      "maj_gouv": {
        "Gazole": "2026-05-11 10:14:59",
        "GPLc": "2026-04-20 08:31:00",
        "E10": "2026-05-11 10:14:59",
        "SP98": "2026-05-11 10:14:59"
      }
    },
    {
      "id": "44130003",
      "lat": 47.476,
      "lon": -1.75,
      "cp": "44130",
      "ville": "BLAIN",
      "prix": {
        "Gazole": 0.00211,
        "E85": 0.000699,
        "E10": 0.0020150000000000003,
        "SP98": 0.00209
      },
      "maj_gouv": {
        "Gazole": "2026-05-12 01:17:00",
        "E85": "2026-05-12 01:17:00",
        "E10": "2026-05-12 01:17:00",
        "SP98": "2026-05-12 01:17:00"
      }
    },
    {
      "id": "44802001",
      "lat": 47.222,
      "lon": -1.606,
      "cp": "44800",
      "ville": "SAINT-HERBLAIN",
      "prix": {
        "Gazole": 0.0020800000000000003,
        "SP95": 0.0020369999999999997,
        "E85": 0.000699,
        "E10": 0.001961,
        "SP98": 0.0021030000000000003
      },
      "maj_gouv": {
        "Gazole": "2026-05-11 22:39:00",
        "SP95": "2026-05-11 22:39:00",
        "E85": "2026-05-11 22:39:00",
        "E10": "2026-05-11 22:39:00",
        "SP98": "2026-05-11 22:39:00"
      }
    },
    {
      "id": "44272001",
      "lat": 47.206,
      "lon": -1.535,
      "cp": "44200",
      "ville": "NANTES",
      "prix": {
        "Gazole": 0.002144,
        "SP95": 0.002075,
        "E85": 0.0008259999999999999,
        "E10": 0.0020350000000000004,
        "SP98": 0.002161
      },
      "maj_gouv": {
        "Gazole": "2026-05-11 09:30:23",
        "SP95": "2026-05-11 09:30:23",
        "E85": "2026-05-11 09:30:23",
        "E10": "2026-05-11 09:30:23",
        "SP98": "2026-05-11 09:30:23"
      }
    },
    {
      "id": "44540001",
      "lat": 47.53,
      "lon": -1.186,
      "cp": "44540",
      "ville": "SAINT-MARS-LA-JAILLE",
      "prix": {
        "Gazole": 0.002199,
        "E85": 0.000789,
        "E10": 0.002039,
        "SP98": 0.002099
      },
      "maj_gouv": {
        "Gazole": "2026-05-07 08:28:43",
        "E85": "2026-05-06 08:51:24",
        "E10": "2026-05-06 08:51:24",
        "SP98": "2026-05-05 10:29:46"
      }
    },
    {
      "id": "44116001",
      "lat": 46.971,
      "lon": -1.434,
      "cp": "44116",
      "ville": "VIEILLEVIGNE",
      "prix": {
        "Gazole": 0.002199,
        "E85": 0.0008179999999999999,
        "E10": 0.002011,
        "SP98": 0.0021230000000000003
      },
      "maj_gouv": {
        "Gazole": "2026-05-04 09:56:49",
        "E85": "2026-04-28 10:14:01",
        "E10": "2026-05-11 09:56:37",
        "SP98": "2026-05-11 09:56:37"
      }
    },
    {
      "id": "44600007",
      "lat": 47.29,
      "lon": -2.257,
      "cp": "44600",
      "ville": "SAINT-NAZAIRE",
      "prix": {
        "Gazole": 0.00209,
        "E85": 0.000847,
        "GPLc": 0.001008,
        "E10": 0.0019890000000000003,
        "SP98": 0.0020440000000000002
      },
      "maj_gouv": {
        "Gazole": "2026-05-12 01:17:00",
        "E85": "2026-05-12 01:17:00",
        "GPLc": "2026-05-12 01:17:00",
        "E10": "2026-05-12 01:17:00",
        "SP98": "2026-05-12 01:17:00"
      }
    },
    {
      "id": "44160005",
      "lat": 47.436,
      "lon": -2.077,
      "cp": "44160",
      "ville": "Sainte-Anne-sur-Brivet",
      "prix": {
        "Gazole": 0.002099,
        "E85": 0.0007289999999999999,
        "E10": 0.002009,
        "SP98": 0.002099
      },
      "maj_gouv": {
        "Gazole": "2026-05-11 08:00:00",
        "E85": "2026-04-29 18:00:49",
        "E10": "2026-05-11 08:00:00",
        "SP98": "2026-05-11 08:00:00"
      }
    },
    {
      "id": "44380007",
      "lat": 47.265467051322005,
      "lon": -2.3335748698712,
      "cp": "44380",
      "ville": "PORNICHET",
      "prix": {
        "Gazole": 0.002189,
        "SP95": 0.002069,
        "E85": 0.000819,
        "E10": 0.002029,
        "SP98": 0.002149
      },
      "maj_gouv": {
        "Gazole": "2026-05-11 13:22:21",
        "SP95": "2026-05-05 18:28:58",
        "E85": "2026-04-17 07:57:05",
        "E10": "2026-05-09 08:04:12",
        "SP98": "2026-05-11 13:22:21"
      }
    },
    {
      "id": "44110005",
      "lat": 47.719,
      "lon": -1.364,
      "cp": "44110",
      "ville": "CHâTEAUBRIANT",
      "prix": {
        "Gazole": 0.002401,
        "SP95": 0.0022029999999999997,
        "SP98": 0.002175
      },
      "maj_gouv": {
        "Gazole": "2026-04-16 09:54:44",
        "SP95": "2026-04-08 10:03:08",
        "SP98": "2026-04-23 08:50:15"
      }
    },
    {
      "id": "44340005",
      "lat": 47.167,
      "lon": -1.575,
      "cp": "44340",
      "ville": "BOUGUENAIS",
      "prix": {
        "Gazole": 0.002091,
        "GPLc": 0.000999,
        "E10": 0.00199,
        "SP98": 0.00199
      },
      "maj_gouv": {
        "Gazole": "2026-05-12 00:01:00",
        "GPLc": "2026-05-12 00:01:00",
        "E10": "2026-05-12 00:01:00",
        "SP98": "2026-05-12 00:01:00"
      }
    },
    {
      "id": "44290002",
      "lat": 47.628,
      "lon": -1.831,
      "cp": "44290",
      "ville": "Guémené-Penfao",
      "prix": {
        "Gazole": 0.0021070000000000004,
        "E10": 0.00199,
        "SP98": 0.00199
      },
      "maj_gouv": {
        "Gazole": "2026-05-11 06:51:37",
        "E10": "2026-05-07 09:01:11",
        "SP98": "2026-05-07 09:01:11"
      }
    },
    {
      "id": "44580002",
      "lat": 47.04693,
      "lon": -1.95644,
      "cp": "44580",
      "ville": "BOURGNEUF-EN-RETZ",
      "prix": {
        "Gazole": 0.002129,
        "E10": 0.002039,
        "SP98": 0.002099
      },
      "maj_gouv": {
        "Gazole": "2026-05-11 09:22:13",
        "E10": "2026-05-11 09:22:13",
        "SP98": "2026-05-11 09:22:13"
      }
    },
    {
      "id": "44119004",
      "lat": 47.33220773084601,
      "lon": -1.6174122928930001,
      "cp": "44119",
      "ville": "TREILLIèRES",
      "prix": {
        "Gazole": 0.0021349999999999997,
        "E85": 0.000699,
        "E10": 0.0019690000000000003,
        "SP98": 0.002085
      },
      "maj_gouv": {
        "Gazole": "2026-05-11 11:18:51",
        "E85": "2026-02-25 12:16:36",
        "E10": "2026-05-11 11:18:51",
        "SP98": "2026-05-09 09:27:22"
      }
    },
    {
      "id": "44310001",
      "lat": 47.04729577,
      "lon": -1.6403904800000002,
      "cp": "44310",
      "ville": "SAINT-PHILBERT-DE-GRAND-LIEU",
      "prix": {
        "Gazole": 0.002129,
        "GPLc": 0.000999,
        "E10": 0.0019890000000000003,
        "SP98": 0.002099
      },
      "maj_gouv": {
        "Gazole": "2026-05-11 08:09:05",
        "GPLc": "2026-05-08 10:36:43",
        "E10": "2026-05-11 08:09:05",
        "SP98": "2026-05-08 10:36:43"
      }
    },
    {
      "id": "44230004",
      "lat": 47.199,
      "lon": -1.519,
      "cp": "44230",
      "ville": "SAINT-SéBASTIEN-SUR-LOIRE",
      "prix": {
        "Gazole": 0.002189,
        "E10": 0.002055,
        "SP98": 0.0021190000000000002
      },
      "maj_gouv": {
        "Gazole": "2026-05-09 09:51:12",
        "E10": "2026-05-09 09:51:12",
        "SP98": "2026-05-09 09:51:13"
      }
    },
    {
      "id": "44800001",
      "lat": 47.247,
      "lon": -1.606,
      "cp": "44800",
      "ville": "SAINT-HERBLAIN",
      "prix": {
        "Gazole": 0.002139,
        "E85": 0.000819,
        "E10": 0.002019,
        "SP98": 0.002109
      },
      "maj_gouv": {
        "Gazole": "2026-05-11 13:16:25",
        "E85": "2026-04-24 10:29:19",
        "E10": "2026-05-09 14:25:27",
        "SP98": "2026-05-09 14:25:27"
      }
    },
    {
      "id": "44360005",
      "lat": 47.32,
      "lon": -1.738,
      "cp": "44360",
      "ville": "Vigneux-de-Bretagne",
      "prix": {
        "Gazole": 0.002039,
        "E10": 0.001999,
        "SP98": 0.002089
      },
      "maj_gouv": {
        "Gazole": "2026-05-11 11:33:49",
        "E10": "2026-05-11 11:33:49",
        "SP98": "2026-05-11 11:33:50"
      }
    },
    {
      "id": "44190002",
      "lat": 47.098,
      "lon": -1.296,
      "cp": "44190",
      "ville": "GORGES",
      "prix": {
        "Gazole": 0.00225,
        "E10": 0.00199,
        "SP98": 0.00199
      },
      "maj_gouv": {
        "Gazole": "2026-05-11 08:53:57",
        "E10": "2026-05-05 09:01:18",
        "SP98": "2026-05-05 09:01:18"
      }
    },
    {
      "id": "44400005",
      "lat": 47.155,
      "lon": -1.537,
      "cp": "44400",
      "ville": "Rezé",
      "prix": {},
      "maj_gouv": {}
    },
    {
      "id": "44190001",
      "lat": 47.084,
      "lon": -1.263,
      "cp": "44190",
      "ville": "GETIGNE",
      "prix": {
        "Gazole": 0.002125,
        "SP95": 0.002074,
        "E10": 0.002033,
        "SP98": 0.002118
      },
      "maj_gouv": {
        "Gazole": "2026-05-11 10:50:00",
        "SP95": "2026-05-11 10:50:00",
        "E10": "2026-05-11 10:50:00",
        "SP98": "2026-05-11 10:50:00"
      }
    },
    {
      "id": "44570007",
      "lat": 47.305033,
      "lon": -2.212259,
      "cp": "44570",
      "ville": "TRIGNAC",
      "prix": {
        "Gazole": 0.002269,
        "E85": 0.0009649999999999999,
        "GPLc": 0.001089,
        "E10": 0.002139,
        "SP98": 0.002219
      },
      "maj_gouv": {
        "Gazole": "2026-05-11 20:32:00",
        "E85": "2026-05-11 20:32:00",
        "GPLc": "2026-05-11 20:32:00",
        "E10": "2026-05-11 20:32:00",
        "SP98": "2026-05-11 20:32:00"
      }
    },
    {
      "id": "44600011",
      "lat": 47.258910992176,
      "lon": -2.2650246791612,
      "cp": "44600",
      "ville": "ST NAZAIRE",
      "prix": {
        "Gazole": 0.002091,
        "E85": 0.000851,
        "GPLc": 0.001009,
        "E10": 0.001999,
        "SP98": 0.002095
      },
      "maj_gouv": {
        "Gazole": "2026-05-11 10:49:57",
        "E85": "2026-04-28 07:55:56",
        "GPLc": "2026-04-23 07:39:33",
        "E10": "2026-05-06 07:37:33",
        "SP98": "2026-05-11 07:55:39"
      }
    },
    {
      "id": "44150004",
      "lat": 47.373,
      "lon": -1.185,
      "cp": "44150",
      "ville": "ANCENIS",
      "prix": {
        "Gazole": 0.002199,
        "E10": 0.002039,
        "SP98": 0.0021190000000000002
      },
      "maj_gouv": {
        "Gazole": "2026-05-07 08:06:38",
        "E10": "2026-05-11 08:12:30",
        "SP98": "2026-05-11 08:12:31"
      }
    },
    {
      "id": "44770001",
      "lat": 47.141,
      "lon": -2.189,
      "cp": "44770",
      "ville": "LA PLAINE-SUR-MER",
      "prix": {
        "Gazole": 0.002179,
        "E85": 0.000819,
        "E10": 0.002009,
        "SP98": 0.002109
      },
      "maj_gouv": {
        "Gazole": "2026-05-07 08:30:38",
        "E85": "2026-04-21 10:34:11",
        "E10": "2026-05-07 08:30:38",
        "SP98": "2026-05-07 08:30:38"
      }
    },
    {
      "id": "44500004",
      "lat": 47.287,
      "lon": -2.381,
      "cp": "44500",
      "ville": "LA BAULE-ESCOUBLAC",
      "prix": {
        "Gazole": 0.002399,
        "E10": 0.002049,
        "SP98": 0.002169
      },
      "maj_gouv": {
        "Gazole": "2026-05-09 12:48:43",
        "E10": "2026-05-09 12:48:43",
        "SP98": "2026-05-09 12:48:43"
      }
    },
    {
      "id": "44119006",
      "lat": 47.357050659966006,
      "lon": -1.6016296214263999,
      "cp": "44119",
      "ville": "Grandchamp-des-Fontaines",
      "prix": {
        "Gazole": 0.002165,
        "E10": 0.0019790000000000003,
        "SP98": 0.002084
      },
      "maj_gouv": {
        "Gazole": "2026-05-11 06:56:09",
        "E10": "2026-05-11 06:56:09",
        "SP98": "2026-05-11 06:56:09"
      }
    },
    {
      "id": "44550001",
      "lat": 47.327,
      "lon": -2.152,
      "cp": "44550",
      "ville": "MONTOIR-DE-BRETAGNE",
      "prix": {
        "Gazole": 0.002159,
        "E85": 0.000847,
        "E10": 0.002029,
        "SP98": 0.002094
      },
      "maj_gouv": {
        "Gazole": "2026-05-11 08:31:59",
        "E85": "2026-05-08 08:45:38",
        "E10": "2026-05-11 08:31:59",
        "SP98": "2026-05-11 08:31:59"
      }
    },
    {
      "id": "44230002",
      "lat": 47.209033556831,
      "lon": -1.5109141112012,
      "cp": "44230",
      "ville": "Saint-Sébastien-sur-Loire",
      "prix": {
        "Gazole": 0.002169,
        "SP95": 0.002069,
        "E10": 0.002039,
        "SP98": 0.002109
      },
      "maj_gouv": {
        "Gazole": "2026-05-11 12:25:00",
        "SP95": "2026-05-11 12:25:00",
        "E10": "2026-05-11 12:25:00",
        "SP98": "2026-05-11 12:25:00"
      }
    },
    {
      "id": "44350006",
      "lat": 47.304,
      "lon": -2.409,
      "cp": "44350",
      "ville": "GUéRANDE",
      "prix": {
        "Gazole": 0.002229,
        "E85": 0.000819,
        "E10": 0.002049,
        "SP98": 0.002159
      },
      "maj_gouv": {
        "Gazole": "2026-05-07 08:41:35",
        "E85": "2026-04-17 11:42:20",
        "E10": "2026-05-06 10:46:18",
        "SP98": "2026-05-06 10:46:18"
      }
    },
    {
      "id": "44600009",
      "lat": 47.271,
      "lon": -2.25,
      "cp": "44600",
      "ville": "Saint-Nazaire",
      "prix": {
        "E85": 0.000851,
        "GPLc": 0.001009
      },
      "maj_gouv": {
        "E85": "2026-05-12 00:01:00",
        "GPLc": "2026-05-12 00:01:00"
      }
    },
    {
      "id": "44140002",
      "lat": 47.055,
      "lon": -1.511,
      "cp": "44140",
      "ville": "Geneston",
      "prix": {
        "Gazole": 0.002199,
        "E85": 0.0008179999999999999,
        "E10": 0.002013,
        "SP98": 0.002126
      },
      "maj_gouv": {
        "Gazole": "2026-05-06 11:22:01",
        "E85": "2026-05-06 11:22:01",
        "E10": "2026-05-06 11:22:01",
        "SP98": "2026-05-06 11:22:02"
      }
    },
    {
      "id": "44350007",
      "lat": 47.39,
      "lon": -2.432,
      "cp": "44350",
      "ville": "Saint-Molf",
      "prix": {
        "Gazole": 0.002199,
        "E85": 0.0008179999999999999,
        "E10": 0.001999,
        "SP98": 0.002099
      },
      "maj_gouv": {
        "Gazole": "2026-05-05 00:35:57",
        "E85": "2026-05-05 00:35:57",
        "E10": "2026-05-05 00:35:57",
        "SP98": "2026-05-05 00:35:58"
      }
    },
    {
      "id": "44110001",
      "lat": 47.716,
      "lon": -1.392,
      "cp": "44110",
      "ville": "Châteaubriant",
      "prix": {
        "Gazole": 0.002179,
        "SP95": 0.002099,
        "E10": 0.002039
      },
      "maj_gouv": {
        "Gazole": "2026-05-07 09:04:56",
        "SP95": "2026-05-07 11:55:12",
        "E10": "2026-05-07 09:04:56"
      }
    },
    {
      "id": "44330001",
      "lat": 47.17,
      "lon": -1.267,
      "cp": "44330",
      "ville": "Vallet",
      "prix": {
        "Gazole": 0.002155,
        "SP95": 0.002075,
        "SP98": 0.002128
      },
      "maj_gouv": {
        "Gazole": "2026-05-08 09:15:00",
        "SP95": "2026-05-07 09:15:00",
        "SP98": "2026-05-11 09:15:00"
      }
    },
    {
      "id": "44140004",
      "lat": 47.082,
      "lon": -1.412,
      "cp": "44140",
      "ville": "Aigrefeuille-sur-Maine",
      "prix": {
        "Gazole": 0.00213,
        "E10": 0.00198,
        "SP98": 0.002099
      },
      "maj_gouv": {
        "Gazole": "2026-05-11 11:49:18",
        "E10": "2026-05-11 16:13:15",
        "SP98": "2026-05-11 16:13:15"
      }
    },
    {
      "id": "44140006",
      "lat": 47.052,
      "lon": -1.509,
      "cp": "44140",
      "ville": "Geneston",
      "prix": {
        "Gazole": 0.0022389999999999997,
        "E10": 0.00199,
        "SP98": 0.00199
      },
      "maj_gouv": {
        "Gazole": "2026-05-11 14:51:50",
        "E10": "2026-05-11 14:51:50",
        "SP98": "2026-05-11 14:51:50"
      }
    },
    {
      "id": "44150003",
      "lat": 47.373,
      "lon": -1.194,
      "cp": "44150",
      "ville": "ANCENIS",
      "prix": {
        "Gazole": 0.002143,
        "SP95": 0.002077,
        "E85": 0.000795,
        "E10": 0.002021,
        "SP98": 0.002093
      },
      "maj_gouv": {
        "Gazole": "2026-05-12 01:17:00",
        "SP95": "2026-05-12 01:17:00",
        "E85": "2026-05-12 01:17:00",
        "E10": "2026-05-12 01:17:00",
        "SP98": "2026-05-12 01:17:00"
      }
    },
    {
      "id": "44190004",
      "lat": 47.078,
      "lon": -1.24,
      "cp": "44190",
      "ville": "GéTIGNé",
      "prix": {
        "Gazole": 0.0021360000000000003,
        "E85": 0.000879,
        "E10": 0.00199,
        "SP98": 0.00199
      },
      "maj_gouv": {
        "Gazole": "2026-05-12 00:05:00",
        "E85": "2026-04-02 09:17:17",
        "E10": "2026-05-11 10:12:55",
        "SP98": "2026-05-11 10:12:55"
      }
    },
    {
      "id": "44370003",
      "lat": 47.3863,
      "lon": -1.03342,
      "cp": "44370",
      "ville": "Varades",
      "prix": {
        "SP95": 0.00199,
        "SP98": 0.00199
      },
      "maj_gouv": {
        "SP95": "2026-03-24 08:10:41",
        "SP98": "2026-03-20 07:32:21"
      }
    },
    {
      "id": "44350004",
      "lat": 47.32944,
      "lon": -2.41115,
      "cp": "44350",
      "ville": "Guérande",
      "prix": {
        "Gazole": 0.002141,
        "GPLc": 0.001149,
        "E10": 0.002009,
        "SP98": 0.0020859999999999997
      },
      "maj_gouv": {
        "Gazole": "2026-05-08 09:00:42",
        "GPLc": "2026-05-06 17:39:57",
        "E10": "2026-05-08 09:00:42",
        "SP98": "2026-05-08 09:00:43"
      }
    },
    {
      "id": "44420004",
      "lat": 47.348292,
      "lon": -2.5016629999999997,
      "cp": "44420",
      "ville": "LA TURBALLE",
      "prix": {
        "Gazole": 0.002128,
        "SP98": 0.00199
      },
      "maj_gouv": {
        "Gazole": "2026-05-11 07:16:02",
        "SP98": "2026-05-11 07:16:02"
      }
    },
    {
      "id": "44340011",
      "lat": 47.16772400000001,
      "lon": -1.643608,
      "cp": "44340",
      "ville": "BOUGUENAIS",
      "prix": {
        "Gazole": 0.0022589999999999997,
        "E85": 0.000985,
        "E10": 0.002099,
        "SP98": 0.002199
      },
      "maj_gouv": {
        "Gazole": "2026-05-09 11:29:33",
        "E85": "2026-05-09 11:29:33",
        "E10": "2026-05-05 06:48:00",
        "SP98": "2026-05-05 06:48:00"
      }
    },
    {
      "id": "44360009",
      "lat": 47.274,
      "lon": -1.78,
      "cp": "44360",
      "ville": "Saint-Étienne-de-Montluc",
      "prix": {
        "Gazole": 0.002097,
        "E10": 0.00199,
        "SP98": 0.00199
      },
      "maj_gouv": {
        "Gazole": "2026-05-11 07:50:30",
        "E10": "2026-05-11 12:08:01",
        "SP98": "2026-05-11 10:37:31"
      }
    },
    {
      "id": "44640002",
      "lat": 47.198,
      "lon": -1.758,
      "cp": "44640",
      "ville": "LE PELLERIN",
      "prix": {
        "Gazole": 0.002179,
        "E10": 0.002039,
        "SP98": 0.002109
      },
      "maj_gouv": {
        "Gazole": "2026-05-09 19:47:38",
        "E10": "2026-05-09 19:46:35",
        "SP98": "2026-05-09 19:46:35"
      }
    },
    {
      "id": "44160003",
      "lat": 47.432,
      "lon": -2.083,
      "cp": "44160",
      "ville": "Pontchâteau",
      "prix": {
        "Gazole": 0.002099,
        "GPLc": 0.001119,
        "E10": 0.002009,
        "SP98": 0.002099
      },
      "maj_gouv": {
        "Gazole": "2026-05-11 08:00:00",
        "GPLc": "2026-05-05 18:00:00",
        "E10": "2026-05-11 08:00:00",
        "SP98": "2026-05-11 08:00:00"
      }
    },
    {
      "id": "44470002",
      "lat": 47.262,
      "lon": -1.447,
      "cp": "44470",
      "ville": "Thouaré-sur-Loire",
      "prix": {
        "Gazole": 0.002179,
        "SP95": 0.002109,
        "E10": 0.002039,
        "SP98": 0.0021190000000000002
      },
      "maj_gouv": {
        "Gazole": "2026-05-11 08:50:00",
        "SP95": "2026-05-11 08:50:00",
        "E10": "2026-05-11 08:50:00",
        "SP98": "2026-05-11 08:50:00"
      }
    },
    {
      "id": "44390003",
      "lat": 47.437,
      "lon": -1.517,
      "cp": "44390",
      "ville": "Nort-sur-Erdre",
      "prix": {
        "Gazole": 0.002169,
        "E10": 0.002039,
        "SP98": 0.002099
      },
      "maj_gouv": {
        "Gazole": "2026-05-09 09:30:00",
        "E10": "2026-05-09 09:30:00",
        "SP98": "2026-05-09 09:30:00"
      }
    },
    {
      "id": "44840002",
      "lat": 47.159,
      "lon": -1.513,
      "cp": "44840",
      "ville": "LES SORINIERES",
      "prix": {
        "Gazole": 0.002141,
        "E85": 0.000828,
        "GPLc": 0.001009,
        "E10": 0.00199,
        "SP98": 0.00199
      },
      "maj_gouv": {
        "Gazole": "2026-05-12 00:01:00",
        "E85": "2026-05-12 00:01:00",
        "GPLc": "2026-05-12 00:01:00",
        "E10": "2026-05-12 00:01:00",
        "SP98": "2026-05-12 00:01:00"
      }
    },
    {
      "id": "44130004",
      "lat": 47.476667007029,
      "lon": -1.7614514139338,
      "cp": "44130",
      "ville": "BLAIN",
      "prix": {
        "E10": 0.00199
      },
      "maj_gouv": {
        "E10": "2026-05-11 09:14:12"
      }
    },
    {
      "id": "44119008",
      "lat": 47.33780346813,
      "lon": -1.6548672204172,
      "cp": "44119",
      "ville": "Treillieres",
      "prix": {},
      "maj_gouv": {}
    },
    {
      "id": "44680001",
      "lat": 47.10399,
      "lon": -1.80297,
      "cp": "44680",
      "ville": "SAINTE-PAZANNE",
      "prix": {
        "Gazole": 0.002139,
        "E10": 0.002029,
        "SP98": 0.002099
      },
      "maj_gouv": {
        "Gazole": "2026-05-11 08:59:45",
        "E10": "2026-05-11 08:59:45",
        "SP98": "2026-05-11 08:59:45"
      }
    },
    {
      "id": "44360010",
      "lat": 47.270007987698,
      "lon": -1.7750433764143,
      "cp": "44360",
      "ville": "Saint-Étienne-de-Montluc",
      "prix": {
        "Gazole": 0.002079,
        "SP95": 0.001999,
        "E85": 0.000709,
        "GPLc": 0.0010689999999999999,
        "E10": 0.0019890000000000003,
        "SP98": 0.002099
      },
      "maj_gouv": {
        "Gazole": "2026-05-11 11:46:13",
        "SP95": "2026-04-25 08:10:37",
        "E85": "2026-04-21 09:01:03",
        "GPLc": "2026-04-22 10:23:57",
        "E10": "2026-05-11 11:46:13",
        "SP98": "2026-05-07 15:28:41"
      }
    },
    {
      "id": "44600010",
      "lat": 47.287,
      "lon": -2.299,
      "cp": "44600",
      "ville": "SAINT NAZAIRE",
      "prix": {
        "Gazole": 0.002091,
        "E85": 0.000848,
        "E10": 0.00199
      },
      "maj_gouv": {
        "Gazole": "2026-05-12 00:01:00",
        "E85": "2026-05-12 00:01:00",
        "E10": "2026-05-12 00:01:00"
      }
    },
    {
      "id": "44590002",
      "lat": 47.648,
      "lon": -1.669,
      "cp": "44590",
      "ville": "Derval",
      "prix": {
        "Gazole": 0.0023889999999999996
      },
      "maj_gouv": {
        "Gazole": "2026-05-11 14:05:27"
      }
    },
    {
      "id": "44620002",
      "lat": 47.176,
      "lon": -1.678,
      "cp": "44620",
      "ville": "La Montagne",
      "prix": {
        "Gazole": 0.002149,
        "SP95": 0.002084,
        "E85": 0.000799,
        "GPLc": 0.000999,
        "E10": 0.002029,
        "SP98": 0.002114
      },
      "maj_gouv": {
        "Gazole": "2026-05-11 08:06:39",
        "SP95": "2026-05-11 08:06:39",
        "E85": "2026-04-29 08:03:09",
        "GPLc": "2026-04-27 08:07:09",
        "E10": "2026-05-11 08:06:39",
        "SP98": "2026-05-11 08:06:39"
      }
    },
    {
      "id": "44540002",
      "lat": 47.516056,
      "lon": -1.187332,
      "cp": "44540",
      "ville": "ANGERS",
      "prix": {},
      "maj_gouv": {}
    }
  ]
}