{
  "departement": "11",
  "date": "2026-05-12",
  "stations": [
    {
      "id": "11100010",
      "lat": 43.161,
      "lon": 2.988,
      "cp": "11100",
      "ville": "Narbonne",
      "prix": {
        "Gazole": 0.00212,
        "E10": 0.002025,
        "SP98": 0.002105
      },
      "maj_gouv": {
        "Gazole": "2026-05-08 06:31:00",
        "E10": "2026-05-08 06:31:00",
        "SP98": "2026-05-08 06:31:00"
      }
    },
    {
      "id": "11150001",
      "lat": 43.241,
      "lon": 2.101,
      "cp": "11150",
      "ville": "BRAM",
      "prix": {
        "Gazole": 0.0022589999999999997,
        "SP95": 0.002109,
        "SP98": 0.002199
      },
      "maj_gouv": {
        "Gazole": "2026-04-23 08:12:50",
        "SP95": "2026-05-09 08:09:21",
        "SP98": "2026-04-30 08:21:49"
      }
    },
    {
      "id": "11160003",
      "lat": 43.284583541238,
      "lon": 2.5747807541329997,
      "cp": "11160",
      "ville": "Peyriac-Minervois",
      "prix": {
        "Gazole": 0.002089,
        "SP95": 0.002039,
        "SP98": 0.0021190000000000002
      },
      "maj_gouv": {
        "Gazole": "2026-05-08 08:31:14",
        "SP95": "2026-05-08 08:31:14",
        "SP98": "2026-05-08 08:31:14"
      }
    },
    {
      "id": "11300003",
      "lat": 43.059,
      "lon": 2.214,
      "cp": "11300",
      "ville": "Limoux",
      "prix": {
        "Gazole": 0.0021579999999999998,
        "E85": 0.000997,
        "E10": 0.002058,
        "SP98": 0.0021379999999999997
      },
      "maj_gouv": {
        "Gazole": "2026-05-11 18:40:00",
        "E85": "2026-05-11 18:40:00",
        "E10": "2026-05-11 18:40:00",
        "SP98": "2026-05-11 18:40:00"
      }
    },
    {
      "id": "11800002",
      "lat": 43.203,
      "lon": 2.443,
      "cp": "11800",
      "ville": "TRèBES",
      "prix": {
        "Gazole": 0.00209,
        "E85": 0.000758,
        "E10": 0.0020350000000000004,
        "SP98": 0.00209
      },
      "maj_gouv": {
        "Gazole": "2026-05-11 10:36:44",
        "E85": "2026-05-11 10:36:44",
        "E10": "2026-05-11 10:36:44",
        "SP98": "2026-05-11 10:36:44"
      }
    },
    {
      "id": "11200007",
      "lat": 43.265,
      "lon": 2.718,
      "cp": "11200",
      "ville": "HOMPS",
      "prix": {
        "Gazole": 0.002099,
        "E85": 0.000799,
        "E10": 0.002039,
        "SP98": 0.002139
      },
      "maj_gouv": {
        "Gazole": "2026-05-08 06:38:29",
        "E85": "2026-05-04 07:25:26",
        "E10": "2026-05-08 06:38:29",
        "SP98": "2026-05-08 06:38:29"
      }
    },
    {
      "id": "11400002",
      "lat": 43.313,
      "lon": 1.965,
      "cp": "11400",
      "ville": "Castelnaudary",
      "prix": {
        "Gazole": 0.002229,
        "E85": 0.000869,
        "E10": 0.002109,
        "SP98": 0.002219
      },
      "maj_gouv": {
        "Gazole": "2026-05-11 14:00:00",
        "E85": "2026-05-11 14:00:00",
        "E10": "2026-05-11 14:00:00",
        "SP98": "2026-05-11 14:00:00"
      }
    },
    {
      "id": "11800003",
      "lat": 43.210397690288,
      "lon": 2.4542709242121,
      "cp": "11800",
      "ville": "Trèbes",
      "prix": {
        "Gazole": 0.002099,
        "E85": 0.0008179999999999999,
        "E10": 0.002019
      },
      "maj_gouv": {
        "Gazole": "2026-05-11 14:07:19",
        "E85": "2026-04-29 15:28:45",
        "E10": "2026-05-11 14:07:19"
      }
    },
    {
      "id": "11700001",
      "lat": 43.18546,
      "lon": 2.5573,
      "cp": "11700",
      "ville": "CAPENDU",
      "prix": {
        "Gazole": 0.002399,
        "E10": 0.002079,
        "SP98": 0.002129
      },
      "maj_gouv": {
        "Gazole": "2026-05-11 14:00:00",
        "E10": "2026-05-11 14:00:00",
        "SP98": "2026-05-11 14:00:00"
      }
    },
    {
      "id": "11600005",
      "lat": 43.282,
      "lon": 2.437,
      "cp": "11600",
      "ville": "VILLEGLY",
      "prix": {
        "Gazole": 0.0022589999999999997,
        "E10": 0.0021190000000000002
      },
      "maj_gouv": {
        "Gazole": "2026-05-11 14:00:00",
        "E10": "2026-05-11 14:00:00"
      }
    },
    {
      "id": "11700009",
      "lat": 43.188075466812,
      "lon": 2.5643900511237,
      "cp": "11700",
      "ville": "Capendu",
      "prix": {
        "Gazole": 0.002099,
        "E85": 0.0008179999999999999,
        "E10": 0.002019,
        "SP98": 0.002109
      },
      "maj_gouv": {
        "Gazole": "2026-05-11 10:10:53",
        "E85": "2026-05-11 10:10:53",
        "E10": "2026-05-11 10:10:53",
        "SP98": "2026-05-11 10:10:53"
      }
    },
    {
      "id": "11160002",
      "lat": 43.314,
      "lon": 2.47,
      "cp": "11160",
      "ville": "Villeneuve-Minervois",
      "prix": {
        "Gazole": 0.002355,
        "SP95": 0.002124,
        "SP98": 0.002179
      },
      "maj_gouv": {
        "Gazole": "2026-04-16 09:11:35",
        "SP95": "2026-04-16 09:11:35",
        "SP98": "2026-04-16 09:11:35"
      }
    },
    {
      "id": "11620001",
      "lat": 43.252,
      "lon": 2.361,
      "cp": "11620",
      "ville": "VILLEMOUSTAUSSOU",
      "prix": {
        "Gazole": 0.0022589999999999997,
        "SP95": 0.001719,
        "E85": 0.0008489999999999999,
        "GPLc": 0.001095,
        "E10": 0.0021190000000000002,
        "SP98": 0.002269
      },
      "maj_gouv": {
        "Gazole": "2026-05-11 14:00:00",
        "SP95": "2025-12-22 10:55:38",
        "E85": "2026-05-11 14:00:00",
        "GPLc": "2026-05-11 14:00:00",
        "E10": "2026-05-11 14:00:00",
        "SP98": "2026-05-11 14:00:00"
      }
    },
    {
      "id": "11210002",
      "lat": 43.015,
      "lon": 3.05,
      "cp": "11210",
      "ville": "PORT-LA-NOUVELLE",
      "prix": {
        "Gazole": 0.0021349999999999997,
        "E85": 0.000799,
        "E10": 0.001998,
        "SP98": 0.002099
      },
      "maj_gouv": {
        "Gazole": "2026-05-09 09:07:12",
        "E85": "2026-04-23 11:13:55",
        "E10": "2026-05-09 09:07:12",
        "SP98": "2026-05-09 09:07:12"
      }
    },
    {
      "id": "11000013",
      "lat": 43.18205593397,
      "lon": 3.0153544914882002,
      "cp": "11100",
      "ville": "Narbonne",
      "prix": {
        "Gazole": 0.002099,
        "E85": 0.000819,
        "E10": 0.001999,
        "SP98": 0.002108
      },
      "maj_gouv": {
        "Gazole": "2026-05-11 10:47:36",
        "E85": "2026-04-16 09:29:08",
        "E10": "2026-05-08 10:21:22",
        "SP98": "2026-05-08 10:21:22"
      }
    },
    {
      "id": "11000007",
      "lat": 43.225,
      "lon": 2.329,
      "cp": "11000",
      "ville": "Carcassonne",
      "prix": {
        "Gazole": 0.002118,
        "SP95": 0.002129,
        "E10": 0.002043,
        "SP98": 0.0021309999999999996
      },
      "maj_gouv": {
        "Gazole": "2026-05-12 01:18:00",
        "SP95": "2026-05-12 01:18:00",
        "E10": "2026-05-12 01:18:00",
        "SP98": "2026-05-12 01:18:00"
      }
    },
    {
      "id": "11480009",
      "lat": 42.951,
      "lon": 2.97,
      "cp": "11480",
      "ville": "La Palme",
      "prix": {
        "Gazole": 0.002297,
        "E85": 0.000998,
        "GPLc": 0.001095,
        "E10": 0.002169,
        "SP98": 0.002263
      },
      "maj_gouv": {
        "Gazole": "2026-05-12 00:30:00",
        "E85": "2026-05-12 00:30:00",
        "GPLc": "2026-05-12 00:30:00",
        "E10": "2026-05-12 00:30:00",
        "SP98": "2026-05-12 00:30:00"
      }
    },
    {
      "id": "11200001",
      "lat": 43.189,
      "lon": 2.753,
      "cp": "11200",
      "ville": "LéZIGNAN-CORBIèRES",
      "prix": {
        "Gazole": 0.002069,
        "SP95": 0.002049,
        "E10": 0.0019890000000000003,
        "SP98": 0.002129
      },
      "maj_gouv": {
        "Gazole": "2026-05-07 08:30:00",
        "SP95": "2026-05-07 08:30:00",
        "E10": "2026-05-07 08:30:00",
        "SP98": "2026-05-07 08:30:00"
      }
    },
    {
      "id": "11110008",
      "lat": 43.214,
      "lon": 3.09,
      "cp": "11110",
      "ville": "SALLES D'AUDE",
      "prix": {
        "Gazole": 0.002301,
        "E85": 0.000999,
        "GPLc": 0.001095,
        "E10": 0.002115,
        "SP98": 0.002215
      },
      "maj_gouv": {
        "Gazole": "2026-05-07 09:52:33",
        "E85": "2026-01-19 14:10:54",
        "GPLc": "2026-03-23 10:43:14",
        "E10": "2026-05-02 11:28:54",
        "SP98": "2026-05-02 11:28:53"
      }
    },
    {
      "id": "11500005",
      "lat": 42.893,
      "lon": 2.194,
      "cp": "11500",
      "ville": "QUILLAN",
      "prix": {
        "Gazole": 0.002179,
        "SP95": 0.002069,
        "E85": 0.0008990000000000001
      },
      "maj_gouv": {
        "Gazole": "2026-04-30 14:22:13",
        "SP95": "2026-04-30 14:22:13",
        "E85": "2026-04-22 11:37:59"
      }
    },
    {
      "id": "11150002",
      "lat": 43.279337149999996,
      "lon": 2.0937715565,
      "cp": "11150",
      "ville": "VILLEPINTE",
      "prix": {
        "Gazole": 0.002189,
        "SP95": 0.002089,
        "SP98": 0.002149
      },
      "maj_gouv": {
        "Gazole": "2026-05-07 11:23:41",
        "SP95": "2026-05-07 11:23:41",
        "SP98": "2026-05-07 11:23:42"
      }
    },
    {
      "id": "11430001",
      "lat": 43.108,
      "lon": 3.091,
      "cp": "11430",
      "ville": "GRUISSAN",
      "prix": {
        "Gazole": 0.002229,
        "E85": 0.000859,
        "GPLc": 0.001095,
        "E10": 0.002099,
        "SP98": 0.002219
      },
      "maj_gouv": {
        "Gazole": "2026-05-11 14:00:00",
        "E85": "2026-05-11 14:00:00",
        "GPLc": "2026-05-11 14:00:00",
        "E10": "2026-05-11 14:00:00",
        "SP98": "2026-05-11 14:00:00"
      }
    },
    {
      "id": "11260001",
      "lat": 42.937962357116,
      "lon": 2.2357543638609,
      "cp": "11260",
      "ville": "Espéraza",
      "prix": {
        "Gazole": 0.002196,
        "GPLc": 0.000999,
        "E10": 0.002099
      },
      "maj_gouv": {
        "Gazole": "2026-05-06 07:01:57",
        "GPLc": "2026-02-03 07:06:10",
        "E10": "2026-05-09 08:32:50"
      }
    },
    {
      "id": "11700007",
      "lat": 43.185294500000005,
      "lon": 2.5611771,
      "cp": "11700",
      "ville": "Capendu",
      "prix": {
        "Gazole": 0.002306,
        "E85": 0.000969,
        "E10": 0.002095,
        "SP98": 0.0021469999999999996
      },
      "maj_gouv": {
        "Gazole": "2026-05-06 22:00:00",
        "E85": "2026-04-15 22:00:00",
        "E10": "2026-05-06 22:00:00",
        "SP98": "2026-05-06 22:00:00"
      }
    },
    {
      "id": "11000014",
      "lat": 43.215,
      "lon": 2.345,
      "cp": "11000",
      "ville": "CARCASSONNE",
      "prix": {
        "Gazole": 0.0022589999999999997,
        "E85": 0.0008489999999999999,
        "E10": 0.0021190000000000002,
        "SP98": 0.002269
      },
      "maj_gouv": {
        "Gazole": "2026-05-11 14:00:00",
        "E85": "2026-05-11 14:00:00",
        "E10": "2026-05-11 14:00:00",
        "SP98": "2026-05-11 14:00:00"
      }
    },
    {
      "id": "11000012",
      "lat": 43.216,
      "lon": 2.355,
      "cp": "11000",
      "ville": "Carcassonne",
      "prix": {
        "Gazole": 0.00229,
        "SP95": 0.00215,
        "E85": 0.00095,
        "SP98": 0.00219
      },
      "maj_gouv": {
        "Gazole": "2026-04-22 08:42:00",
        "SP95": "2026-04-22 08:42:01",
        "E85": "2026-04-22 08:42:01",
        "SP98": "2026-04-22 08:42:01"
      }
    },
    {
      "id": "11100004",
      "lat": 43.180417745049,
      "lon": 2.9612291713135,
      "cp": "11100",
      "ville": "NARBONNE",
      "prix": {
        "Gazole": 0.002199,
        "E85": 0.0008489999999999999,
        "E10": 0.002079
      },
      "maj_gouv": {
        "Gazole": "2026-05-11 14:00:00",
        "E85": "2026-05-11 14:00:00",
        "E10": "2026-05-11 14:00:00"
      }
    },
    {
      "id": "11700005",
      "lat": 43.252,
      "lon": 2.652,
      "cp": "11700",
      "ville": "LA REDORTE",
      "prix": {
        "Gazole": 0.002139,
        "E85": 0.000819,
        "E10": 0.002019,
        "SP98": 0.002109
      },
      "maj_gouv": {
        "Gazole": "2026-05-08 08:18:17",
        "E85": "2026-04-22 08:57:06",
        "E10": "2026-04-22 08:57:06",
        "SP98": "2026-05-06 13:53:23"
      }
    },
    {
      "id": "11220001",
      "lat": 43.087,
      "lon": 2.703,
      "cp": "11220",
      "ville": "SAINT-LAURENT-DE-LA-CABRERISSE",
      "prix": {
        "Gazole": 0.002274,
        "SP95": 0.002154,
        "SP98": 0.00222
      },
      "maj_gouv": {
        "Gazole": "2026-04-30 08:39:41",
        "SP95": "2026-04-30 08:39:41",
        "SP98": "2026-04-30 08:39:42"
      }
    },
    {
      "id": "11110005",
      "lat": 43.2148856472,
      "lon": 3.0923671173400002,
      "cp": "11110",
      "ville": "Salles-d'Aude",
      "prix": {
        "Gazole": 0.00225,
        "E85": 0.000998,
        "GPLc": 0.001118,
        "E10": 0.00199,
        "SP98": 0.00199
      },
      "maj_gouv": {
        "Gazole": "2026-05-12 00:01:00",
        "E85": "2026-05-12 00:01:00",
        "GPLc": "2026-05-12 00:01:00",
        "E10": "2026-05-12 00:01:00",
        "SP98": "2026-05-12 00:01:00"
      }
    },
    {
      "id": "11120003",
      "lat": 43.253700010604,
      "lon": 2.9130546119169,
      "cp": "11120",
      "ville": "Argeliers",
      "prix": {
        "Gazole": 0.002139,
        "E10": 0.002048,
        "SP98": 0.002165
      },
      "maj_gouv": {
        "Gazole": "2026-05-11 08:11:07",
        "E10": "2026-05-11 08:11:07",
        "SP98": "2026-05-07 07:41:06"
      }
    },
    {
      "id": "11100015",
      "lat": 43.182977973551,
      "lon": 2.9359216901315,
      "cp": "11100",
      "ville": "Montredon-des-Corbières",
      "prix": {
        "Gazole": 0.002099,
        "E85": 0.000799,
        "E10": 0.002049,
        "SP98": 0.0021190000000000002
      },
      "maj_gouv": {
        "Gazole": "2026-05-11 05:20:32",
        "E85": "2026-05-11 05:20:32",
        "E10": "2026-05-11 05:20:32",
        "SP98": "2026-05-11 05:20:32"
      }
    },
    {
      "id": "11200008",
      "lat": 43.2,
      "lon": 2.75,
      "cp": "11200",
      "ville": "LEZIGNAN CORBIERES",
      "prix": {},
      "maj_gouv": {}
    },
    {
      "id": "11110001",
      "lat": 43.23,
      "lon": 3.051,
      "cp": "11110",
      "ville": "COURSAN",
      "prix": {
        "Gazole": 0.002099,
        "SP95": 0.002095,
        "E85": 0.000819,
        "E10": 0.0020150000000000003
      },
      "maj_gouv": {
        "Gazole": "2026-05-11 09:32:01",
        "SP95": "2026-05-11 09:32:02",
        "E85": "2026-05-04 15:26:21",
        "E10": "2026-05-11 09:32:02"
      }
    },
    {
      "id": "11400008",
      "lat": 43.315,
      "lon": 1.96,
      "cp": "11400",
      "ville": "Castelnaudary",
      "prix": {
        "Gazole": 0.002159,
        "SP95": 0.002099,
        "GPLc": 0.001098,
        "E10": 0.002039
      },
      "maj_gouv": {
        "Gazole": "2026-05-11 09:19:55",
        "SP95": "2026-05-04 09:24:05",
        "GPLc": "2026-05-04 09:26:25",
        "E10": "2026-05-04 09:24:05"
      }
    },
    {
      "id": "11000005",
      "lat": 43.211,
      "lon": 2.345,
      "cp": "11000",
      "ville": "Carcassonne",
      "prix": {
        "Gazole": 0.002127,
        "E10": 0.002052,
        "SP98": 0.002132
      },
      "maj_gouv": {
        "Gazole": "2026-05-11 18:40:00",
        "E10": "2026-05-11 18:40:00",
        "SP98": "2026-05-11 18:40:00"
      }
    },
    {
      "id": "11000015",
      "lat": 43.197,
      "lon": 2.323,
      "cp": "11000",
      "ville": "CARCASSONNE",
      "prix": {
        "Gazole": 0.002091,
        "E85": 0.0008489999999999999,
        "GPLc": 0.0010840000000000001,
        "E10": 0.00199
      },
      "maj_gouv": {
        "Gazole": "2026-05-12 00:01:00",
        "E85": "2026-05-12 00:01:00",
        "GPLc": "2026-05-12 00:01:00",
        "E10": "2026-05-12 00:01:00"
      }
    },
    {
      "id": "11100003",
      "lat": 43.182,
      "lon": 2.981,
      "cp": "11100",
      "ville": "NARBONNE",
      "prix": {
        "Gazole": 0.002199,
        "E85": 0.0008489999999999999,
        "E10": 0.002079,
        "SP98": 0.002219
      },
      "maj_gouv": {
        "Gazole": "2026-05-11 14:00:00",
        "E85": "2026-05-11 14:00:00",
        "E10": "2026-05-11 14:00:00",
        "SP98": "2026-05-11 14:00:00"
      }
    },
    {
      "id": "11100009",
      "lat": 43.187,
      "lon": 3.004,
      "cp": "11100",
      "ville": "Narbonne",
      "prix": {
        "Gazole": 0.0021219999999999998,
        "E85": 0.000976,
        "E10": 0.0020099999999999996,
        "SP98": 0.00209
      },
      "maj_gouv": {
        "Gazole": "2026-05-08 06:31:00",
        "E85": "2026-05-08 06:31:00",
        "E10": "2026-05-08 06:31:00",
        "SP98": "2026-05-08 06:31:00"
      }
    },
    {
      "id": "11100008",
      "lat": 43.163,
      "lon": 2.989,
      "cp": "11100",
      "ville": "Narbonne",
      "prix": {
        "Gazole": 0.0021469999999999996
      },
      "maj_gouv": {
        "Gazole": "2026-05-08 06:31:00"
      }
    },
    {
      "id": "11200002",
      "lat": 43.204,
      "lon": 2.782,
      "cp": "11200",
      "ville": "LéZIGNAN-CORBIèRES",
      "prix": {
        "Gazole": 0.0021190000000000002,
        "E85": 0.000819,
        "GPLc": 0.001095,
        "E10": 0.002059
      },
      "maj_gouv": {
        "Gazole": "2026-05-11 14:00:00",
        "E85": "2026-05-11 14:00:00",
        "GPLc": "2026-05-11 14:00:00",
        "E10": "2026-05-11 14:00:00"
      }
    },
    {
      "id": "11300004",
      "lat": 43.073,
      "lon": 2.223,
      "cp": "11300",
      "ville": "Limoux",
      "prix": {
        "Gazole": 0.002149,
        "E85": 0.000839,
        "GPLc": 0.0010580000000000001,
        "E10": 0.002049,
        "SP98": 0.0021190000000000002
      },
      "maj_gouv": {
        "Gazole": "2026-05-12 01:17:00",
        "E85": "2026-05-12 01:17:00",
        "GPLc": "2026-05-12 01:17:00",
        "E10": "2026-05-12 01:17:00",
        "SP98": "2026-05-12 01:17:00"
      }
    },
    {
      "id": "11540001",
      "lat": 42.992,
      "lon": 2.971,
      "cp": "11540",
      "ville": "ROQUEFORT-DES-CORBIèRES",
      "prix": {
        "Gazole": 0.00215,
        "E85": 0.0008810000000000001,
        "GPLc": 0.001059,
        "E10": 0.00199,
        "SP98": 0.00199
      },
      "maj_gouv": {
        "Gazole": "2026-05-11 20:55:36",
        "E85": "2026-05-11 20:55:36",
        "GPLc": "2026-05-11 20:55:37",
        "E10": "2026-05-11 20:55:37",
        "SP98": "2026-05-11 20:55:37"
      }
    },
    {
      "id": "11370004",
      "lat": 42.854,
      "lon": 3.035,
      "cp": "11370",
      "ville": "PORT LEUCATE",
      "prix": {
        "Gazole": 0.002196,
        "E10": 0.002053,
        "SP98": 0.002133
      },
      "maj_gouv": {
        "Gazole": "2026-05-08 06:31:00",
        "E10": "2026-05-08 06:31:00",
        "SP98": "2026-05-08 06:31:00"
      }
    },
    {
      "id": "11290001",
      "lat": 43.221,
      "lon": 2.206,
      "cp": "11290",
      "ville": "ARZENS",
      "prix": {
        "Gazole": 0.002271,
        "E85": 0.000973,
        "GPLc": 0.001204,
        "E10": 0.002118,
        "SP98": 0.002185
      },
      "maj_gouv": {
        "Gazole": "2026-05-11 14:00:00",
        "E85": "2026-05-11 14:00:00",
        "GPLc": "2026-05-11 14:00:00",
        "E10": "2026-05-11 14:00:00",
        "SP98": "2026-05-11 14:00:00"
      }
    },
    {
      "id": "11300006",
      "lat": 43.045,
      "lon": 2.224,
      "cp": "11300",
      "ville": "LIMOUX",
      "prix": {
        "Gazole": 0.002159,
        "SP95": 0.002099,
        "SP98": 0.0021190000000000002
      },
      "maj_gouv": {
        "Gazole": "2026-05-07 14:58:58",
        "SP95": "2026-04-30 09:38:40",
        "SP98": "2026-04-30 09:38:40"
      }
    },
    {
      "id": "11370001",
      "lat": 42.9064295874,
      "lon": 3.03680630734,
      "cp": "11370",
      "ville": "LEUCATE",
      "prix": {
        "Gazole": 0.002199,
        "E10": 0.002033,
        "SP98": 0.0021379999999999997
      },
      "maj_gouv": {
        "Gazole": "2026-05-07 11:52:16",
        "E10": "2026-05-07 11:52:16",
        "SP98": "2026-05-07 11:52:16"
      }
    },
    {
      "id": "11110004",
      "lat": 43.239,
      "lon": 3.112,
      "cp": "11110",
      "ville": "Salles-d'Aude",
      "prix": {
        "Gazole": 0.002159,
        "E85": 0.000819,
        "E10": 0.002039,
        "SP98": 0.002108
      },
      "maj_gouv": {
        "Gazole": "2026-05-07 10:39:14",
        "E85": "2026-04-20 08:04:13",
        "E10": "2026-05-08 16:22:09",
        "SP98": "2026-05-08 16:22:09"
      }
    },
    {
      "id": "11480008",
      "lat": 42.94543586,
      "lon": 2.9890048,
      "cp": "11480",
      "ville": "La Palme",
      "prix": {
        "Gazole": 0.002265,
        "E85": 0.000999,
        "GPLc": 0.001049,
        "E10": 0.002049,
        "SP98": 0.002149
      },
      "maj_gouv": {
        "Gazole": "2026-05-05 17:22:30",
        "E85": "2026-05-05 17:22:30",
        "GPLc": "2026-05-05 17:22:30",
        "E10": "2026-05-05 17:22:30",
        "SP98": "2026-05-05 17:22:30"
      }
    },
    {
      "id": "11700008",
      "lat": 43.178455886132,
      "lon": 2.5432653081987997,
      "cp": "11700",
      "ville": "Capendu",
      "prix": {
        "Gazole": 0.002306,
        "E85": 0.000969,
        "E10": 0.002199,
        "SP98": 0.002278
      },
      "maj_gouv": {
        "Gazole": "2026-05-12 06:00:00",
        "E85": "2026-04-16 06:00:00",
        "E10": "2026-05-12 06:00:00",
        "SP98": "2026-05-12 06:00:00"
      }
    },
    {
      "id": "11300001",
      "lat": 43.06103,
      "lon": 2.21442,
      "cp": "11300",
      "ville": "Limoux",
      "prix": {
        "Gazole": 0.0023490000000000004,
        "SP95": 0.0022589999999999997,
        "E85": 0.000999
      },
      "maj_gouv": {
        "Gazole": "2026-05-04 11:25:53",
        "SP95": "2026-05-05 19:56:58",
        "E85": "2026-04-02 09:10:00"
      }
    },
    {
      "id": "11560002",
      "lat": 43.172,
      "lon": 3.181,
      "cp": "11560",
      "ville": "Saint-Pierre-la-Mer",
      "prix": {},
      "maj_gouv": {}
    },
    {
      "id": "11290002",
      "lat": 43.221,
      "lon": 2.202,
      "cp": "11290",
      "ville": "ARZENS",
      "prix": {
        "Gazole": 0.002271,
        "E85": 0.000973,
        "GPLc": 0.001204,
        "E10": 0.002118,
        "SP98": 0.002185
      },
      "maj_gouv": {
        "Gazole": "2026-05-11 14:00:00",
        "E85": "2026-05-11 14:00:00",
        "GPLc": "2026-05-11 14:00:00",
        "E10": "2026-05-11 14:00:00",
        "SP98": "2026-05-11 14:00:00"
      }
    },
    {
      "id": "11290005",
      "lat": 43.184973456197994,
      "lon": 2.2604546015442,
      "cp": "11290",
      "ville": "LAVALETTE",
      "prix": {
        "Gazole": 0.002222,
        "E10": 0.002038,
        "SP98": 0.002175
      },
      "maj_gouv": {
        "Gazole": "2026-05-01 19:49:40",
        "E10": "2026-04-14 10:40:35",
        "SP98": "2026-05-01 19:49:40"
      }
    },
    {
      "id": "11400005",
      "lat": 43.30462,
      "lon": 1.95867,
      "cp": "11400",
      "ville": "CASTELNAUDARY",
      "prix": {
        "Gazole": 0.002159,
        "E85": 0.0008179999999999999,
        "E10": 0.002039
      },
      "maj_gouv": {
        "Gazole": "2026-05-11 07:24:35",
        "E85": "2026-04-20 07:00:00",
        "E10": "2026-05-04 06:47:19"
      }
    },
    {
      "id": "11310001",
      "lat": 43.362978379985,
      "lon": 2.1613941268092,
      "cp": "11310",
      "ville": "Saissac",
      "prix": {
        "Gazole": 0.00218,
        "SP95": 0.00207,
        "SP98": 0.00215
      },
      "maj_gouv": {
        "Gazole": "2026-05-05 08:02:07",
        "SP95": "2026-05-05 08:02:07",
        "SP98": "2026-05-05 08:02:07"
      }
    },
    {
      "id": "11120001",
      "lat": 43.25362,
      "lon": 2.91366,
      "cp": "11120",
      "ville": "Saint-Marcel-sur-Aude",
      "prix": {
        "Gazole": 0.002179,
        "SP95": 0.002099,
        "E10": 0.002049,
        "SP98": 0.002149
      },
      "maj_gouv": {
        "Gazole": "2026-05-04 08:30:00",
        "SP95": "2026-04-28 08:31:57",
        "E10": "2026-05-07 09:51:43",
        "SP98": "2026-05-04 08:30:00"
      }
    },
    {
      "id": "11290003",
      "lat": 43.2,
      "lon": 2.139,
      "cp": "11290",
      "ville": "MONTREAL",
      "prix": {
        "E10": 0.00199,
        "SP98": 0.00199
      },
      "maj_gouv": {
        "E10": "2026-04-29 10:19:20",
        "SP98": "2026-04-29 10:19:20"
      }
    },
    {
      "id": "11500004",
      "lat": 42.878,
      "lon": 2.186,
      "cp": "11500",
      "ville": "QUILLAN",
      "prix": {
        "Gazole": 0.00225,
        "E10": 0.00218,
        "SP98": 0.00228
      },
      "maj_gouv": {
        "Gazole": "2026-05-06 08:06:08",
        "E10": "2026-05-06 08:06:08",
        "SP98": "2026-05-06 08:06:08"
      }
    },
    {
      "id": "11170002",
      "lat": 43.255,
      "lon": 2.168,
      "cp": "11170",
      "ville": "ALZONNE",
      "prix": {
        "Gazole": 0.002199,
        "E85": 0.0008179999999999999,
        "E10": 0.002059,
        "SP98": 0.002169
      },
      "maj_gouv": {
        "Gazole": "2026-05-06 10:53:18",
        "E85": "2026-05-06 10:53:18",
        "E10": "2026-05-06 10:53:18",
        "SP98": "2026-05-06 10:53:18"
      }
    },
    {
      "id": "11120002",
      "lat": 43.2036793,
      "lon": 2.7649696999999995,
      "cp": "11200",
      "ville": "Lézignan-Corbières",
      "prix": {
        "Gazole": 0.0022519999999999997,
        "E10": 0.001999,
        "SP98": 0.002198
      },
      "maj_gouv": {
        "Gazole": "2026-04-17 13:52:31",
        "E10": "2026-04-17 13:52:31",
        "SP98": "2026-04-08 10:14:41"
      }
    },
    {
      "id": "11480007",
      "lat": 42.97984,
      "lon": 2.98637,
      "cp": "11480",
      "ville": "La Palme",
      "prix": {
        "Gazole": 0.002339,
        "GPLc": 0.00113,
        "E10": 0.0021190000000000002,
        "SP98": 0.002199
      },
      "maj_gouv": {
        "Gazole": "2026-04-24 11:03:21",
        "GPLc": "2026-04-24 11:03:21",
        "E10": "2026-04-27 09:48:55",
        "SP98": "2026-04-24 11:03:21"
      }
    },
    {
      "id": "11140001",
      "lat": 42.8041025698,
      "lon": 2.23146003573,
      "cp": "11140",
      "ville": "AXAT",
      "prix": {
        "Gazole": 0.002299,
        "E10": 0.002099
      },
      "maj_gouv": {
        "Gazole": "2026-05-11 14:00:00",
        "E10": "2026-05-11 14:00:00"
      }
    },
    {
      "id": "11106001",
      "lat": 43.181,
      "lon": 2.97,
      "cp": "11100",
      "ville": "NARBONNE",
      "prix": {
        "Gazole": 0.002099,
        "E10": 0.0020150000000000003,
        "SP98": 0.002099
      },
      "maj_gouv": {
        "Gazole": "2026-05-12 01:18:00",
        "E10": "2026-05-12 01:18:00",
        "SP98": "2026-05-12 01:18:00"
      }
    },
    {
      "id": "11000009",
      "lat": 43.212,
      "lon": 2.325,
      "cp": "11000",
      "ville": "Carcassonne",
      "prix": {
        "Gazole": 0.002179,
        "E10": 0.002079,
        "SP98": 0.002199
      },
      "maj_gouv": {
        "Gazole": "2026-05-07 07:29:28",
        "E10": "2026-05-07 07:29:28",
        "SP98": "2026-05-07 07:29:28"
      }
    },
    {
      "id": "11590002",
      "lat": 43.25654,
      "lon": 2.94731,
      "cp": "11590",
      "ville": "Sallèles-d'Aude",
      "prix": {
        "Gazole": 0.0022299999999999998,
        "SP95": 0.00215,
        "SP98": 0.0022
      },
      "maj_gouv": {
        "Gazole": "2026-05-07 09:41:41",
        "SP95": "2026-04-15 08:48:42",
        "SP98": "2026-04-28 16:33:44"
      }
    },
    {
      "id": "11200006",
      "lat": 43.187,
      "lon": 2.751,
      "cp": "11200",
      "ville": "LéZIGNAN-CORBIèRES",
      "prix": {
        "Gazole": 0.002139,
        "SP95": 0.002079,
        "E85": 0.000819,
        "E10": 0.002019
      },
      "maj_gouv": {
        "Gazole": "2026-05-07 06:51:57",
        "SP95": "2026-05-07 06:51:57",
        "E85": "2026-05-07 06:51:57",
        "E10": "2026-05-07 06:51:57"
      }
    },
    {
      "id": "11400004",
      "lat": 43.311,
      "lon": 1.971,
      "cp": "11400",
      "ville": "Castelnaudary",
      "prix": {
        "E85": 0.000893
      },
      "maj_gouv": {
        "E85": "2026-05-07 09:06:07"
      }
    },
    {
      "id": "11590004",
      "lat": 43.26593478874901,
      "lon": 2.9489985947624002,
      "cp": "11590",
      "ville": "Sallèles-d'Aude",
      "prix": {
        "Gazole": 0.002179,
        "E10": 0.002049,
        "SP98": 0.002149
      },
      "maj_gouv": {
        "Gazole": "2026-05-06 10:42:05",
        "E10": "2026-05-07 14:40:38",
        "SP98": "2026-05-05 09:39:54"
      }
    },
    {
      "id": "11000018",
      "lat": 43.208,
      "lon": 2.311,
      "cp": "11000",
      "ville": "Carcassonne",
      "prix": {
        "Gazole": 0.0021680000000000002,
        "SP95": 0.002129,
        "GPLc": 0.0010840000000000001,
        "E10": 0.0020440000000000002
      },
      "maj_gouv": {
        "Gazole": "2026-05-11 10:19:35",
        "SP95": "2026-05-09 09:47:50",
        "GPLc": "2026-05-06 09:41:21",
        "E10": "2026-05-11 10:19:35"
      }
    },
    {
      "id": "11390001",
      "lat": 42.96,
      "lon": 2.529,
      "cp": "11330",
      "ville": "MOUTHOUMET",
      "prix": {
        "Gazole": 0.002436,
        "SP95": 0.00219,
        "E85": 0.0008539999999999999
      },
      "maj_gouv": {
        "Gazole": "2026-04-08 08:26:44",
        "SP95": "2026-04-14 10:51:01",
        "E85": "2026-04-29 08:30:45"
      }
    },
    {
      "id": "11130001",
      "lat": 43.031,
      "lon": 2.965,
      "cp": "11130",
      "ville": "SIGEAN",
      "prix": {
        "Gazole": 0.002148,
        "E85": 0.0008179999999999999
      },
      "maj_gouv": {
        "Gazole": "2026-05-06 07:40:17",
        "E85": "2026-04-22 09:11:46"
      }
    },
    {
      "id": "11430002",
      "lat": 43.118,
      "lon": 3.104,
      "cp": "11430",
      "ville": "GRUISSAN",
      "prix": {
        "Gazole": 0.0021070000000000004,
        "E85": 0.0008179999999999999,
        "E10": 0.002039,
        "SP98": 0.0021579999999999998
      },
      "maj_gouv": {
        "Gazole": "2026-05-11 12:27:21",
        "E85": "2026-05-11 12:27:21",
        "E10": "2026-05-11 12:27:21",
        "SP98": "2026-05-11 12:27:21"
      }
    },
    {
      "id": "11130002",
      "lat": 43.027,
      "lon": 2.995,
      "cp": "11130",
      "ville": "Sigean",
      "prix": {
        "Gazole": 0.002139,
        "E85": 0.000815,
        "E10": 0.0019890000000000003,
        "SP98": 0.002089
      },
      "maj_gouv": {
        "Gazole": "2026-05-07 10:53:15",
        "E85": "2026-05-07 10:53:15",
        "E10": "2026-05-04 10:56:43",
        "SP98": "2026-05-07 10:53:15"
      }
    },
    {
      "id": "11000016",
      "lat": 43.236,
      "lon": 2.369,
      "cp": "11000",
      "ville": "CARCASSONNE",
      "prix": {
        "Gazole": 0.002118,
        "E85": 0.000828,
        "E10": 0.002043,
        "SP98": 0.0021309999999999996
      },
      "maj_gouv": {
        "Gazole": "2026-05-11 11:34:20",
        "E85": "2026-03-26 08:54:50",
        "E10": "2026-05-11 11:34:20",
        "SP98": "2026-05-11 11:34:20"
      }
    },
    {
      "id": "11500002",
      "lat": 42.878,
      "lon": 2.183,
      "cp": "11500",
      "ville": "Quillan",
      "prix": {
        "E10": 0.00199
      },
      "maj_gouv": {
        "E10": "2026-05-05 17:00:18"
      }
    },
    {
      "id": "11100017",
      "lat": 43.196,
      "lon": 3.012,
      "cp": "11100",
      "ville": "Narbonne",
      "prix": {
        "Gazole": 0.002095,
        "SP95": 0.00199
      },
      "maj_gouv": {
        "Gazole": "2026-05-11 07:27:41",
        "SP95": "2026-05-11 11:24:38"
      }
    },
    {
      "id": "11000019",
      "lat": 43.207,
      "lon": 2.393,
      "cp": "11000",
      "ville": "Carcassonne",
      "prix": {
        "Gazole": 0.0021680000000000002,
        "E85": 0.000828,
        "E10": 0.0020440000000000002,
        "SP98": 0.002132
      },
      "maj_gouv": {
        "Gazole": "2026-05-08 08:45:00",
        "E85": "2026-05-08 08:45:00",
        "E10": "2026-05-08 08:45:00",
        "SP98": "2026-05-08 08:45:00"
      }
    },
    {
      "id": "11000003",
      "lat": 43.207,
      "lon": 2.386,
      "cp": "11000",
      "ville": "Carcassonne",
      "prix": {
        "SP98": 0.00199
      },
      "maj_gouv": {
        "SP98": "2026-05-11 10:08:59"
      }
    },
    {
      "id": "11100013",
      "lat": 43.174,
      "lon": 2.992,
      "cp": "11100",
      "ville": "NARBONNE",
      "prix": {
        "Gazole": 0.002091,
        "E85": 0.000866,
        "GPLc": 0.0010860000000000002,
        "E10": 0.00199,
        "SP98": 0.00199
      },
      "maj_gouv": {
        "Gazole": "2026-05-12 00:01:00",
        "E85": "2026-05-12 00:01:00",
        "GPLc": "2026-05-12 00:01:00",
        "E10": "2026-05-12 00:01:00",
        "SP98": "2026-05-12 00:01:00"
      }
    },
    {
      "id": "11250001",
      "lat": 43.124,
      "lon": 2.294,
      "cp": "11250",
      "ville": "Rouffiac d'Aude",
      "prix": {
        "Gazole": 0.00225,
        "SP95": 0.00199
      },
      "maj_gouv": {
        "Gazole": "2026-05-06 09:37:10",
        "SP95": "2026-05-06 09:37:10"
      }
    },
    {
      "id": "11100002",
      "lat": 43.191,
      "lon": 3.007,
      "cp": "11100",
      "ville": "NARBONNE",
      "prix": {
        "Gazole": 0.002299,
        "E85": 0.0008489999999999999,
        "E10": 0.002079
      },
      "maj_gouv": {
        "Gazole": "2026-05-11 14:00:00",
        "E85": "2026-05-11 14:00:00",
        "E10": "2026-05-11 14:00:00"
      }
    },
    {
      "id": "11360002",
      "lat": 42.997218294324,
      "lon": 2.8193464003296,
      "cp": "11360",
      "ville": "DURBAN-CORBIERES",
      "prix": {
        "Gazole": 0.0021190000000000002,
        "E10": 0.002049,
        "SP98": 0.002149
      },
      "maj_gouv": {
        "Gazole": "2026-05-11 14:05:51",
        "E10": "2026-05-07 19:03:06",
        "SP98": "2026-05-07 19:03:06"
      }
    },
    {
      "id": "11400009",
      "lat": 43.324,
      "lon": 1.936,
      "cp": "11400",
      "ville": "CASTELNAUDARY",
      "prix": {
        "Gazole": 0.002199,
        "E10": 0.002039,
        "SP98": 0.002149
      },
      "maj_gouv": {
        "Gazole": "2026-04-29 16:58:17",
        "E10": "2026-05-07 12:20:56",
        "SP98": "2026-04-29 16:58:17"
      }
    },
    {
      "id": "11101001",
      "lat": 43.179,
      "lon": 3.029,
      "cp": "11100",
      "ville": "NARBONNE",
      "prix": {
        "Gazole": 0.002079,
        "E10": 0.001975,
        "SP98": 0.002099
      },
      "maj_gouv": {
        "Gazole": "2026-05-11 14:49:28",
        "E10": "2026-05-11 14:49:28",
        "SP98": "2026-05-09 06:03:47"
      }
    },
    {
      "id": "11100016",
      "lat": 43.16,
      "lon": 2.982,
      "cp": "11100",
      "ville": "NARBONNE",
      "prix": {
        "Gazole": 0.0021230000000000003,
        "E85": 0.000819,
        "GPLc": 0.001099,
        "E10": 0.002039,
        "SP98": 0.002115
      },
      "maj_gouv": {
        "Gazole": "2026-05-11 10:57:46",
        "E85": "2026-04-17 09:22:20",
        "GPLc": "2026-04-24 09:42:55",
        "E10": "2026-05-11 10:57:46",
        "SP98": "2026-05-07 11:11:33"
      }
    }
  ]
}