{
  "departement": "03",
  "date": "2026-05-12",
  "stations": [
    {
      "id": "3210001",
      "lat": 46.536,
      "lon": 3.203,
      "cp": "03210",
      "ville": "SOUVIGNY",
      "prix": {
        "Gazole": 0.00219,
        "SP95": 0.002139,
        "E10": 0.002099
      },
      "maj_gouv": {
        "Gazole": "2026-05-05 06:55:55",
        "SP95": "2026-05-02 06:19:58",
        "E10": "2026-05-02 06:19:58"
      }
    },
    {
      "id": "3200005",
      "lat": 46.143,
      "lon": 3.415,
      "cp": "03200",
      "ville": "VICHY",
      "prix": {
        "Gazole": 0.002093,
        "E85": 0.0009,
        "GPLc": 0.000999,
        "E10": 0.0020710000000000004,
        "SP98": 0.002154
      },
      "maj_gouv": {
        "Gazole": "2026-05-11 10:41:09",
        "E85": "2026-04-28 10:21:25",
        "GPLc": "2026-05-11 10:41:09",
        "E10": "2026-05-11 10:41:09",
        "SP98": "2026-05-11 10:41:10"
      }
    },
    {
      "id": "3800006",
      "lat": 46.08,
      "lon": 3.201,
      "cp": "03800",
      "ville": "Gannat",
      "prix": {
        "Gazole": 0.0021469999999999996,
        "E85": 0.000819,
        "GPLc": 0.001127,
        "E10": 0.002061,
        "SP98": 0.002165
      },
      "maj_gouv": {
        "Gazole": "2026-05-11 16:27:46",
        "E85": "2026-04-16 11:05:45",
        "GPLc": "2026-04-16 11:05:45",
        "E10": "2026-05-11 16:27:46",
        "SP98": "2026-05-11 16:27:47"
      }
    },
    {
      "id": "3190006",
      "lat": 46.531566352067,
      "lon": 2.6221661835718,
      "cp": "03190",
      "ville": "Vallon-en-sully",
      "prix": {
        "Gazole": 0.002249,
        "SP95": 0.00212,
        "SP98": 0.0022
      },
      "maj_gouv": {
        "Gazole": "2026-05-05 13:41:40",
        "SP95": "2026-05-05 13:41:40",
        "SP98": "2026-05-05 13:41:41"
      }
    },
    {
      "id": "3390005",
      "lat": 46.332,
      "lon": 2.974,
      "cp": "03390",
      "ville": "Sazeret",
      "prix": {
        "Gazole": 0.002339,
        "E85": 0.001055,
        "E10": 0.0021190000000000002,
        "SP98": 0.002199
      },
      "maj_gouv": {
        "Gazole": "2026-04-21 15:26:56",
        "E85": "2026-04-21 15:26:57",
        "E10": "2026-04-25 06:00:00",
        "SP98": "2026-04-21 15:26:57"
      }
    },
    {
      "id": "3600004",
      "lat": 46.289,
      "lon": 2.744,
      "cp": "03600",
      "ville": "COMMENTRY",
      "prix": {},
      "maj_gouv": {}
    },
    {
      "id": "3000003",
      "lat": 46.587,
      "lon": 3.315,
      "cp": "03000",
      "ville": "Avermes",
      "prix": {
        "Gazole": 0.002169,
        "SP95": 0.002039,
        "E85": 0.000799,
        "GPLc": 0.000999
      },
      "maj_gouv": {
        "Gazole": "2026-05-06 08:27:30",
        "SP95": "2026-05-06 08:27:31",
        "E85": "2026-04-23 10:37:29",
        "GPLc": "2026-05-04 12:05:22"
      }
    },
    {
      "id": "3150007",
      "lat": 46.318,
      "lon": 3.398,
      "cp": "03150",
      "ville": "Varennes-sur-Allier",
      "prix": {},
      "maj_gouv": {}
    },
    {
      "id": "3630003",
      "lat": 46.345,
      "lon": 2.619,
      "cp": "03630",
      "ville": "DESERTINES",
      "prix": {},
      "maj_gouv": {}
    },
    {
      "id": "3450001",
      "lat": 46.119,
      "lon": 3.094,
      "cp": "03450",
      "ville": "EBREUIL",
      "prix": {
        "Gazole": 0.002275,
        "E10": 0.002095,
        "SP98": 0.002199
      },
      "maj_gouv": {
        "Gazole": "2026-04-30 11:09:06",
        "E10": "2026-04-30 11:09:06",
        "SP98": "2026-04-30 11:09:06"
      }
    },
    {
      "id": "3150008",
      "lat": 46.308475,
      "lon": 3.412964,
      "cp": "03150",
      "ville": "VARENNES SUR ALLIER",
      "prix": {
        "Gazole": 0.002249,
        "E10": 0.002059,
        "SP98": 0.002149
      },
      "maj_gouv": {
        "Gazole": "2026-05-11 23:54:00",
        "E10": "2026-05-11 23:54:00",
        "SP98": "2026-05-11 23:54:00"
      }
    },
    {
      "id": "3400005",
      "lat": 46.506387000000004,
      "lon": 3.3617220000000003,
      "cp": "03400",
      "ville": "TOULON SUR ALLIER",
      "prix": {
        "Gazole": 0.0023639999999999998
      },
      "maj_gouv": {
        "Gazole": "2026-05-12 00:00:00"
      }
    },
    {
      "id": "3410007",
      "lat": 46.338,
      "lon": 2.564,
      "cp": "03410",
      "ville": "DOMERAT",
      "prix": {
        "E10": 0.002059,
        "SP98": 0.002179
      },
      "maj_gouv": {
        "E10": "2026-05-11 11:43:00",
        "SP98": "2026-05-11 11:42:59"
      }
    },
    {
      "id": "3500002",
      "lat": 46.31156,
      "lon": 3.28058,
      "cp": "03500",
      "ville": "SAINT-POURçAIN-SUR-SIOULE",
      "prix": {
        "Gazole": 0.002241,
        "SP95": 0.002133,
        "SP98": 0.002206
      },
      "maj_gouv": {
        "Gazole": "2026-05-04 18:30:45",
        "SP95": "2026-05-04 18:30:45",
        "SP98": "2026-05-04 18:30:45"
      }
    },
    {
      "id": "3310002",
      "lat": 46.283,
      "lon": 2.669,
      "cp": "03310",
      "ville": "Néris-les-Bains",
      "prix": {
        "Gazole": 0.002229,
        "E10": 0.002039,
        "SP98": 0.002139
      },
      "maj_gouv": {
        "Gazole": "2026-05-06 11:01:23",
        "E10": "2026-05-06 11:01:23",
        "SP98": "2026-05-06 11:01:24"
      }
    },
    {
      "id": "3300002",
      "lat": 46.134,
      "lon": 3.449,
      "cp": "03300",
      "ville": "CUSSET",
      "prix": {
        "Gazole": 0.00214,
        "E85": 0.0008990000000000001,
        "E10": 0.00199,
        "SP98": 0.00199
      },
      "maj_gouv": {
        "Gazole": "2026-05-11 13:18:34",
        "E85": "2026-04-14 13:19:16",
        "E10": "2026-05-11 13:18:34",
        "SP98": "2026-05-11 13:18:34"
      }
    },
    {
      "id": "3000006",
      "lat": 46.590716994114,
      "lon": 3.3225707144141,
      "cp": "03000",
      "ville": "Avermes",
      "prix": {
        "Gazole": 0.002169,
        "GPLc": 0.000999,
        "E10": 0.002029,
        "SP98": 0.002099
      },
      "maj_gouv": {
        "Gazole": "2026-05-06 08:26:56",
        "GPLc": "2026-05-04 12:04:32",
        "E10": "2026-05-09 09:52:16",
        "SP98": "2026-05-04 12:04:32"
      }
    },
    {
      "id": "3260001",
      "lat": 46.205,
      "lon": 3.432,
      "cp": "03260",
      "ville": "Saint-Germain-des-Fossés",
      "prix": {
        "Gazole": 0.00206,
        "E85": 0.0008179999999999999,
        "E10": 0.001999
      },
      "maj_gouv": {
        "Gazole": "2026-05-11 10:16:24",
        "E85": "2026-04-18 10:09:46",
        "E10": "2026-05-11 10:16:24"
      }
    },
    {
      "id": "3100002",
      "lat": 46.343,
      "lon": 2.592,
      "cp": "03100",
      "ville": "MONTLUçON",
      "prix": {
        "Gazole": 0.0021739999999999997,
        "E85": 0.000905,
        "E10": 0.00199
      },
      "maj_gouv": {
        "Gazole": "2026-05-07 06:54:52",
        "E85": "2026-04-28 06:53:00",
        "E10": "2026-05-06 07:18:37"
      }
    },
    {
      "id": "3500003",
      "lat": 46.306505619999996,
      "lon": 3.29404326,
      "cp": "03500",
      "ville": "SAINT-POURCAIN-SUR-SIOULE",
      "prix": {
        "E10": 0.00199,
        "SP98": 0.00199
      },
      "maj_gouv": {
        "E10": "2026-05-09 10:03:26",
        "SP98": "2026-05-09 10:03:26"
      }
    },
    {
      "id": "3100001",
      "lat": 46.3474438067,
      "lon": 2.60218545365,
      "cp": "03100",
      "ville": "MONTLUçON",
      "prix": {
        "Gazole": 0.002199,
        "SP95": 0.002089,
        "E10": 0.002059,
        "SP98": 0.002109
      },
      "maj_gouv": {
        "Gazole": "2026-05-11 10:40:14",
        "SP95": "2026-05-11 10:40:14",
        "E10": "2026-05-11 10:40:14",
        "SP98": "2026-05-11 10:40:14"
      }
    },
    {
      "id": "3600003",
      "lat": 46.29151,
      "lon": 2.73992,
      "cp": "03600",
      "ville": "COMMENTRY",
      "prix": {
        "Gazole": 0.002199,
        "E85": 0.0008179999999999999,
        "E10": 0.0020310000000000003,
        "SP98": 0.002149
      },
      "maj_gouv": {
        "Gazole": "2026-05-07 07:58:03",
        "E85": "2026-04-16 08:41:02",
        "E10": "2026-05-07 07:58:03",
        "SP98": "2026-05-07 07:58:03"
      }
    },
    {
      "id": "3300003",
      "lat": 46.136,
      "lon": 3.455,
      "cp": "03300",
      "ville": "CUSSET",
      "prix": {
        "Gazole": 0.0020800000000000003,
        "E85": 0.000878,
        "E10": 0.00207,
        "SP98": 0.002154
      },
      "maj_gouv": {
        "Gazole": "2026-05-11 10:41:49",
        "E85": "2026-04-10 09:37:16",
        "E10": "2026-05-11 10:41:49",
        "SP98": "2026-04-30 11:10:53"
      }
    },
    {
      "id": "3390003",
      "lat": 46.321,
      "lon": 2.961,
      "cp": "03390",
      "ville": "MONTMARAULT",
      "prix": {
        "Gazole": 0.002199,
        "SP95": 0.002089,
        "SP98": 0.002159
      },
      "maj_gouv": {
        "Gazole": "2026-05-09 09:20:48",
        "SP95": "2026-05-06 08:23:22",
        "SP98": "2026-05-06 08:23:22"
      }
    },
    {
      "id": "3110001",
      "lat": 46.155,
      "lon": 3.394,
      "cp": "03110",
      "ville": "CHARMEIL",
      "prix": {
        "Gazole": 0.00214
      },
      "maj_gouv": {
        "Gazole": "2026-05-11 07:02:31"
      }
    },
    {
      "id": "3400001",
      "lat": 46.558,
      "lon": 3.335,
      "cp": "03400",
      "ville": "YZEURE",
      "prix": {
        "Gazole": 0.00214,
        "E85": 0.000906,
        "GPLc": 0.001099,
        "E10": 0.00199
      },
      "maj_gouv": {
        "Gazole": "2026-05-11 06:57:16",
        "E85": "2026-05-11 06:57:16",
        "GPLc": "2026-05-07 06:57:27",
        "E10": "2026-05-11 06:57:16"
      }
    },
    {
      "id": "3410008",
      "lat": 46.36701,
      "lon": 2.56526,
      "cp": "03410",
      "ville": "Domérat",
      "prix": {
        "Gazole": 0.002099,
        "SP95": 0.002069,
        "GPLc": 0.001019,
        "E10": 0.002039,
        "SP98": 0.0021190000000000002
      },
      "maj_gouv": {
        "Gazole": "2026-05-11 10:00:00",
        "SP95": "2026-05-11 10:00:00",
        "GPLc": "2026-04-22 10:24:35",
        "E10": "2026-05-11 10:00:00",
        "SP98": "2026-05-11 10:00:00"
      }
    },
    {
      "id": "3300001",
      "lat": 46.138,
      "lon": 3.449,
      "cp": "03300",
      "ville": "CUSSET",
      "prix": {
        "Gazole": 0.002255,
        "SP95": 0.002109,
        "SP98": 0.002154
      },
      "maj_gouv": {
        "Gazole": "2026-05-06 19:24:50",
        "SP95": "2026-05-06 19:24:50",
        "SP98": "2026-05-06 19:24:50"
      }
    },
    {
      "id": "3150005",
      "lat": 46.316,
      "lon": 3.398,
      "cp": "03150",
      "ville": "VARENNES-SUR-ALLIER",
      "prix": {
        "Gazole": 0.002159,
        "E10": 0.0019890000000000003,
        "SP98": 0.002149
      },
      "maj_gouv": {
        "Gazole": "2026-05-07 12:12:36",
        "E10": "2026-05-07 12:12:36",
        "SP98": "2026-05-07 12:12:36"
      }
    },
    {
      "id": "3400004",
      "lat": 46.5666939,
      "lon": 3.3547122148461,
      "cp": "03400",
      "ville": "Yzeure",
      "prix": {
        "Gazole": 0.002169,
        "E10": 0.001999,
        "SP98": 0.002159
      },
      "maj_gouv": {
        "Gazole": "2026-05-05 11:45:26",
        "E10": "2026-05-05 11:45:26",
        "SP98": "2026-05-05 11:45:26"
      }
    },
    {
      "id": "3200003",
      "lat": 46.131,
      "lon": 3.434,
      "cp": "03200",
      "ville": "VICHY",
      "prix": {
        "Gazole": 0.00214,
        "E10": 0.00199
      },
      "maj_gouv": {
        "Gazole": "2026-05-11 08:24:19",
        "E10": "2026-05-05 09:39:43"
      }
    },
    {
      "id": "3250002",
      "lat": 46.06849,
      "lon": 3.66341,
      "cp": "03250",
      "ville": "Le Mayet-de-Montagne",
      "prix": {
        "Gazole": 0.0021669999999999997,
        "E10": 0.002045,
        "SP98": 0.002157
      },
      "maj_gouv": {
        "Gazole": "2026-05-06 06:33:39",
        "E10": "2026-05-06 06:33:39",
        "SP98": "2026-05-06 06:33:39"
      }
    },
    {
      "id": "3100006",
      "lat": 46.35591,
      "lon": 2.8003,
      "cp": "03170",
      "ville": "Doyet",
      "prix": {
        "Gazole": 0.0022480000000000004,
        "GPLc": 0.00113,
        "E10": 0.002097,
        "SP98": 0.002164
      },
      "maj_gouv": {
        "Gazole": "2026-05-07 07:00:00",
        "GPLc": "2026-05-07 07:00:00",
        "E10": "2026-05-07 07:00:00",
        "SP98": "2026-05-07 07:00:00"
      }
    },
    {
      "id": "3350002",
      "lat": 46.617,
      "lon": 2.822,
      "cp": "03350",
      "ville": "Cérilly",
      "prix": {
        "Gazole": 0.002169,
        "SP95": 0.002099
      },
      "maj_gouv": {
        "Gazole": "2026-05-11 10:09:49",
        "SP95": "2026-05-11 10:09:49"
      }
    },
    {
      "id": "3800004",
      "lat": 46.099630026599996,
      "lon": 3.2117461921799997,
      "cp": "03800",
      "ville": "GANNAT",
      "prix": {
        "Gazole": 0.002127,
        "E10": 0.00199
      },
      "maj_gouv": {
        "Gazole": "2026-05-11 14:38:11",
        "E10": "2026-05-11 14:38:11"
      }
    },
    {
      "id": "3150001",
      "lat": 46.322,
      "lon": 3.392,
      "cp": "03150",
      "ville": "VARENNES-SUR-ALLIER",
      "prix": {
        "Gazole": 0.002183,
        "E10": 0.00199,
        "SP98": 0.00199
      },
      "maj_gouv": {
        "Gazole": "2026-05-12 06:29:43",
        "E10": "2026-04-28 15:12:45",
        "SP98": "2026-05-07 08:00:18"
      }
    },
    {
      "id": "3130002",
      "lat": 46.348083591937005,
      "lon": 3.7933462449916,
      "cp": "03130",
      "ville": "Le Donjon",
      "prix": {
        "Gazole": 0.0023,
        "SP95": 0.00215,
        "SP98": 0.00217
      },
      "maj_gouv": {
        "Gazole": "2026-04-21 10:44:37",
        "SP95": "2026-04-21 10:45:00",
        "SP98": "2026-04-21 10:45:19"
      }
    },
    {
      "id": "3360001",
      "lat": 46.705,
      "lon": 2.695,
      "cp": "03360",
      "ville": "AINAY-LE-CHATEAU",
      "prix": {
        "Gazole": 0.002199,
        "SP95": 0.002099,
        "E10": 0.0020499999999999997
      },
      "maj_gouv": {
        "Gazole": "2026-05-09 15:18:42",
        "SP95": "2026-05-07 16:03:18",
        "E10": "2026-05-07 16:03:18"
      }
    },
    {
      "id": "3400003",
      "lat": 46.563,
      "lon": 3.355,
      "cp": "03400",
      "ville": "Yzeure",
      "prix": {
        "Gazole": 0.002299,
        "SP95": 0.002169,
        "SP98": 0.002229
      },
      "maj_gouv": {
        "Gazole": "2026-04-22 20:17:00",
        "SP95": "2026-04-22 20:17:00",
        "SP98": "2026-04-22 20:17:00"
      }
    },
    {
      "id": "3410009",
      "lat": 46.378337771105,
      "lon": 2.585400885507,
      "cp": "03410",
      "ville": "Saint-Victor",
      "prix": {
        "Gazole": 0.002099,
        "SP95": 0.002069,
        "E85": 0.000799,
        "E10": 0.002039
      },
      "maj_gouv": {
        "Gazole": "2026-05-11 10:00:00",
        "SP95": "2026-05-11 10:00:00",
        "E85": "2026-04-23 08:25:36",
        "E10": "2026-05-11 10:00:00"
      }
    },
    {
      "id": "3700004",
      "lat": 46.114,
      "lon": 3.418,
      "cp": "03700",
      "ville": "BELLERIVE-SUR-ALLIER",
      "prix": {
        "Gazole": 0.00206,
        "E85": 0.000877,
        "E10": 0.002069,
        "SP98": 0.002153
      },
      "maj_gouv": {
        "Gazole": "2026-05-11 10:50:36",
        "E85": "2026-04-27 16:38:12",
        "E10": "2026-05-11 10:50:36",
        "SP98": "2026-04-30 11:42:12"
      }
    },
    {
      "id": "3120003",
      "lat": 46.256453019739,
      "lon": 3.6221078417659,
      "cp": "03120",
      "ville": "Lapalisse",
      "prix": {
        "Gazole": 0.002089,
        "E85": 0.0008179999999999999,
        "E10": 0.0019890000000000003,
        "SP98": 0.002099
      },
      "maj_gouv": {
        "Gazole": "2026-05-11 09:49:17",
        "E85": "2026-04-22 10:25:41",
        "E10": "2026-05-11 09:49:17",
        "SP98": "2026-05-11 09:49:17"
      }
    },
    {
      "id": "3320001",
      "lat": 46.731,
      "lon": 2.938,
      "cp": "03320",
      "ville": "Lurcy-Lévis",
      "prix": {
        "Gazole": 0.0022890000000000002,
        "SP95": 0.002099,
        "SP98": 0.002199
      },
      "maj_gouv": {
        "Gazole": "2026-04-23 00:00:00",
        "SP95": "2026-04-15 00:00:00",
        "SP98": "2026-04-15 00:00:00"
      }
    },
    {
      "id": "3100010",
      "lat": 46.34,
      "lon": 2.582,
      "cp": "03100",
      "ville": "MONTLUçON",
      "prix": {
        "Gazole": 0.002129,
        "E10": 0.001999,
        "SP98": 0.002129
      },
      "maj_gouv": {
        "Gazole": "2026-05-11 09:39:09",
        "E10": "2026-05-11 09:39:09",
        "SP98": "2026-05-11 09:39:09"
      }
    },
    {
      "id": "3120001",
      "lat": 46.248,
      "lon": 3.63,
      "cp": "03120",
      "ville": "LAPALISSE",
      "prix": {
        "Gazole": 0.00221,
        "SP95": 0.0020800000000000003,
        "SP98": 0.00212
      },
      "maj_gouv": {
        "Gazole": "2026-05-06 08:51:43",
        "SP95": "2026-05-06 08:51:43",
        "SP98": "2026-05-06 08:51:43"
      }
    },
    {
      "id": "3630004",
      "lat": 46.355,
      "lon": 2.621,
      "cp": "03630",
      "ville": "DESERTINES",
      "prix": {
        "Gazole": 0.002249
      },
      "maj_gouv": {
        "Gazole": "2026-05-02 14:18:17"
      }
    },
    {
      "id": "3290002",
      "lat": 46.517,
      "lon": 3.692,
      "cp": "03290",
      "ville": "DOMPIERRE SUR BESBRE",
      "prix": {
        "Gazole": 0.002249,
        "SP95": 0.002099,
        "SP98": 0.002129
      },
      "maj_gouv": {
        "Gazole": "2026-04-30 10:32:26",
        "SP95": "2026-04-30 10:32:26",
        "SP98": "2026-04-30 10:32:26"
      }
    },
    {
      "id": "3290003",
      "lat": 46.523,
      "lon": 3.68,
      "cp": "03290",
      "ville": "DOMPIERRE SUR BESBRE",
      "prix": {
        "Gazole": 0.0023639999999999998,
        "SP95": 0.002109,
        "SP98": 0.002177
      },
      "maj_gouv": {
        "Gazole": "2026-03-25 08:32:21",
        "SP95": "2026-04-20 08:25:07",
        "SP98": "2026-04-20 08:25:07"
      }
    },
    {
      "id": "3380002",
      "lat": 46.372,
      "lon": 2.468,
      "cp": "03380",
      "ville": "HURIEL",
      "prix": {
        "Gazole": 0.002229,
        "SP95": 0.002049,
        "SP98": 0.002079
      },
      "maj_gouv": {
        "Gazole": "2026-05-04 18:10:23",
        "SP95": "2026-05-04 18:10:23",
        "SP98": "2026-05-04 18:10:23"
      }
    },
    {
      "id": "3170001",
      "lat": 46.3351,
      "lon": 2.79688,
      "cp": "03170",
      "ville": "Doyet",
      "prix": {
        "Gazole": 0.0022480000000000004,
        "GPLc": 0.00113,
        "E10": 0.002097,
        "SP98": 0.002164
      },
      "maj_gouv": {
        "Gazole": "2026-05-07 07:00:00",
        "GPLc": "2026-05-07 07:00:00",
        "E10": "2026-05-07 07:00:00",
        "SP98": "2026-05-07 07:00:00"
      }
    },
    {
      "id": "3290001",
      "lat": 46.529,
      "lon": 3.669,
      "cp": "03290",
      "ville": "Dompierre-sur-Besbre",
      "prix": {
        "Gazole": 0.002269,
        "SP95": 0.002099,
        "SP98": 0.002159
      },
      "maj_gouv": {
        "Gazole": "2026-05-11 23:54:00",
        "SP95": "2026-05-11 23:54:00",
        "SP98": "2026-05-11 23:54:00"
      }
    },
    {
      "id": "3380001",
      "lat": 46.41,
      "lon": 2.511,
      "cp": "03410",
      "ville": "DOMERAT",
      "prix": {
        "Gazole": 0.002115,
        "E10": 0.00199
      },
      "maj_gouv": {
        "Gazole": "2026-05-11 15:55:12",
        "E10": "2026-04-24 08:40:42"
      }
    },
    {
      "id": "3430001",
      "lat": 46.474,
      "lon": 2.827,
      "cp": "03430",
      "ville": "COSNE-D'ALLIER",
      "prix": {
        "Gazole": 0.002099,
        "E10": 0.0019890000000000003,
        "SP98": 0.002129
      },
      "maj_gouv": {
        "Gazole": "2026-05-09 10:16:38",
        "E10": "2026-05-09 10:16:38",
        "SP98": "2026-05-09 10:16:39"
      }
    },
    {
      "id": "3100009",
      "lat": 46.328,
      "lon": 2.609,
      "cp": "03100",
      "ville": "Montluçon",
      "prix": {
        "Gazole": 0.002397,
        "E10": 0.002117,
        "SP98": 0.002197
      },
      "maj_gouv": {
        "Gazole": "2026-05-05 15:34:53",
        "E10": "2026-05-05 15:34:53",
        "SP98": "2026-05-05 15:34:54"
      }
    },
    {
      "id": "3390004",
      "lat": 46.324,
      "lon": 2.964,
      "cp": "03390",
      "ville": "Montmarault",
      "prix": {
        "Gazole": 0.0022589999999999997,
        "E85": 0.001049,
        "E10": 0.0021190000000000002,
        "SP98": 0.002179
      },
      "maj_gouv": {
        "Gazole": "2026-05-07 11:09:02",
        "E85": "2026-04-30 11:38:58",
        "E10": "2026-05-07 11:09:02",
        "SP98": "2026-05-07 11:09:02"
      }
    },
    {
      "id": "3160001",
      "lat": 46.58333,
      "lon": 3.06336,
      "cp": "03160",
      "ville": "BOURBON-L'ARCHAMBAULT",
      "prix": {
        "Gazole": 0.0022519999999999997
      },
      "maj_gouv": {
        "Gazole": "2026-05-04 10:01:26"
      }
    },
    {
      "id": "3120005",
      "lat": 46.247646649903004,
      "lon": 3.6290006705522,
      "cp": "03120",
      "ville": "Lapalisse",
      "prix": {
        "Gazole": 0.00209,
        "E85": 0.00086,
        "E10": 0.00204,
        "SP98": 0.00212
      },
      "maj_gouv": {
        "Gazole": "2026-05-11 21:20:24",
        "E85": "2026-04-24 21:58:32",
        "E10": "2026-05-06 13:52:57",
        "SP98": "2026-05-06 13:52:57"
      }
    },
    {
      "id": "3000001",
      "lat": 46.541,
      "lon": 3.344,
      "cp": "03000",
      "ville": "MOULINS",
      "prix": {
        "Gazole": 0.002169,
        "SP95": 0.002069,
        "E10": 0.002029
      },
      "maj_gouv": {
        "Gazole": "2026-05-11 11:36:36",
        "SP95": "2026-05-11 11:36:37",
        "E10": "2026-05-11 11:36:37"
      }
    },
    {
      "id": "3410004",
      "lat": 46.388,
      "lon": 2.613,
      "cp": "03410",
      "ville": "SAINT-VICTOR",
      "prix": {
        "Gazole": 0.002277,
        "SP95": 0.002137,
        "SP98": 0.002177
      },
      "maj_gouv": {
        "Gazole": "2026-05-11 10:14:54",
        "SP95": "2026-05-11 10:14:55",
        "SP98": "2026-05-11 10:14:55"
      }
    },
    {
      "id": "3800003",
      "lat": 46.099040261285,
      "lon": 3.2029300292,
      "cp": "03800",
      "ville": "GANNAT",
      "prix": {
        "Gazole": 0.002209,
        "E10": 0.002078,
        "SP98": 0.0021869999999999997
      },
      "maj_gouv": {
        "Gazole": "2026-05-07 09:27:18",
        "E10": "2026-05-07 09:27:18",
        "SP98": "2026-05-07 09:27:18"
      }
    },
    {
      "id": "3100005",
      "lat": 46.353,
      "lon": 2.587,
      "cp": "03100",
      "ville": "MONTLUçON",
      "prix": {
        "Gazole": 0.002099,
        "SP95": 0.002069,
        "SP98": 0.0021190000000000002
      },
      "maj_gouv": {
        "Gazole": "2026-05-11 08:38:17",
        "SP95": "2026-05-11 08:38:17",
        "SP98": "2026-05-11 08:38:17"
      }
    },
    {
      "id": "3110003",
      "lat": 46.192,
      "lon": 3.265,
      "cp": "03110",
      "ville": "Broût-Vernet",
      "prix": {
        "Gazole": 0.002286,
        "E10": 0.002176,
        "SP98": 0.00228
      },
      "maj_gouv": {
        "Gazole": "2026-05-05 12:39:41",
        "E10": "2026-05-07 18:57:34",
        "SP98": "2026-04-08 10:32:11"
      }
    },
    {
      "id": "3120004",
      "lat": 46.245522061353,
      "lon": 3.611568909912,
      "cp": "03120",
      "ville": "Lapalisse",
      "prix": {
        "Gazole": 0.002091,
        "E85": 0.000864,
        "E10": 0.00199
      },
      "maj_gouv": {
        "Gazole": "2026-05-11 11:26:38",
        "E85": "2026-05-11 11:26:38",
        "E10": "2026-05-11 11:26:38"
      }
    },
    {
      "id": "3000004",
      "lat": 46.603,
      "lon": 3.304,
      "cp": "03000",
      "ville": "MOULINS",
      "prix": {
        "Gazole": 0.00225,
        "E10": 0.00199
      },
      "maj_gouv": {
        "Gazole": "2026-05-04 10:00:21",
        "E10": "2026-05-04 10:00:21"
      }
    },
    {
      "id": "3100008",
      "lat": 46.33362,
      "lon": 2.60087,
      "cp": "03100",
      "ville": "Montluçon",
      "prix": {
        "Gazole": 0.002129,
        "SP95": 0.002069,
        "E85": 0.0008179999999999999,
        "E10": 0.002009,
        "SP98": 0.002129
      },
      "maj_gouv": {
        "Gazole": "2026-05-11 10:02:21",
        "SP95": "2026-05-11 10:02:21",
        "E85": "2026-04-16 09:33:11",
        "E10": "2026-05-11 10:02:21",
        "SP98": "2026-05-11 10:02:21"
      }
    },
    {
      "id": "3300004",
      "lat": 46.181,
      "lon": 3.462,
      "cp": "03300",
      "ville": "CREUZIER LE NEUF",
      "prix": {
        "Gazole": 0.002189,
        "E85": 0.001009,
        "E10": 0.002069,
        "SP98": 0.002159
      },
      "maj_gouv": {
        "Gazole": "2026-05-11 15:52:37",
        "E85": "2026-05-11 15:52:38",
        "E10": "2026-05-11 15:52:38",
        "SP98": "2026-05-11 15:52:38"
      }
    },
    {
      "id": "3200002",
      "lat": 46.11614,
      "lon": 3.43769,
      "cp": "03200",
      "ville": "VICHY",
      "prix": {
        "Gazole": 0.00214,
        "SP98": 0.00199
      },
      "maj_gouv": {
        "Gazole": "2026-05-11 10:17:44",
        "SP98": "2026-05-11 10:17:44"
      }
    },
    {
      "id": "3400006",
      "lat": 46.497,
      "lon": 3.362,
      "cp": "03400",
      "ville": "TOULON-SUR-ALLIER",
      "prix": {
        "Gazole": 0.0021680000000000002,
        "E85": 0.00124,
        "E10": 0.002142,
        "SP98": 0.0022480000000000004
      },
      "maj_gouv": {
        "Gazole": "2026-05-11 10:13:37",
        "E85": "2026-05-11 10:13:37",
        "E10": "2026-05-11 10:13:37",
        "SP98": "2026-05-11 10:13:37"
      }
    },
    {
      "id": "3800009",
      "lat": 46.084220095108,
      "lon": 3.2007564688000003,
      "cp": "03800",
      "ville": "GANNAT",
      "prix": {
        "Gazole": 0.002209,
        "E10": 0.002078,
        "SP98": 0.0021869999999999997
      },
      "maj_gouv": {
        "Gazole": "2026-05-11 09:59:06",
        "E10": "2026-05-11 09:59:06",
        "SP98": "2026-05-05 13:40:04"
      }
    },
    {
      "id": "3410001",
      "lat": 46.338,
      "lon": 2.567,
      "cp": "03410",
      "ville": "Domérat",
      "prix": {
        "Gazole": 0.002099,
        "SP95": 0.002069,
        "E85": 0.0008179999999999999,
        "GPLc": 0.001019,
        "E10": 0.001998,
        "SP98": 0.0021190000000000002
      },
      "maj_gouv": {
        "Gazole": "2026-05-11 09:11:18",
        "SP95": "2026-05-11 09:11:18",
        "E85": "2026-04-24 09:11:31",
        "GPLc": "2026-04-21 09:20:27",
        "E10": "2026-05-11 09:11:18",
        "SP98": "2026-05-11 09:11:18"
      }
    },
    {
      "id": "3500006",
      "lat": 46.29,
      "lon": 3.293,
      "cp": "03500",
      "ville": "Saint-Pourçain-sur-Sioule",
      "prix": {
        "Gazole": 0.002092,
        "GPLc": 0.001099,
        "E10": 0.00199
      },
      "maj_gouv": {
        "Gazole": "2026-05-12 00:01:00",
        "GPLc": "2026-05-12 00:01:00",
        "E10": "2026-05-12 00:01:00"
      }
    },
    {
      "id": "3600001",
      "lat": 46.294,
      "lon": 2.741,
      "cp": "03600",
      "ville": "COMMENTRY",
      "prix": {
        "Gazole": 0.002189,
        "E10": 0.002019,
        "SP98": 0.002139
      },
      "maj_gouv": {
        "Gazole": "2026-05-07 17:59:29",
        "E10": "2026-05-07 17:59:29",
        "SP98": "2026-05-07 17:59:29"
      }
    },
    {
      "id": "3270002",
      "lat": 46.054581342087,
      "lon": 3.4702738520894,
      "cp": "03270",
      "ville": "Saint-Yorre",
      "prix": {
        "Gazole": 0.0020800000000000003,
        "E10": 0.00207,
        "SP98": 0.002153
      },
      "maj_gouv": {
        "Gazole": "2026-05-11 09:17:13",
        "E10": "2026-05-11 09:17:13",
        "SP98": "2026-05-11 09:17:13"
      }
    },
    {
      "id": "3120006",
      "lat": 46.255932488596,
      "lon": 3.6224796467277,
      "cp": "03120",
      "ville": "LAPALISSE",
      "prix": {
        "Gazole": 0.002155,
        "E10": 0.00204,
        "SP98": 0.002099
      },
      "maj_gouv": {
        "Gazole": "2026-05-05 08:10:37",
        "E10": "2026-05-05 08:10:37",
        "SP98": "2026-05-05 08:10:38"
      }
    },
    {
      "id": "3100007",
      "lat": 46.320058353029,
      "lon": 2.5809868850979,
      "cp": "03100",
      "ville": "MONTLUCON",
      "prix": {
        "Gazole": 0.002099,
        "SP95": 0.002069,
        "SP98": 0.0021190000000000002
      },
      "maj_gouv": {
        "Gazole": "2026-05-11 08:30:00",
        "SP95": "2026-05-11 08:30:00",
        "SP98": "2026-05-11 08:30:00"
      }
    },
    {
      "id": "3240003",
      "lat": 46.38,
      "lon": 3.04,
      "cp": "03240",
      "ville": "Deux-Chaises",
      "prix": {
        "Gazole": 0.002144,
        "E10": 0.00199,
        "SP98": 0.00199
      },
      "maj_gouv": {
        "Gazole": "2026-05-11 10:25:14",
        "E10": "2026-05-11 10:25:14",
        "SP98": "2026-05-11 10:25:14"
      }
    },
    {
      "id": "3500007",
      "lat": 46.298,
      "lon": 3.296,
      "cp": "03500",
      "ville": "SAINT POURCAIN SUR SIOULE",
      "prix": {
        "Gazole": 0.002079,
        "E85": 0.000819,
        "E10": 0.0019890000000000003
      },
      "maj_gouv": {
        "Gazole": "2026-05-11 18:38:37",
        "E85": "2026-04-27 17:00:34",
        "E10": "2026-05-11 20:20:43"
      }
    },
    {
      "id": "3000005",
      "lat": 46.562,
      "lon": 3.32,
      "cp": "03000",
      "ville": "MOULINS",
      "prix": {
        "Gazole": 0.002169,
        "E85": 0.000819,
        "E10": 0.002029,
        "SP98": 0.002099
      },
      "maj_gouv": {
        "Gazole": "2026-05-11 08:40:35",
        "E85": "2026-05-11 08:40:35",
        "E10": "2026-05-11 08:40:35",
        "SP98": "2026-05-11 08:40:36"
      }
    }
  ]
}