{
  "departement": "16",
  "date": "2026-05-12",
  "stations": [
    {
      "id": "16100004",
      "lat": 45.686,
      "lon": -0.338,
      "cp": "16100",
      "ville": "COGNAC",
      "prix": {
        "Gazole": 0.001999,
        "SP95": 0.0020440000000000002,
        "E10": 0.001958,
        "SP98": 0.002079
      },
      "maj_gouv": {
        "Gazole": "2026-05-11 08:30:00",
        "SP95": "2026-05-11 08:30:00",
        "E10": "2026-05-11 08:30:00",
        "SP98": "2026-05-11 08:30:00"
      }
    },
    {
      "id": "16150003",
      "lat": 45.878,
      "lon": 0.726,
      "cp": "16150",
      "ville": "CHABANAIS",
      "prix": {
        "Gazole": 0.002205,
        "E85": 0.000875,
        "GPLc": 0.001129,
        "E10": 0.002029,
        "SP98": 0.002125
      },
      "maj_gouv": {
        "Gazole": "2026-05-07 09:12:23",
        "E85": "2026-04-27 09:52:56",
        "GPLc": "2026-05-02 12:02:42",
        "E10": "2026-05-07 09:12:23",
        "SP98": "2026-05-07 09:12:24"
      }
    },
    {
      "id": "16110004",
      "lat": 45.74594,
      "lon": 0.38625,
      "cp": "16110",
      "ville": "LA ROCHEFOUCAULD",
      "prix": {
        "Gazole": 0.00228,
        "SP95": 0.00206
      },
      "maj_gouv": {
        "Gazole": "2026-04-29 08:53:00",
        "SP95": "2026-03-23 09:33:39"
      }
    },
    {
      "id": "16700007",
      "lat": 45.985463882983,
      "lon": 0.20048889066011,
      "cp": "16700",
      "ville": "Villegats",
      "prix": {
        "Gazole": 0.002299,
        "E85": 0.000832,
        "E10": 0.002099,
        "SP98": 0.002274
      },
      "maj_gouv": {
        "Gazole": "2026-05-11 14:00:00",
        "E85": "2026-05-11 14:00:00",
        "E10": "2026-05-11 14:00:00",
        "SP98": "2026-05-11 14:00:00"
      }
    },
    {
      "id": "16100008",
      "lat": 45.69309,
      "lon": -0.32722,
      "cp": "16100",
      "ville": "COGNAC",
      "prix": {
        "Gazole": 0.002133,
        "E85": 0.000851,
        "E10": 0.00199
      },
      "maj_gouv": {
        "Gazole": "2026-05-12 00:01:00",
        "E85": "2026-05-12 00:01:00",
        "E10": "2026-05-12 00:01:00"
      }
    },
    {
      "id": "16430005",
      "lat": 45.701,
      "lon": 0.182,
      "cp": "16430",
      "ville": "CHAMPNIERS",
      "prix": {
        "E85": 0.000865,
        "E10": 0.00199
      },
      "maj_gouv": {
        "E85": "2026-05-12 00:01:00",
        "E10": "2026-05-12 00:01:00"
      }
    },
    {
      "id": "16320003",
      "lat": 45.49,
      "lon": 0.275,
      "cp": "16320",
      "ville": "Villebois-Lavalette",
      "prix": {
        "Gazole": 0.002195,
        "E85": 0.000799,
        "E10": 0.002039,
        "SP98": 0.002115
      },
      "maj_gouv": {
        "Gazole": "2026-05-06 08:47:09",
        "E85": "2026-04-30 08:43:01",
        "E10": "2026-05-06 08:47:09",
        "SP98": "2026-05-06 08:47:09"
      }
    },
    {
      "id": "16220001",
      "lat": 45.665,
      "lon": 0.501,
      "cp": "16220",
      "ville": "Montbron",
      "prix": {
        "Gazole": 0.002199,
        "E85": 0.0008179999999999999,
        "E10": 0.002029,
        "SP98": 0.002139
      },
      "maj_gouv": {
        "Gazole": "2026-04-29 08:39:46",
        "E85": "2026-04-17 08:50:24",
        "E10": "2026-05-05 08:37:59",
        "SP98": "2026-05-05 08:37:59"
      }
    },
    {
      "id": "16430006",
      "lat": 45.691902196889,
      "lon": 0.18274304124793997,
      "cp": "16430",
      "ville": "CHAMPNIERS",
      "prix": {
        "Gazole": 0.002166,
        "E85": 0.000829,
        "GPLc": 0.001065,
        "E10": 0.001999
      },
      "maj_gouv": {
        "Gazole": "2026-05-06 09:37:09",
        "E85": "2026-05-05 09:53:34",
        "GPLc": "2026-05-05 09:53:34",
        "E10": "2026-05-06 09:37:10"
      }
    },
    {
      "id": "16730002",
      "lat": 45.655,
      "lon": 0.085,
      "cp": "16730",
      "ville": "LINARS",
      "prix": {
        "Gazole": 0.002199,
        "E10": 0.002039,
        "SP98": 0.002139
      },
      "maj_gouv": {
        "Gazole": "2026-05-06 08:58:20",
        "E10": "2026-05-06 08:58:20",
        "SP98": "2026-05-06 08:58:20"
      }
    },
    {
      "id": "16500006",
      "lat": 45.989,
      "lon": 0.615,
      "cp": "16500",
      "ville": "Ansac-sur-Vienne",
      "prix": {
        "Gazole": 0.002299,
        "E10": 0.002109,
        "SP98": 0.002209
      },
      "maj_gouv": {
        "Gazole": "2026-04-30 17:42:25",
        "E10": "2026-04-24 00:00:00",
        "SP98": "2026-04-24 00:00:00"
      }
    },
    {
      "id": "16340002",
      "lat": 45.665,
      "lon": 0.201,
      "cp": "16340",
      "ville": "L'ISLE-D'ESPAGNAC",
      "prix": {
        "Gazole": 0.002099,
        "E10": 0.002039,
        "SP98": 0.002189
      },
      "maj_gouv": {
        "Gazole": "2026-05-09 12:49:25",
        "E10": "2026-05-09 12:49:25",
        "SP98": "2026-05-09 12:49:25"
      }
    },
    {
      "id": "16000009",
      "lat": 45.66,
      "lon": 0.165,
      "cp": "16000",
      "ville": "ANGOULEME",
      "prix": {
        "Gazole": 0.002143,
        "E85": 0.000909,
        "E10": 0.00199
      },
      "maj_gouv": {
        "Gazole": "2026-05-12 00:01:00",
        "E85": "2026-05-12 00:01:00",
        "E10": "2026-05-12 00:01:00"
      }
    },
    {
      "id": "16150004",
      "lat": 45.872,
      "lon": 0.682,
      "cp": "16150",
      "ville": "CHABANAIS",
      "prix": {},
      "maj_gouv": {}
    },
    {
      "id": "16250001",
      "lat": 45.47271338,
      "lon": 0.048103320000000005,
      "cp": "16250",
      "ville": "Blanzac-Porcheresse",
      "prix": {
        "Gazole": 0.002299,
        "E10": 0.002099,
        "SP98": 0.002229
      },
      "maj_gouv": {
        "Gazole": "2026-05-04 09:04:11",
        "E10": "2026-05-04 09:04:12",
        "SP98": "2026-05-04 09:04:12"
      }
    },
    {
      "id": "16700008",
      "lat": 46.034901,
      "lon": 0.180712,
      "cp": "16700",
      "ville": "RUFFEC",
      "prix": {
        "Gazole": 0.002029,
        "E85": 0.0007790000000000001,
        "E10": 0.001999,
        "SP98": 0.002109
      },
      "maj_gouv": {
        "Gazole": "2026-05-11 08:30:00",
        "E85": "2026-04-14 07:55:04",
        "E10": "2026-05-11 08:30:00",
        "SP98": "2026-05-07 08:30:00"
      }
    },
    {
      "id": "16230004",
      "lat": 45.873,
      "lon": 0.173,
      "cp": "16230",
      "ville": "MANSLE",
      "prix": {
        "Gazole": 0.002199,
        "E85": 0.000855,
        "E10": 0.002089,
        "SP98": 0.002169
      },
      "maj_gouv": {
        "Gazole": "2026-05-11 23:50:00",
        "E85": "2026-05-11 23:50:00",
        "E10": "2026-05-11 23:50:00",
        "SP98": "2026-05-11 23:50:00"
      }
    },
    {
      "id": "16200005",
      "lat": 45.681,
      "lon": -0.164,
      "cp": "16200",
      "ville": "Jarnac",
      "prix": {
        "Gazole": 0.002169,
        "E10": 0.002039,
        "SP98": 0.002101
      },
      "maj_gouv": {
        "Gazole": "2026-05-04 10:27:09",
        "E10": "2026-05-04 10:27:09",
        "SP98": "2026-05-04 10:27:09"
      }
    },
    {
      "id": "16300001",
      "lat": 45.46,
      "lon": -0.143,
      "cp": "16300",
      "ville": "BARBEZIEUX-SAINT-HILAIRE",
      "prix": {
        "Gazole": 0.002091,
        "GPLc": 0.00107
      },
      "maj_gouv": {
        "Gazole": "2026-05-11 07:59:55",
        "GPLc": "2026-04-10 13:24:59"
      }
    },
    {
      "id": "16130002",
      "lat": 45.61787,
      "lon": -0.21934,
      "cp": "16130",
      "ville": "SEGONZAC",
      "prix": {
        "Gazole": 0.0022429999999999998,
        "E10": 0.002097,
        "SP98": 0.002211
      },
      "maj_gouv": {
        "Gazole": "2026-05-06 09:24:40",
        "E10": "2026-05-06 09:24:41",
        "SP98": "2026-05-06 09:24:41"
      }
    },
    {
      "id": "16120001",
      "lat": 45.589,
      "lon": -0.048,
      "cp": "16120",
      "ville": "Châteauneuf-sur-Charente",
      "prix": {
        "Gazole": 0.00209,
        "E85": 0.000745,
        "E10": 0.0020150000000000003,
        "SP98": 0.002095
      },
      "maj_gouv": {
        "Gazole": "2026-05-09 09:13:18",
        "E85": "2026-05-09 09:13:18",
        "E10": "2026-05-09 09:13:18",
        "SP98": "2026-05-09 09:13:18"
      }
    },
    {
      "id": "16300004",
      "lat": 45.46704,
      "lon": -0.16519,
      "cp": "16300",
      "ville": "BARBEZIEUX-SAINT-HILAIRE",
      "prix": {
        "Gazole": 0.002159,
        "E85": 0.0008179999999999999,
        "E10": 0.001999,
        "SP98": 0.0021190000000000002
      },
      "maj_gouv": {
        "Gazole": "2026-05-08 04:53:16",
        "E85": "2026-04-16 09:19:08",
        "E10": "2026-05-05 12:24:03",
        "SP98": "2026-05-08 04:53:16"
      }
    },
    {
      "id": "16000004",
      "lat": 45.661,
      "lon": 0.14,
      "cp": "16000",
      "ville": "Angoulême",
      "prix": {
        "Gazole": 0.002047,
        "E85": 0.0008179999999999999,
        "E10": 0.001957,
        "SP98": 0.00206
      },
      "maj_gouv": {
        "Gazole": "2026-05-11 08:11:30",
        "E85": "2026-04-24 08:36:58",
        "E10": "2026-05-11 08:11:30",
        "SP98": "2026-05-11 08:11:30"
      }
    },
    {
      "id": "16200003",
      "lat": 45.686,
      "lon": -0.165,
      "cp": "16200",
      "ville": "JARNAC",
      "prix": {
        "Gazole": 0.002169,
        "E10": 0.002039,
        "SP98": 0.002101
      },
      "maj_gouv": {
        "Gazole": "2026-05-04 10:26:20",
        "E10": "2026-05-04 10:26:21",
        "SP98": "2026-05-04 10:26:21"
      }
    },
    {
      "id": "16260002",
      "lat": 45.827,
      "lon": 0.454,
      "cp": "16260",
      "ville": "CHASSENEUIL-SUR-BONNIEURE",
      "prix": {
        "Gazole": 0.002212,
        "E10": 0.0020369999999999997,
        "SP98": 0.002157
      },
      "maj_gouv": {
        "Gazole": "2026-05-11 09:03:17",
        "E10": "2026-05-11 11:46:33",
        "SP98": "2026-05-04 13:39:22"
      }
    },
    {
      "id": "16360002",
      "lat": 45.385,
      "lon": -0.23,
      "cp": "16360",
      "ville": "Baignes-Sainte-Radegonde",
      "prix": {
        "Gazole": 0.002218,
        "E10": 0.002093,
        "SP98": 0.002153
      },
      "maj_gouv": {
        "Gazole": "2026-05-05 12:40:31",
        "E10": "2026-05-05 12:40:31",
        "SP98": "2026-05-05 12:40:31"
      }
    },
    {
      "id": "16710001",
      "lat": 45.67332836305899,
      "lon": 0.12522459830092,
      "cp": "16710",
      "ville": "Saint-Yrieix-sur-Charente",
      "prix": {
        "Gazole": 0.002047,
        "E85": 0.000819,
        "E10": 0.0019590000000000002,
        "SP98": 0.002069
      },
      "maj_gouv": {
        "Gazole": "2026-05-11 15:04:02",
        "E85": "2026-05-11 15:04:02",
        "E10": "2026-05-11 15:04:02",
        "SP98": "2026-05-11 15:04:02"
      }
    },
    {
      "id": "16800001",
      "lat": 45.639,
      "lon": 0.219,
      "cp": "16800",
      "ville": "SOYAUX",
      "prix": {
        "Gazole": 0.002053,
        "SP95": 0.002056,
        "E85": 0.000758,
        "E10": 0.00199,
        "SP98": 0.00219
      },
      "maj_gouv": {
        "Gazole": "2026-05-12 00:39:00",
        "SP95": "2026-05-12 00:39:00",
        "E85": "2026-05-12 00:39:00",
        "E10": "2026-05-12 00:39:00",
        "SP98": "2026-05-12 00:39:00"
      }
    },
    {
      "id": "16300005",
      "lat": 45.466,
      "lon": -0.164,
      "cp": "16300",
      "ville": "Barbezieux-Saint-Hilaire",
      "prix": {
        "Gazole": 0.002121,
        "E85": 0.000744,
        "E10": 0.0020670000000000003,
        "SP98": 0.002137
      },
      "maj_gouv": {
        "Gazole": "2026-05-11 12:25:59",
        "E85": "2026-05-05 12:34:12",
        "E10": "2026-05-11 12:25:59",
        "SP98": "2026-05-11 12:25:59"
      }
    },
    {
      "id": "16380001",
      "lat": 45.610145,
      "lon": 0.45299199999999995,
      "cp": "16380",
      "ville": "MARTHON",
      "prix": {
        "Gazole": 0.00222,
        "SP95": 0.0022,
        "SP98": 0.00225
      },
      "maj_gouv": {
        "Gazole": "2026-05-06 16:48:18",
        "SP95": "2026-05-06 16:48:38",
        "SP98": "2026-05-06 16:48:59"
      }
    },
    {
      "id": "16170001",
      "lat": 45.777,
      "lon": -0.061,
      "cp": "16170",
      "ville": "ROUILLAC",
      "prix": {
        "Gazole": 0.0021349999999999997,
        "E85": 0.00078,
        "E10": 0.00207,
        "SP98": 0.0021360000000000003
      },
      "maj_gouv": {
        "Gazole": "2026-05-11 09:31:43",
        "E85": "2026-05-11 09:31:25",
        "E10": "2026-05-11 09:31:03",
        "SP98": "2026-05-11 09:30:42"
      }
    },
    {
      "id": "16360001",
      "lat": 45.426,
      "lon": -0.173,
      "cp": "16360",
      "ville": "Reignac",
      "prix": {
        "Gazole": 0.002091,
        "SP95": 0.001999
      },
      "maj_gouv": {
        "Gazole": "2026-05-11 04:52:32",
        "SP95": "2026-04-20 11:47:59"
      }
    },
    {
      "id": "16120004",
      "lat": 45.6,
      "lon": -0.055,
      "cp": "16120",
      "ville": "Châteauneuf-sur-Charente",
      "prix": {
        "Gazole": 0.0022389999999999997,
        "SP95": 0.002099,
        "E10": 0.002059,
        "SP98": 0.002189
      },
      "maj_gouv": {
        "Gazole": "2026-05-07 12:19:57",
        "SP95": "2026-05-07 12:19:57",
        "E10": "2026-05-07 12:19:57",
        "SP98": "2026-05-07 12:19:57"
      }
    },
    {
      "id": "16330001",
      "lat": 45.804,
      "lon": 0.14,
      "cp": "16330",
      "ville": "Saint-Amant-de-Boixe",
      "prix": {
        "Gazole": 0.0021880000000000003,
        "SP95": 0.002095,
        "E10": 0.002039
      },
      "maj_gouv": {
        "Gazole": "2026-05-06 12:00:00",
        "SP95": "2026-05-06 12:00:00",
        "E10": "2026-05-06 12:00:00"
      }
    },
    {
      "id": "16200001",
      "lat": 45.690960364153,
      "lon": -0.17360081481934,
      "cp": "16200",
      "ville": "JARNAC",
      "prix": {
        "Gazole": 0.0021680000000000002,
        "E10": 0.002038,
        "SP98": 0.0021000000000000003
      },
      "maj_gouv": {
        "Gazole": "2026-05-05 11:15:13",
        "E10": "2026-05-05 11:15:13",
        "SP98": "2026-05-05 11:15:13"
      }
    },
    {
      "id": "16270001",
      "lat": 45.882,
      "lon": 0.583,
      "cp": "16270",
      "ville": "ROUMAZIERES-LOUBERT",
      "prix": {
        "Gazole": 0.002179,
        "E10": 0.002039,
        "SP98": 0.002129
      },
      "maj_gouv": {
        "Gazole": "2026-05-04 11:05:06",
        "E10": "2026-05-06 09:48:47",
        "SP98": "2026-05-06 09:48:47"
      }
    },
    {
      "id": "16000005",
      "lat": 45.632,
      "lon": 0.152,
      "cp": "16000",
      "ville": "Angoulême",
      "prix": {
        "Gazole": 0.002065,
        "E10": 0.0019790000000000003,
        "SP98": 0.002099
      },
      "maj_gouv": {
        "Gazole": "2026-05-11 09:48:25",
        "E10": "2026-05-11 09:48:25",
        "SP98": "2026-05-11 09:48:26"
      }
    },
    {
      "id": "16730001",
      "lat": 45.6649544085,
      "lon": 0.0916380960888,
      "cp": "16730",
      "ville": "FLéAC",
      "prix": {
        "Gazole": 0.002411,
        "SP95": 0.0020859999999999997
      },
      "maj_gouv": {
        "Gazole": "2026-04-02 07:27:28",
        "SP95": "2026-04-02 07:27:28"
      }
    },
    {
      "id": "16190001",
      "lat": 45.40063,
      "lon": 0.1304,
      "cp": "16190",
      "ville": "Montmoreau-Saint-Cybard",
      "prix": {
        "Gazole": 0.00219,
        "E10": 0.00204,
        "SP98": 0.002115
      },
      "maj_gouv": {
        "Gazole": "2026-05-07 06:41:44",
        "E10": "2026-05-07 06:41:44",
        "SP98": "2026-05-07 06:41:44"
      }
    },
    {
      "id": "16600001",
      "lat": 45.68019,
      "lon": 0.21081,
      "cp": "16600",
      "ville": "RUELLE-SUR-TOUVRE",
      "prix": {
        "Gazole": 0.002069,
        "SP95": 0.002019,
        "SP98": 0.002069
      },
      "maj_gouv": {
        "Gazole": "2026-05-11 08:59:06",
        "SP95": "2026-05-11 08:59:06",
        "SP98": "2026-05-11 08:59:06"
      }
    },
    {
      "id": "16140002",
      "lat": 45.899920641752,
      "lon": 0.014846175679999999,
      "cp": "16140",
      "ville": "Villejésus",
      "prix": {
        "Gazole": 0.00219,
        "SP95": 0.002075,
        "SP98": 0.002159
      },
      "maj_gouv": {
        "Gazole": "2026-05-11 12:09:52",
        "SP95": "2026-05-11 12:09:52",
        "SP98": "2026-05-11 12:09:52"
      }
    },
    {
      "id": "16100006",
      "lat": 45.699,
      "lon": -0.344,
      "cp": "16100",
      "ville": "Cognac",
      "prix": {
        "Gazole": 0.002059,
        "E85": 0.000819,
        "E10": 0.001958,
        "SP98": 0.002079
      },
      "maj_gouv": {
        "Gazole": "2026-05-11 10:09:20",
        "E85": "2026-04-16 09:06:22",
        "E10": "2026-05-11 10:09:20",
        "SP98": "2026-05-11 10:09:21"
      }
    },
    {
      "id": "16700004",
      "lat": 46.031,
      "lon": 0.204,
      "cp": "16700",
      "ville": "RUFFEC",
      "prix": {
        "Gazole": 0.002139,
        "SP95": 0.002099,
        "E10": 0.001999,
        "SP98": 0.002109
      },
      "maj_gouv": {
        "Gazole": "2026-05-07 08:38:17",
        "SP95": "2026-05-05 08:54:08",
        "E10": "2026-05-05 08:54:08",
        "SP98": "2026-05-05 08:54:08"
      }
    },
    {
      "id": "16230002",
      "lat": 45.874,
      "lon": 0.181,
      "cp": "16230",
      "ville": "Mansle",
      "prix": {
        "Gazole": 0.002179,
        "E10": 0.002079,
        "SP98": 0.002163
      },
      "maj_gouv": {
        "Gazole": "2026-05-07 16:46:58",
        "E10": "2026-05-07 16:46:58",
        "SP98": "2026-05-07 16:46:58"
      }
    },
    {
      "id": "16320005",
      "lat": 45.489,
      "lon": 0.363,
      "cp": "16320",
      "ville": "EDON",
      "prix": {
        "Gazole": 0.002179,
        "E10": 0.0021360000000000003,
        "SP98": 0.002225
      },
      "maj_gouv": {
        "Gazole": "2026-05-06 23:52:00",
        "E10": "2026-05-06 23:52:00",
        "SP98": "2026-05-06 23:52:00"
      }
    },
    {
      "id": "16500005",
      "lat": 46.0,
      "lon": 0.673,
      "cp": "16500",
      "ville": "Confolens",
      "prix": {
        "Gazole": 0.002099,
        "E85": 0.0008179999999999999,
        "E10": 0.001949,
        "SP98": 0.001999
      },
      "maj_gouv": {
        "Gazole": "2026-05-11 08:00:00",
        "E85": "2026-04-17 09:04:41",
        "E10": "2026-05-11 08:00:00",
        "SP98": "2026-05-11 08:00:00"
      }
    },
    {
      "id": "16110005",
      "lat": 45.736,
      "lon": 0.386,
      "cp": "16110",
      "ville": "LA ROCHEFOUCAULD",
      "prix": {
        "Gazole": 0.002299
      },
      "maj_gouv": {
        "Gazole": "2026-05-12 04:00:00"
      }
    },
    {
      "id": "16350001",
      "lat": 45.989,
      "lon": 0.407,
      "cp": "16350",
      "ville": "CHAMPAGNE-MOUTON",
      "prix": {
        "Gazole": 0.00219,
        "SP95": 0.00206,
        "E10": 0.0020099999999999996
      },
      "maj_gouv": {
        "Gazole": "2026-04-28 08:10:34",
        "SP95": "2026-04-28 08:10:34",
        "E10": "2026-04-28 08:10:34"
      }
    },
    {
      "id": "16100005",
      "lat": 45.688,
      "lon": -0.313,
      "cp": "16100",
      "ville": "COGNAC",
      "prix": {
        "Gazole": 0.00221,
        "SP95": 0.002059,
        "SP98": 0.00213
      },
      "maj_gouv": {
        "Gazole": "2026-05-11 10:59:37",
        "SP95": "2026-05-11 10:59:37",
        "SP98": "2026-05-11 10:59:37"
      }
    },
    {
      "id": "16160001",
      "lat": 45.682671292636996,
      "lon": 0.17728895022000002,
      "cp": "16160",
      "ville": "GOND-PONTOUVRE",
      "prix": {
        "Gazole": 0.0022029999999999997,
        "E85": 0.000829,
        "GPLc": 0.001095,
        "E10": 0.002076,
        "SP98": 0.0021880000000000003
      },
      "maj_gouv": {
        "Gazole": "2026-05-11 07:18:19",
        "E85": "2026-05-11 07:18:20",
        "GPLc": "2026-05-11 07:18:20",
        "E10": "2026-05-11 07:18:20",
        "SP98": "2026-05-11 07:18:20"
      }
    },
    {
      "id": "16100001",
      "lat": 45.684,
      "lon": -0.305,
      "cp": "16100",
      "ville": "Châteaubernard",
      "prix": {
        "Gazole": 0.002081,
        "E10": 0.0019590000000000002,
        "SP98": 0.002079
      },
      "maj_gouv": {
        "Gazole": "2026-05-11 09:13:07",
        "E10": "2026-05-11 09:13:07",
        "SP98": "2026-05-11 09:13:07"
      }
    },
    {
      "id": "16100007",
      "lat": 45.692,
      "lon": -0.309,
      "cp": "16100",
      "ville": "COGNAC",
      "prix": {
        "Gazole": 0.002165,
        "E10": 0.001994,
        "SP98": 0.002079
      },
      "maj_gouv": {
        "Gazole": "2026-05-11 18:53:45",
        "E10": "2026-05-11 18:53:46",
        "SP98": "2026-05-11 18:53:46"
      }
    },
    {
      "id": "16270003",
      "lat": 45.884,
      "lon": 0.575,
      "cp": "16270",
      "ville": "Roumazières-Loubert",
      "prix": {
        "Gazole": 0.002149,
        "E85": 0.0008179999999999999,
        "E10": 0.001999,
        "SP98": 0.002099
      },
      "maj_gouv": {
        "Gazole": "2026-05-11 08:55:05",
        "E85": "2026-04-20 13:03:57",
        "E10": "2026-05-11 08:55:05",
        "SP98": "2026-05-11 08:55:06"
      }
    },
    {
      "id": "16430004",
      "lat": 45.683,
      "lon": 0.179,
      "cp": "16430",
      "ville": "Champniers",
      "prix": {
        "Gazole": 0.002069,
        "SP95": 0.002019,
        "E10": 0.00199
      },
      "maj_gouv": {
        "Gazole": "2026-05-11 10:32:29",
        "SP95": "2026-05-11 10:32:29",
        "E10": "2026-05-11 10:32:30"
      }
    },
    {
      "id": "16700003",
      "lat": 46.02138,
      "lon": 0.18967,
      "cp": "16700",
      "ville": "Ruffec",
      "prix": {
        "Gazole": 0.002029,
        "SP95": 0.0020299999999999997,
        "E85": 0.0007790000000000001,
        "GPLc": 0.001039,
        "SP98": 0.002109
      },
      "maj_gouv": {
        "Gazole": "2026-05-11 08:30:00",
        "SP95": "2026-05-11 08:30:00",
        "E85": "2026-04-14 08:30:00",
        "GPLc": "2026-04-10 08:30:00",
        "SP98": "2026-05-07 08:05:49"
      }
    },
    {
      "id": "16400002",
      "lat": 45.607,
      "lon": 0.09,
      "cp": "16400",
      "ville": "LA COURONNE",
      "prix": {
        "Gazole": 0.002179,
        "E10": 0.002088,
        "SP98": 0.002139
      },
      "maj_gouv": {
        "Gazole": "2026-05-07 10:02:21",
        "E10": "2026-05-07 10:02:21",
        "SP98": "2026-05-07 10:02:21"
      }
    },
    {
      "id": "16021001",
      "lat": 45.658,
      "lon": 0.181,
      "cp": "16000",
      "ville": "Angoulême",
      "prix": {
        "Gazole": 0.001999,
        "E85": 0.000749,
        "E10": 0.0019890000000000003,
        "SP98": 0.002079
      },
      "maj_gouv": {
        "Gazole": "2026-05-11 07:00:00",
        "E85": "2026-05-11 07:00:00",
        "E10": "2026-05-11 07:00:00",
        "SP98": "2026-05-11 07:00:00"
      }
    },
    {
      "id": "16500002",
      "lat": 46.021,
      "lon": 0.656,
      "cp": "16500",
      "ville": "CONFOLENS",
      "prix": {
        "Gazole": 0.002099,
        "E85": 0.0008179999999999999,
        "E10": 0.001949,
        "SP98": 0.001999
      },
      "maj_gouv": {
        "Gazole": "2026-05-11 08:00:00",
        "E85": "2026-04-17 09:03:04",
        "E10": "2026-05-11 08:00:00",
        "SP98": "2026-05-11 08:00:00"
      }
    },
    {
      "id": "16110006",
      "lat": 45.753798297159,
      "lon": 0.38544261777988004,
      "cp": "16110",
      "ville": "Rivières",
      "prix": {
        "Gazole": 0.002016
      },
      "maj_gouv": {
        "Gazole": "2026-05-12 03:00:00"
      }
    },
    {
      "id": "16480001",
      "lat": 45.336827,
      "lon": -0.04328,
      "cp": "16480",
      "ville": "BROSSAC",
      "prix": {
        "Gazole": 0.002384,
        "SP95": 0.002211
      },
      "maj_gouv": {
        "Gazole": "2026-04-22 11:53:30",
        "SP95": "2026-04-22 11:53:30"
      }
    },
    {
      "id": "16260001",
      "lat": 45.815,
      "lon": 0.443,
      "cp": "16260",
      "ville": "Chasseneuil-sur-Bonnieure",
      "prix": {
        "E85": 0.000869,
        "E10": 0.00199,
        "SP98": 0.00199
      },
      "maj_gouv": {
        "E85": "2026-05-11 07:55:06",
        "E10": "2026-05-11 07:55:06",
        "SP98": "2026-05-11 07:55:06"
      }
    },
    {
      "id": "16210001",
      "lat": 45.273,
      "lon": 0.042,
      "cp": "16210",
      "ville": "Chalais",
      "prix": {
        "Gazole": 0.002162,
        "E85": 0.000819,
        "E10": 0.0019890000000000003,
        "SP98": 0.0021000000000000003
      },
      "maj_gouv": {
        "Gazole": "2026-04-30 09:00:00",
        "E85": "2026-04-28 10:30:58",
        "E10": "2026-04-30 09:00:00",
        "SP98": "2026-04-30 09:00:00"
      }
    },
    {
      "id": "16230005",
      "lat": 45.887867,
      "lon": 0.10565100000000001,
      "cp": "16230",
      "ville": "Luxe",
      "prix": {
        "Gazole": 0.00225,
        "SP95": 0.00199
      },
      "maj_gouv": {
        "Gazole": "2026-05-10 17:43:54",
        "SP95": "2026-05-10 17:43:54"
      }
    },
    {
      "id": "16400001",
      "lat": 45.62,
      "lon": 0.106,
      "cp": "16400",
      "ville": "LA COURONNE",
      "prix": {
        "Gazole": 0.002179,
        "GPLc": 0.001065,
        "E10": 0.002019,
        "SP98": 0.002139
      },
      "maj_gouv": {
        "Gazole": "2026-05-07 08:43:42",
        "GPLc": "2026-05-04 08:46:45",
        "E10": "2026-05-04 08:46:45",
        "SP98": "2026-05-04 08:46:45"
      }
    },
    {
      "id": "16700009",
      "lat": 46.001402,
      "lon": 0.200607,
      "cp": "16700",
      "ville": "BARRO",
      "prix": {
        "Gazole": 0.002281,
        "E10": 0.002128,
        "SP98": 0.002195
      },
      "maj_gouv": {
        "Gazole": "2026-05-05 09:30:00",
        "E10": "2026-05-05 09:30:00",
        "SP98": "2026-05-05 09:30:00"
      }
    },
    {
      "id": "16110001",
      "lat": 45.742,
      "lon": 0.387,
      "cp": "16110",
      "ville": "LA ROCHEFOUCAULD",
      "prix": {
        "Gazole": 0.001999,
        "E85": 0.000758,
        "E10": 0.001987,
        "SP98": 0.002054
      },
      "maj_gouv": {
        "Gazole": "2026-05-11 03:00:00",
        "E85": "2026-04-15 03:00:00",
        "E10": "2026-05-12 03:00:00",
        "SP98": "2026-05-11 03:00:00"
      }
    }
  ]
}