{
  "departement": "60",
  "date": "2026-06-02",
  "stations": [
    {
      "id": "60350003",
      "lat": 49.404,
      "lon": 3.008,
      "cp": "60350",
      "ville": "Cuise-la-Motte",
      "prix": {},
      "maj_gouv": {}
    },
    {
      "id": "60120004",
      "lat": 49.635,
      "lon": 2.286,
      "cp": "60120",
      "ville": "Breteuil",
      "prix": {
        "Gazole": 0.0020350000000000004,
        "E10": 0.001975,
        "SP98": 0.00199
      },
      "maj_gouv": {
        "Gazole": "2026-06-01 07:21:14",
        "E10": "2026-06-01 07:21:15",
        "SP98": "2026-03-27 07:52:10"
      }
    },
    {
      "id": "60140003",
      "lat": 49.32593,
      "lon": 2.46409,
      "cp": "60140",
      "ville": "Liancourt",
      "prix": {
        "Gazole": 0.00215,
        "E10": 0.00215,
        "SP98": 0.00219
      },
      "maj_gouv": {
        "Gazole": "2026-05-21 06:05:41",
        "E10": "2026-05-21 06:05:41",
        "SP98": "2026-05-21 06:05:41"
      }
    },
    {
      "id": "60650006",
      "lat": 49.417,
      "lon": 1.924,
      "cp": "60650",
      "ville": "ONS EN BRAY",
      "prix": {
        "Gazole": 0.002079,
        "SP95": 0.002028,
        "SP98": 0.002101
      },
      "maj_gouv": {
        "Gazole": "2026-05-29 15:16:10",
        "SP95": "2026-05-29 15:20:39",
        "SP98": "2026-05-29 15:20:40"
      }
    },
    {
      "id": "60560001",
      "lat": 49.131,
      "lon": 2.521,
      "cp": "60560",
      "ville": "ORRY-LA-VILLE",
      "prix": {
        "Gazole": 0.0021190000000000002,
        "E10": 0.001999,
        "SP98": 0.002179
      },
      "maj_gouv": {
        "Gazole": "2026-05-30 09:00:00",
        "E10": "2026-05-30 11:30:00",
        "SP98": "2026-05-20 10:02:27"
      }
    },
    {
      "id": "60210002",
      "lat": 49.66,
      "lon": 1.941,
      "cp": "60210",
      "ville": "GRANDVILLIERS",
      "prix": {
        "Gazole": 0.002088,
        "SP95": 0.002058,
        "SP98": 0.002156
      },
      "maj_gouv": {
        "Gazole": "2026-05-29 10:37:20",
        "SP95": "2026-05-15 10:46:30",
        "SP98": "2026-05-15 10:46:31"
      }
    },
    {
      "id": "60510001",
      "lat": 49.419,
      "lon": 2.255,
      "cp": "60510",
      "ville": "Bresles",
      "prix": {
        "Gazole": 0.001975,
        "SP95": 0.0019950000000000002,
        "E85": 0.000819,
        "SP98": 0.002059
      },
      "maj_gouv": {
        "Gazole": "2026-06-01 08:39:30",
        "SP95": "2026-06-01 08:39:30",
        "E85": "2026-06-01 08:39:30",
        "SP98": "2026-06-01 08:39:30"
      }
    },
    {
      "id": "60370002",
      "lat": 49.352,
      "lon": 2.239,
      "cp": "60370",
      "ville": "HERMES",
      "prix": {
        "Gazole": 0.0019790000000000003,
        "SP95": 0.0020350000000000004,
        "E10": 0.001929,
        "SP98": 0.002105
      },
      "maj_gouv": {
        "Gazole": "2026-06-01 23:59:00",
        "SP95": "2026-06-01 23:59:00",
        "E10": "2026-06-01 23:59:00",
        "SP98": "2026-06-01 23:59:00"
      }
    },
    {
      "id": "60700004",
      "lat": 49.306,
      "lon": 2.604,
      "cp": "60700",
      "ville": "Pont-Sainte-Maxence",
      "prix": {
        "Gazole": 0.001976,
        "E85": 0.000884
      },
      "maj_gouv": {
        "Gazole": "2026-06-02 00:01:00",
        "E85": "2026-06-02 00:01:00"
      }
    },
    {
      "id": "60250003",
      "lat": 49.321,
      "lon": 2.33,
      "cp": "60250",
      "ville": "ANGY",
      "prix": {
        "E85": 0.000798,
        "E10": 0.0020299999999999997,
        "SP98": 0.002146
      },
      "maj_gouv": {
        "E85": "2026-05-27 14:22:01",
        "E10": "2026-05-29 09:13:40",
        "SP98": "2026-05-30 14:14:05"
      }
    },
    {
      "id": "60220002",
      "lat": 49.65,
      "lon": 1.722,
      "cp": "60220",
      "ville": "FORMERIE",
      "prix": {
        "Gazole": 0.001999,
        "E10": 0.002039,
        "SP98": 0.002199
      },
      "maj_gouv": {
        "Gazole": "2026-05-29 14:37:00",
        "E10": "2026-06-01 14:49:37",
        "SP98": "2026-05-20 10:52:59"
      }
    },
    {
      "id": "60000015",
      "lat": 49.433,
      "lon": 2.093,
      "cp": "60000",
      "ville": "Beauvais",
      "prix": {
        "Gazole": 0.002129,
        "E85": 0.000949,
        "GPLc": 0.001189,
        "E10": 0.002059,
        "SP98": 0.002229
      },
      "maj_gouv": {
        "Gazole": "2026-06-01 22:05:04",
        "E85": "2026-06-01 22:05:03",
        "GPLc": "2026-06-01 22:05:03",
        "E10": "2026-06-01 22:05:04",
        "SP98": "2026-06-01 22:05:03"
      }
    },
    {
      "id": "60590002",
      "lat": 49.356,
      "lon": 1.77,
      "cp": "60590",
      "ville": "Sérifontaine",
      "prix": {
        "Gazole": 0.002089,
        "SP95": 0.002089,
        "SP98": 0.002109
      },
      "maj_gouv": {
        "Gazole": "2026-05-30 10:41:45",
        "SP95": "2026-05-30 10:41:45",
        "SP98": "2026-05-30 10:41:45"
      }
    },
    {
      "id": "60310001",
      "lat": 49.59,
      "lon": 2.854,
      "cp": "60310",
      "ville": "Lassigny",
      "prix": {
        "Gazole": 0.0019950000000000002,
        "SP95": 0.002009,
        "E10": 0.0019790000000000003,
        "SP98": 0.002049
      },
      "maj_gouv": {
        "Gazole": "2026-06-01 14:08:44",
        "SP95": "2026-06-01 14:08:45",
        "E10": "2026-06-01 14:08:45",
        "SP98": "2026-06-01 14:08:45"
      }
    },
    {
      "id": "60260002",
      "lat": 49.15012446903,
      "lon": 2.4247054883606998,
      "cp": "60260",
      "ville": "Lamorlaye",
      "prix": {
        "Gazole": 0.001999,
        "E85": 0.000798,
        "E10": 0.001999,
        "SP98": 0.002099
      },
      "maj_gouv": {
        "Gazole": "2026-05-29 12:06:37",
        "E85": "2026-05-15 08:57:15",
        "E10": "2026-05-29 12:06:37",
        "SP98": "2026-05-29 12:06:37"
      }
    },
    {
      "id": "60730004",
      "lat": 49.294719957049,
      "lon": 2.1986864028575,
      "cp": "60730",
      "ville": "Sainte-Geneviève",
      "prix": {
        "Gazole": 0.0020350000000000004,
        "E85": 0.000865
      },
      "maj_gouv": {
        "Gazole": "2026-05-31 21:13:50",
        "E85": "2026-05-31 21:13:50"
      }
    },
    {
      "id": "60200002",
      "lat": 49.41897,
      "lon": 2.81861,
      "cp": "60200",
      "ville": "Compiègne",
      "prix": {
        "Gazole": 0.002047,
        "SP95": 0.0020499999999999997
      },
      "maj_gouv": {
        "Gazole": "2026-05-29 12:16:00",
        "SP95": "2026-05-29 12:16:01"
      }
    },
    {
      "id": "60800003",
      "lat": 49.22572305536,
      "lon": 2.8803566326031,
      "cp": "60800",
      "ville": "Crépy-en-Valois",
      "prix": {},
      "maj_gouv": {}
    },
    {
      "id": "60400001",
      "lat": 49.57117,
      "lon": 2.97854,
      "cp": "60400",
      "ville": "NOYON",
      "prix": {
        "Gazole": 0.002202,
        "GPLc": 0.0010500000000000002
      },
      "maj_gouv": {
        "Gazole": "2026-05-30 08:50:31",
        "GPLc": "2026-05-30 08:50:31"
      }
    },
    {
      "id": "60290003",
      "lat": 49.322,
      "lon": 2.437,
      "cp": "60290",
      "ville": "CAUFFRY",
      "prix": {
        "Gazole": 0.001998,
        "GPLc": 0.0010329999999999998,
        "E10": 0.001942,
        "SP98": 0.002033
      },
      "maj_gouv": {
        "Gazole": "2026-06-01 07:48:49",
        "GPLc": "2026-04-08 06:39:17",
        "E10": "2026-06-01 07:46:25",
        "SP98": "2026-06-01 07:50:29"
      }
    },
    {
      "id": "60120006",
      "lat": 49.60849,
      "lon": 2.20488,
      "cp": "60120",
      "ville": "HARDIVILLERS",
      "prix": {
        "Gazole": 0.002124,
        "E85": 0.000998,
        "E10": 0.00199,
        "SP98": 0.00199
      },
      "maj_gouv": {
        "Gazole": "2026-06-02 00:01:00",
        "E85": "2026-06-02 00:01:00",
        "E10": "2026-06-02 00:01:00",
        "SP98": "2026-06-02 00:01:00"
      }
    },
    {
      "id": "60360001",
      "lat": 49.604,
      "lon": 2.085,
      "cp": "60360",
      "ville": "CRèVECOEUR-LE-GRAND",
      "prix": {
        "Gazole": 0.002088,
        "SP95": 0.002078,
        "E10": 0.002024,
        "SP98": 0.002156
      },
      "maj_gouv": {
        "Gazole": "2026-05-29 11:30:00",
        "SP95": "2026-05-22 16:16:38",
        "E10": "2026-05-22 16:16:38",
        "SP98": "2026-05-22 16:16:38"
      }
    },
    {
      "id": "60380001",
      "lat": 49.548,
      "lon": 1.846,
      "cp": "60380",
      "ville": "SONGEONS",
      "prix": {
        "Gazole": 0.0021669999999999997,
        "SP95": 0.002162,
        "SP98": 0.0022480000000000004
      },
      "maj_gouv": {
        "Gazole": "2026-05-21 15:42:34",
        "SP95": "2026-05-21 15:42:35",
        "SP98": "2026-05-21 15:42:35"
      }
    },
    {
      "id": "60590003",
      "lat": 49.357355,
      "lon": 1.771191,
      "cp": "60590",
      "ville": "SERIFONTAINE",
      "prix": {
        "Gazole": 0.00225,
        "SP95": 0.00199,
        "SP98": 0.00199
      },
      "maj_gouv": {
        "Gazole": "2026-05-20 09:23:52",
        "SP95": "2026-05-20 09:23:52",
        "SP98": "2026-05-20 09:23:52"
      }
    },
    {
      "id": "60750003",
      "lat": 49.442233200000004,
      "lon": 2.8829544,
      "cp": "60750",
      "ville": "Choisy-au-Bac",
      "prix": {
        "Gazole": 0.002079,
        "E10": 0.002039,
        "SP98": 0.002159
      },
      "maj_gouv": {
        "Gazole": "2026-05-27 08:40:54",
        "E10": "2026-05-27 08:40:54",
        "SP98": "2026-05-27 08:40:54"
      }
    },
    {
      "id": "60100007",
      "lat": 49.272,
      "lon": 2.486,
      "cp": "60100",
      "ville": "CREIL",
      "prix": {
        "Gazole": 0.002083,
        "GPLc": 0.001029,
        "E10": 0.00199
      },
      "maj_gouv": {
        "Gazole": "2026-06-02 00:01:00",
        "GPLc": "2026-06-02 00:01:00",
        "E10": "2026-06-02 00:01:00"
      }
    },
    {
      "id": "60500010",
      "lat": 49.191,
      "lon": 2.464,
      "cp": "60500",
      "ville": "Chantilly",
      "prix": {
        "Gazole": 0.002009,
        "E85": 0.000909,
        "E10": 0.002029,
        "SP98": 0.002199
      },
      "maj_gouv": {
        "Gazole": "2026-06-01 10:58:03",
        "E85": "2026-06-01 10:58:03",
        "E10": "2026-06-01 10:58:03",
        "SP98": "2026-06-01 10:58:03"
      }
    },
    {
      "id": "60650004",
      "lat": 49.422,
      "lon": 1.978,
      "cp": "60650",
      "ville": "Saint-Paul",
      "prix": {
        "Gazole": 0.002139,
        "E85": 0.0008179999999999999,
        "E10": 0.001944,
        "SP98": 0.002048
      },
      "maj_gouv": {
        "Gazole": "2026-04-30 07:06:20",
        "E85": "2026-04-30 07:06:20",
        "E10": "2026-04-30 07:06:20",
        "SP98": "2026-04-30 07:06:21"
      }
    },
    {
      "id": "60290002",
      "lat": 49.323,
      "lon": 2.448,
      "cp": "60290",
      "ville": "CAUFFRY",
      "prix": {
        "Gazole": 0.002022,
        "SP95": 0.001992,
        "E85": 0.000736,
        "E10": 0.0020139999999999997
      },
      "maj_gouv": {
        "Gazole": "2026-06-02 01:15:00",
        "SP95": "2026-06-02 01:15:00",
        "E85": "2026-06-02 01:15:00",
        "E10": "2026-06-02 01:15:00"
      }
    },
    {
      "id": "60530003",
      "lat": 49.229,
      "lon": 2.282,
      "cp": "60530",
      "ville": "Neuilly-en-Thelle",
      "prix": {
        "Gazole": 0.002065,
        "SP95": 0.00207,
        "E10": 0.00202,
        "SP98": 0.002153
      },
      "maj_gouv": {
        "Gazole": "2026-05-27 10:48:09",
        "SP95": "2026-05-27 10:48:09",
        "E10": "2026-05-27 10:48:09",
        "SP98": "2026-05-27 10:48:09"
      }
    },
    {
      "id": "60440001",
      "lat": 49.136,
      "lon": 2.801,
      "cp": "60440",
      "ville": "NANTEUIL-LE-HAUDOUIN",
      "prix": {
        "Gazole": 0.0019890000000000003,
        "SP95": 0.002039,
        "E85": 0.000799,
        "E10": 0.0019690000000000003,
        "SP98": 0.002069
      },
      "maj_gouv": {
        "Gazole": "2026-06-01 11:04:15",
        "SP95": "2026-06-01 11:04:15",
        "E85": "2026-06-01 11:04:15",
        "E10": "2026-06-01 11:04:15",
        "SP98": "2026-06-01 11:04:15"
      }
    },
    {
      "id": "60420001",
      "lat": 49.553,
      "lon": 2.533,
      "cp": "60420",
      "ville": "Maignelay-Montigny",
      "prix": {
        "Gazole": 0.0021070000000000004,
        "SP95": 0.00212,
        "SP98": 0.002198
      },
      "maj_gouv": {
        "Gazole": "2026-05-23 11:09:55",
        "SP95": "2026-05-23 11:09:55",
        "SP98": "2026-05-23 11:09:56"
      }
    },
    {
      "id": "60000010",
      "lat": 49.443,
      "lon": 2.093,
      "cp": "60000",
      "ville": "Beauvais",
      "prix": {
        "Gazole": 0.0019590000000000002,
        "SP95": 0.0019690000000000003,
        "E85": 0.000798,
        "GPLc": 0.000988,
        "SP98": 0.002019
      },
      "maj_gouv": {
        "Gazole": "2026-06-01 16:00:25",
        "SP95": "2026-06-01 16:00:25",
        "E85": "2026-05-21 11:54:04",
        "GPLc": "2026-04-08 12:15:47",
        "SP98": "2026-06-01 16:00:25"
      }
    },
    {
      "id": "60800009",
      "lat": 49.234307444206,
      "lon": 2.8866396033653,
      "cp": "60800",
      "ville": "Crépy-en-Valois",
      "prix": {
        "Gazole": 0.002159,
        "E10": 0.002089,
        "SP98": 0.002199
      },
      "maj_gouv": {
        "Gazole": "2026-05-26 12:14:42",
        "E10": "2026-05-26 12:14:42",
        "SP98": "2026-05-26 12:14:42"
      }
    },
    {
      "id": "60400003",
      "lat": 49.575,
      "lon": 2.999,
      "cp": "60400",
      "ville": "Noyon",
      "prix": {},
      "maj_gouv": {}
    },
    {
      "id": "60490008",
      "lat": 49.539,
      "lon": 2.702,
      "cp": "60490",
      "ville": "CUVILLY",
      "prix": {},
      "maj_gouv": {}
    },
    {
      "id": "60320001",
      "lat": 49.298113505068,
      "lon": 2.7994520494136,
      "cp": "60320",
      "ville": "BéTHISY-SAINT-PIERRE",
      "prix": {
        "Gazole": 0.001999,
        "SP95": 0.002079,
        "E85": 0.000869,
        "E10": 0.001999,
        "SP98": 0.002139
      },
      "maj_gouv": {
        "Gazole": "2026-05-28 14:39:55",
        "SP95": "2026-05-28 14:39:55",
        "E85": "2026-05-20 10:47:58",
        "E10": "2026-05-28 14:39:55",
        "SP98": "2026-05-28 14:39:55"
      }
    },
    {
      "id": "60800005",
      "lat": 49.224659428094,
      "lon": 2.9054913758613,
      "cp": "60800",
      "ville": "Crépy-en-Valois",
      "prix": {
        "Gazole": 0.0019890000000000003,
        "SP95": 0.002039,
        "E85": 0.000798,
        "E10": 0.0019690000000000003,
        "SP98": 0.002069
      },
      "maj_gouv": {
        "Gazole": "2026-06-01 16:05:11",
        "SP95": "2026-06-01 16:05:11",
        "E85": "2026-05-28 08:10:27",
        "E10": "2026-06-01 16:05:11",
        "SP98": "2026-06-01 16:05:11"
      }
    },
    {
      "id": "60490001",
      "lat": 49.551,
      "lon": 2.752,
      "cp": "60490",
      "ville": "LA NEUVILLE-SUR-RESSONS",
      "prix": {
        "Gazole": 0.002089,
        "E10": 0.00199,
        "SP98": 0.00213
      },
      "maj_gouv": {
        "Gazole": "2026-05-30 13:59:47",
        "E10": "2026-05-30 13:59:47",
        "SP98": "2026-05-30 13:59:47"
      }
    },
    {
      "id": "60220006",
      "lat": 49.652,
      "lon": 1.728,
      "cp": "60220",
      "ville": "Formerie",
      "prix": {
        "Gazole": 0.002016,
        "SP95": 0.00199,
        "E85": 0.0009310000000000001
      },
      "maj_gouv": {
        "Gazole": "2026-06-01 14:33:54",
        "SP95": "2026-05-21 16:25:07",
        "E85": "2026-06-01 14:33:54"
      }
    },
    {
      "id": "60100004",
      "lat": 49.251,
      "lon": 2.476,
      "cp": "60100",
      "ville": "CREIL",
      "prix": {
        "Gazole": 0.002179,
        "GPLc": 0.0011690000000000001,
        "E10": 0.0021190000000000002,
        "SP98": 0.002249
      },
      "maj_gouv": {
        "Gazole": "2026-05-28 23:59:00",
        "GPLc": "2026-05-22 23:59:00",
        "E10": "2026-05-28 23:59:00",
        "SP98": "2026-05-28 23:59:00"
      }
    },
    {
      "id": "60400005",
      "lat": 49.575,
      "lon": 2.99,
      "cp": "60400",
      "ville": "NOYON",
      "prix": {
        "E85": 0.000839
      },
      "maj_gouv": {
        "E85": "2026-06-02 00:01:00"
      }
    },
    {
      "id": "60110002",
      "lat": 49.223,
      "lon": 2.137,
      "cp": "60110",
      "ville": "Méru",
      "prix": {
        "Gazole": 0.0019890000000000003,
        "E10": 0.00196,
        "SP98": 0.002099
      },
      "maj_gouv": {
        "Gazole": "2026-05-29 08:57:43",
        "E10": "2026-06-01 08:07:26",
        "SP98": "2026-06-01 08:07:26"
      }
    },
    {
      "id": "60500011",
      "lat": 49.2047622946,
      "lon": 2.4618766547599997,
      "cp": "60500",
      "ville": "Chantilly",
      "prix": {},
      "maj_gouv": {}
    },
    {
      "id": "60360002",
      "lat": 49.604,
      "lon": 2.085,
      "cp": "60360",
      "ville": "Crèvecœur-le-Grand",
      "prix": {
        "Gazole": 0.001981,
        "SP95": 0.002022,
        "E10": 0.002012
      },
      "maj_gouv": {
        "Gazole": "2026-06-02 01:15:00",
        "SP95": "2026-06-02 01:15:00",
        "E10": "2026-06-02 01:15:00"
      }
    },
    {
      "id": "60110006",
      "lat": 49.214,
      "lon": 2.125,
      "cp": "60110",
      "ville": "Amblainville",
      "prix": {
        "Gazole": 0.001971,
        "E85": 0.000885,
        "E10": 0.001943
      },
      "maj_gouv": {
        "Gazole": "2026-06-01 10:20:38",
        "E85": "2026-06-01 10:20:38",
        "E10": "2026-06-01 10:20:38"
      }
    },
    {
      "id": "60150003",
      "lat": 49.479,
      "lon": 2.868,
      "cp": "60150",
      "ville": "THOUROTTE",
      "prix": {
        "Gazole": 0.002065,
        "E85": 0.000789,
        "GPLc": 0.0010149999999999998,
        "E10": 0.002059,
        "SP98": 0.002115
      },
      "maj_gouv": {
        "Gazole": "2026-06-01 09:31:46",
        "E85": "2026-06-01 09:31:47",
        "GPLc": "2026-06-01 09:31:47",
        "E10": "2026-06-01 09:31:47",
        "SP98": "2026-06-01 09:31:47"
      }
    },
    {
      "id": "60300008",
      "lat": 49.208,
      "lon": 2.59,
      "cp": "60300",
      "ville": "SENLIS",
      "prix": {
        "Gazole": 0.002049,
        "E85": 0.000949,
        "SP98": 0.002159
      },
      "maj_gouv": {
        "Gazole": "2026-06-01 22:04:03",
        "E85": "2026-06-01 22:04:03",
        "SP98": "2026-06-01 22:04:03"
      }
    },
    {
      "id": "60200008",
      "lat": 49.395,
      "lon": 2.793,
      "cp": "60200",
      "ville": "Compiègne",
      "prix": {
        "Gazole": 0.00197,
        "E85": 0.000798,
        "E10": 0.001929,
        "SP98": 0.002099
      },
      "maj_gouv": {
        "Gazole": "2026-06-01 12:16:31",
        "E85": "2026-06-01 12:16:31",
        "E10": "2026-06-01 12:16:31",
        "SP98": "2026-06-01 12:16:31"
      }
    },
    {
      "id": "60230002",
      "lat": 49.156217844245,
      "lon": 2.2546061423989,
      "cp": "60230",
      "ville": "CHAMBLY",
      "prix": {
        "Gazole": 0.0019890000000000003,
        "E85": 0.000759,
        "E10": 0.00196,
        "SP98": 0.002099
      },
      "maj_gouv": {
        "Gazole": "2026-05-29 07:30:00",
        "E85": "2026-04-21 07:30:00",
        "E10": "2026-05-29 07:30:00",
        "SP98": "2026-05-29 07:30:00"
      }
    },
    {
      "id": "60800008",
      "lat": 49.23,
      "lon": 2.906,
      "cp": "60800",
      "ville": "Crépy-en-Valois",
      "prix": {
        "Gazole": 0.00207,
        "E85": 0.000809,
        "E10": 0.002069,
        "SP98": 0.002155
      },
      "maj_gouv": {
        "Gazole": "2026-05-29 11:11:02",
        "E85": "2026-05-22 08:35:44",
        "E10": "2026-05-25 08:42:55",
        "SP98": "2026-05-27 08:39:29"
      }
    },
    {
      "id": "60000006",
      "lat": 49.43,
      "lon": 2.092,
      "cp": "60000",
      "ville": "Beauvais",
      "prix": {
        "Gazole": 0.0020800000000000003,
        "E10": 0.0020099999999999996,
        "SP98": 0.002173
      },
      "maj_gouv": {
        "Gazole": "2026-05-28 17:41:00",
        "E10": "2026-05-28 17:41:00",
        "SP98": "2026-05-28 17:41:00"
      }
    },
    {
      "id": "60330004",
      "lat": 49.096696560788,
      "lon": 2.7494676177426998,
      "cp": "60330",
      "ville": "Le Plessis-Belleville",
      "prix": {
        "Gazole": 0.002,
        "E85": 0.000843,
        "GPLc": 0.001059
      },
      "maj_gouv": {
        "Gazole": "2026-06-02 00:01:00",
        "E85": "2026-06-02 00:01:00",
        "GPLc": "2026-06-02 00:01:00"
      }
    },
    {
      "id": "60200005",
      "lat": 49.419,
      "lon": 2.82,
      "cp": "60200",
      "ville": "Compiègne",
      "prix": {
        "Gazole": 0.002047,
        "E10": 0.002027,
        "SP98": 0.0021019999999999997
      },
      "maj_gouv": {
        "Gazole": "2026-06-01 07:40:00",
        "E10": "2026-06-01 07:40:00",
        "SP98": "2026-06-01 07:40:00"
      }
    },
    {
      "id": "60200006",
      "lat": 49.401,
      "lon": 2.807,
      "cp": "60200",
      "ville": "Compiègne",
      "prix": {
        "Gazole": 0.002,
        "E10": 0.002007,
        "SP98": 0.002097
      },
      "maj_gouv": {
        "Gazole": "2026-06-01 07:40:00",
        "E10": "2026-06-01 07:40:00",
        "SP98": "2026-06-01 07:40:00"
      }
    },
    {
      "id": "60500002",
      "lat": 49.178,
      "lon": 2.456,
      "cp": "60500",
      "ville": "Chantilly",
      "prix": {
        "Gazole": 0.001998,
        "E10": 0.002019,
        "SP98": 0.002075
      },
      "maj_gouv": {
        "Gazole": "2026-05-30 06:31:00",
        "E10": "2026-05-30 06:31:00",
        "SP98": "2026-05-30 06:31:00"
      }
    },
    {
      "id": "60870002",
      "lat": 49.289,
      "lon": 2.5,
      "cp": "60870",
      "ville": "VILLERS-SAINT-PAUL",
      "prix": {
        "Gazole": 0.002195,
        "SP95": 0.002095,
        "E10": 0.0021000000000000003,
        "SP98": 0.002199
      },
      "maj_gouv": {
        "Gazole": "2026-04-30 17:53:44",
        "SP95": "2026-04-30 17:53:44",
        "E10": "2026-05-06 09:45:51",
        "SP98": "2026-04-08 12:27:18"
      }
    },
    {
      "id": "60700005",
      "lat": 49.317,
      "lon": 2.606,
      "cp": "60700",
      "ville": "Pont-Sainte-Maxence",
      "prix": {
        "Gazole": 0.001978,
        "SP95": 0.001999,
        "E85": 0.000842,
        "E10": 0.0019479999999999999,
        "SP98": 0.0020299999999999997
      },
      "maj_gouv": {
        "Gazole": "2026-06-01 05:00:00",
        "SP95": "2026-06-01 05:00:00",
        "E85": "2026-05-11 05:00:00",
        "E10": "2026-06-01 05:00:00",
        "SP98": "2026-06-01 05:00:00"
      }
    },
    {
      "id": "60000017",
      "lat": 49.402495035409,
      "lon": 2.1278669713141003,
      "cp": "60000",
      "ville": "Allonne",
      "prix": {
        "Gazole": 0.001997,
        "E10": 0.001935
      },
      "maj_gouv": {
        "Gazole": "2026-06-02 00:01:00",
        "E10": "2026-06-02 00:01:00"
      }
    },
    {
      "id": "60210003",
      "lat": 49.666,
      "lon": 1.959,
      "cp": "60210",
      "ville": "Grandvilliers",
      "prix": {
        "Gazole": 0.001986,
        "SP95": 0.001993,
        "E85": 0.000798,
        "E10": 0.001939
      },
      "maj_gouv": {
        "Gazole": "2026-06-01 16:36:22",
        "SP95": "2026-06-01 16:36:22",
        "E85": "2026-06-01 16:36:22",
        "E10": "2026-06-01 16:36:22"
      }
    },
    {
      "id": "60110004",
      "lat": 49.21043,
      "lon": 2.151187,
      "cp": "60110",
      "ville": "MERU",
      "prix": {
        "Gazole": 0.002124,
        "E10": 0.00199
      },
      "maj_gouv": {
        "Gazole": "2026-06-02 00:01:00",
        "E10": "2026-06-02 00:01:00"
      }
    },
    {
      "id": "60140002",
      "lat": 49.329,
      "lon": 2.464,
      "cp": "60140",
      "ville": "Liancourt",
      "prix": {
        "Gazole": 0.002081,
        "SP95": 0.00199
      },
      "maj_gouv": {
        "Gazole": "2026-06-01 20:06:39",
        "SP95": "2026-06-01 20:06:39"
      }
    },
    {
      "id": "60200011",
      "lat": 49.38626,
      "lon": 2.7848,
      "cp": "60200",
      "ville": "Compiègne",
      "prix": {
        "Gazole": 0.0020350000000000004,
        "E10": 0.001978,
        "SP98": 0.00199
      },
      "maj_gouv": {
        "Gazole": "2026-06-01 07:00:00",
        "E10": "2026-06-01 07:00:00",
        "SP98": "2026-03-13 07:00:00"
      }
    },
    {
      "id": "60126001",
      "lat": 49.359,
      "lon": 2.718,
      "cp": "60126",
      "ville": "Longueil-Sainte-Marie",
      "prix": {
        "Gazole": 0.002099,
        "SP95": 0.002099
      },
      "maj_gouv": {
        "Gazole": "2026-05-29 19:41:36",
        "SP95": "2026-05-29 19:41:36"
      }
    },
    {
      "id": "60490007",
      "lat": 49.5236,
      "lon": 2.72292,
      "cp": "60490",
      "ville": "RESSONS SUR MATZ",
      "prix": {
        "Gazole": 0.0021509999999999997,
        "E85": 0.000999,
        "GPLc": 0.001119,
        "E10": 0.00199,
        "SP98": 0.00199
      },
      "maj_gouv": {
        "Gazole": "2026-06-02 00:01:00",
        "E85": "2026-06-02 00:01:00",
        "GPLc": "2026-06-02 00:01:00",
        "E10": "2026-06-02 00:01:00",
        "SP98": "2026-06-02 00:01:00"
      }
    },
    {
      "id": "60280003",
      "lat": 49.4312668816,
      "lon": 2.8373434750855,
      "cp": "60280",
      "ville": "CLAIROIX",
      "prix": {
        "Gazole": 0.002019,
        "E85": 0.000798,
        "E10": 0.0019190000000000001,
        "SP98": 0.002019
      },
      "maj_gouv": {
        "Gazole": "2026-06-01 09:25:01",
        "E85": "2026-05-15 09:53:54",
        "E10": "2026-06-01 09:25:01",
        "SP98": "2026-06-01 09:25:01"
      }
    },
    {
      "id": "60000012",
      "lat": 49.431,
      "lon": 2.118,
      "cp": "60000",
      "ville": "BEAUVAIS",
      "prix": {
        "Gazole": 0.0020870000000000003,
        "E85": 0.0008629999999999999,
        "GPLc": 0.001019
      },
      "maj_gouv": {
        "Gazole": "2026-06-02 00:01:00",
        "E85": "2026-06-02 00:01:00",
        "GPLc": "2026-06-02 00:01:00"
      }
    },
    {
      "id": "60600004",
      "lat": 49.3826,
      "lon": 2.40177,
      "cp": "60600",
      "ville": "CLERMONT",
      "prix": {
        "Gazole": 0.001998,
        "SP95": 0.0019950000000000002,
        "E10": 0.00199,
        "SP98": 0.002007
      },
      "maj_gouv": {
        "Gazole": "2026-05-30 10:07:47",
        "SP95": "2026-06-01 11:31:52",
        "E10": "2026-05-30 10:07:47",
        "SP98": "2026-06-01 11:31:52"
      }
    },
    {
      "id": "60410003",
      "lat": 49.309,
      "lon": 2.73,
      "cp": "60410",
      "ville": "Verberie",
      "prix": {
        "Gazole": 0.002039,
        "SP95": 0.002039,
        "SP98": 0.002099
      },
      "maj_gouv": {
        "Gazole": "2026-06-01 11:18:55",
        "SP95": "2026-06-01 11:18:56",
        "SP98": "2026-06-01 11:18:56"
      }
    },
    {
      "id": "60112002",
      "lat": 49.484,
      "lon": 2.047,
      "cp": "60112",
      "ville": "Troissereux",
      "prix": {
        "Gazole": 0.0020350000000000004,
        "E10": 0.001984
      },
      "maj_gouv": {
        "Gazole": "2026-06-01 08:06:15",
        "E10": "2026-06-01 08:06:15"
      }
    },
    {
      "id": "60160003",
      "lat": 49.256,
      "lon": 2.432,
      "cp": "60160",
      "ville": "MONTATAIRE",
      "prix": {
        "Gazole": 0.001978,
        "E85": 0.000834,
        "E10": 0.001909
      },
      "maj_gouv": {
        "Gazole": "2026-06-02 00:01:00",
        "E85": "2026-06-02 00:01:00",
        "E10": "2026-06-02 00:01:00"
      }
    },
    {
      "id": "60180001",
      "lat": 49.276,
      "lon": 2.486,
      "cp": "60180",
      "ville": "NOGENT-SUR-OISE",
      "prix": {
        "Gazole": 0.001975,
        "E85": 0.000843,
        "GPLc": 0.001029,
        "E10": 0.001943,
        "SP98": 0.002034
      },
      "maj_gouv": {
        "Gazole": "2026-06-01 09:10:00",
        "E85": "2026-04-28 09:05:00",
        "GPLc": "2026-04-17 10:00:00",
        "E10": "2026-06-01 09:10:00",
        "SP98": "2026-05-29 09:10:00"
      }
    },
    {
      "id": "60540002",
      "lat": 49.2013605,
      "lon": 2.2042972,
      "cp": "60540",
      "ville": "BORNEL",
      "prix": {
        "Gazole": 0.002109,
        "E10": 0.00212,
        "SP98": 0.002199
      },
      "maj_gouv": {
        "Gazole": "2026-05-22 11:19:27",
        "E10": "2026-05-22 11:19:28",
        "SP98": "2026-05-22 11:19:28"
      }
    },
    {
      "id": "60300007",
      "lat": 49.211,
      "lon": 2.593,
      "cp": "60300",
      "ville": "SENLIS",
      "prix": {
        "Gazole": 0.002096,
        "GPLc": 0.001039
      },
      "maj_gouv": {
        "Gazole": "2026-06-02 00:01:00",
        "GPLc": "2026-06-02 00:01:00"
      }
    },
    {
      "id": "60230004",
      "lat": 49.188,
      "lon": 2.235,
      "cp": "60230",
      "ville": "CHAMBLY",
      "prix": {
        "Gazole": 0.001996,
        "E10": 0.0019219999999999999,
        "SP98": 0.00199
      },
      "maj_gouv": {
        "Gazole": "2026-06-02 00:01:00",
        "E10": "2026-06-02 00:01:00",
        "SP98": "2026-06-02 00:01:00"
      }
    },
    {
      "id": "60240001",
      "lat": 49.272,
      "lon": 1.874,
      "cp": "60240",
      "ville": "Chaumont-en-Vexin",
      "prix": {
        "Gazole": 0.00199,
        "E10": 0.0019690000000000003,
        "SP98": 0.00206
      },
      "maj_gouv": {
        "Gazole": "2026-06-01 10:41:32",
        "E10": "2026-06-01 10:41:32",
        "SP98": "2026-06-01 10:41:32"
      }
    },
    {
      "id": "60680003",
      "lat": 49.403,
      "lon": 2.739,
      "cp": "60680",
      "ville": "JONQUIERES",
      "prix": {
        "Gazole": 0.001978,
        "E85": 0.000839
      },
      "maj_gouv": {
        "Gazole": "2026-06-02 00:01:00",
        "E85": "2026-06-02 00:01:00"
      }
    },
    {
      "id": "60300010",
      "lat": 49.221,
      "lon": 2.593,
      "cp": "60300",
      "ville": "CHAMANT",
      "prix": {
        "Gazole": 0.002089,
        "E85": 0.000859
      },
      "maj_gouv": {
        "Gazole": "2026-06-02 00:01:00",
        "E85": "2026-06-02 00:01:00"
      }
    },
    {
      "id": "60870003",
      "lat": 49.284,
      "lon": 2.492,
      "cp": "60870",
      "ville": "Villers-Saint-Paul",
      "prix": {
        "Gazole": 0.001988,
        "E85": 0.000843
      },
      "maj_gouv": {
        "Gazole": "2026-06-02 00:01:00",
        "E85": "2026-06-02 00:01:00"
      }
    },
    {
      "id": "60120005",
      "lat": 49.641,
      "lon": 2.279,
      "cp": "60120",
      "ville": "BRETEUIL",
      "prix": {
        "Gazole": 0.001977,
        "SP95": 0.002034,
        "E85": 0.000749,
        "E10": 0.001975
      },
      "maj_gouv": {
        "Gazole": "2026-06-01 08:51:34",
        "SP95": "2026-06-01 08:51:34",
        "E85": "2026-04-24 10:04:43",
        "E10": "2026-06-01 08:51:34"
      }
    },
    {
      "id": "60390001",
      "lat": 49.368,
      "lon": 1.987,
      "cp": "60390",
      "ville": "AUNEUIL",
      "prix": {
        "Gazole": 0.0019890000000000003,
        "E10": 0.001955,
        "SP98": 0.00207
      },
      "maj_gouv": {
        "Gazole": "2026-06-01 09:48:13",
        "E10": "2026-06-01 09:48:13",
        "SP98": "2026-06-01 09:48:14"
      }
    },
    {
      "id": "60340001",
      "lat": 49.208,
      "lon": 2.391,
      "cp": "60340",
      "ville": "VILLERS-SOUS-SAINT-LEU",
      "prix": {
        "Gazole": 0.0019950000000000002,
        "E10": 0.001949,
        "SP98": 0.0020710000000000004
      },
      "maj_gouv": {
        "Gazole": "2026-05-30 14:57:49",
        "E10": "2026-05-30 14:57:50",
        "SP98": "2026-05-30 14:57:50"
      }
    },
    {
      "id": "60500008",
      "lat": 49.202,
      "lon": 2.463,
      "cp": "60500",
      "ville": "Chantilly",
      "prix": {
        "Gazole": 0.00215,
        "SP95": 0.002145
      },
      "maj_gouv": {
        "Gazole": "2026-05-27 13:18:23",
        "SP95": "2026-05-27 13:18:23"
      }
    },
    {
      "id": "60300005",
      "lat": 49.221,
      "lon": 2.591,
      "cp": "60300",
      "ville": "SENLIS",
      "prix": {
        "Gazole": 0.0020670000000000003,
        "E10": 0.001997,
        "SP98": 0.002137
      },
      "maj_gouv": {
        "Gazole": "2026-05-27 09:46:59",
        "E10": "2026-05-30 10:29:53",
        "SP98": "2026-05-27 09:47:00"
      }
    },
    {
      "id": "60190003",
      "lat": 49.403,
      "lon": 2.626,
      "cp": "60190",
      "ville": "MOYVILLERS",
      "prix": {
        "Gazole": 0.002077,
        "E85": 0.000855,
        "E10": 0.00199
      },
      "maj_gouv": {
        "Gazole": "2026-06-02 00:01:00",
        "E85": "2026-06-02 00:01:00",
        "E10": "2026-06-02 00:01:00"
      }
    },
    {
      "id": "60200001",
      "lat": 49.413,
      "lon": 2.816,
      "cp": "60200",
      "ville": "COMPIèGNE",
      "prix": {
        "Gazole": 0.002101,
        "SP98": 0.002148
      },
      "maj_gouv": {
        "Gazole": "2026-05-21 10:13:10",
        "SP98": "2026-05-21 10:13:10"
      }
    },
    {
      "id": "60000001",
      "lat": 49.409,
      "lon": 2.115,
      "cp": "60000",
      "ville": "BEAUVAIS",
      "prix": {
        "Gazole": 0.00206,
        "E85": 0.000798,
        "GPLc": 0.000988,
        "E10": 0.00199,
        "SP98": 0.002113
      },
      "maj_gouv": {
        "Gazole": "2026-05-28 09:44:19",
        "E85": "2026-05-15 09:33:03",
        "GPLc": "2026-05-07 09:39:18",
        "E10": "2026-05-28 09:44:19",
        "SP98": "2026-05-27 15:34:01"
      }
    },
    {
      "id": "95472001",
      "lat": 49.101,
      "lon": 2.528,
      "cp": "60520",
      "ville": "La Chapelle-en-Serval",
      "prix": {
        "Gazole": 0.002049,
        "E10": 0.0019890000000000003,
        "SP98": 0.002109
      },
      "maj_gouv": {
        "Gazole": "2026-06-02 00:15:00",
        "E10": "2026-06-01 08:57:01",
        "SP98": "2026-06-02 00:15:00"
      }
    },
    {
      "id": "60700002",
      "lat": 49.306285410005,
      "lon": 2.5930277243297,
      "cp": "60700",
      "ville": "Pont-Sainte-Maxence",
      "prix": {},
      "maj_gouv": {}
    },
    {
      "id": "60420003",
      "lat": 49.592835751644,
      "lon": 2.5133434965423,
      "cp": "60420",
      "ville": "Ferrières",
      "prix": {
        "Gazole": 0.002065,
        "SP95": 0.0020659999999999997
      },
      "maj_gouv": {
        "Gazole": "2026-05-28 11:49:45",
        "SP95": "2026-05-06 12:17:33"
      }
    },
    {
      "id": "60600001",
      "lat": 49.362,
      "lon": 2.422,
      "cp": "60600",
      "ville": "BREUIL-LE-VERT",
      "prix": {
        "Gazole": 0.002099,
        "E10": 0.001999,
        "SP98": 0.002157
      },
      "maj_gouv": {
        "Gazole": "2026-05-29 12:08:01",
        "E10": "2026-05-29 12:08:01",
        "SP98": "2026-05-29 12:08:01"
      }
    },
    {
      "id": "60300009",
      "lat": 49.20834539496099,
      "lon": 2.6023127084038,
      "cp": "60300",
      "ville": "Senlis",
      "prix": {
        "Gazole": 0.0020350000000000004,
        "E85": 0.000869
      },
      "maj_gouv": {
        "Gazole": "2026-06-01 07:59:11",
        "E85": "2026-06-01 07:59:11"
      }
    },
    {
      "id": "60600006",
      "lat": 49.396,
      "lon": 2.419,
      "cp": "60600",
      "ville": "FITZ-JAMES",
      "prix": {
        "Gazole": 0.001999
      },
      "maj_gouv": {
        "Gazole": "2026-06-01 09:37:09"
      }
    },
    {
      "id": "60390004",
      "lat": 49.371485,
      "lon": 1.988032,
      "cp": "60390",
      "ville": "Auneuil",
      "prix": {
        "Gazole": 0.001978,
        "E10": 0.001955,
        "SP98": 0.002029
      },
      "maj_gouv": {
        "Gazole": "2026-06-01 09:06:25",
        "E10": "2026-06-01 09:06:25",
        "SP98": "2026-06-01 08:16:23"
      }
    },
    {
      "id": "60005001",
      "lat": 49.456,
      "lon": 2.1,
      "cp": "60000",
      "ville": "BEAUVAIS",
      "prix": {
        "Gazole": 0.0020350000000000004,
        "E10": 0.00199
      },
      "maj_gouv": {
        "Gazole": "2026-06-01 09:01:56",
        "E10": "2026-06-01 09:01:56"
      }
    },
    {
      "id": "60260001",
      "lat": 49.156,
      "lon": 2.445,
      "cp": "60260",
      "ville": "LAMORLAYE",
      "prix": {
        "Gazole": 0.001994,
        "SP95": 0.001994,
        "E85": 0.000798,
        "E10": 0.001949,
        "SP98": 0.0020710000000000004
      },
      "maj_gouv": {
        "Gazole": "2026-05-30 08:27:00",
        "SP95": "2026-05-30 08:27:00",
        "E85": "2026-05-30 08:27:00",
        "E10": "2026-05-30 08:27:00",
        "SP98": "2026-05-30 08:27:00"
      }
    },
    {
      "id": "60640001",
      "lat": 49.655,
      "lon": 3.05,
      "cp": "60640",
      "ville": "GUISCARD",
      "prix": {
        "Gazole": 0.0020659999999999997,
        "E10": 0.001982,
        "SP98": 0.00199
      },
      "maj_gouv": {
        "Gazole": "2026-06-01 19:47:04",
        "E10": "2026-06-01 19:47:04",
        "SP98": "2026-06-01 19:47:04"
      }
    },
    {
      "id": "60130001",
      "lat": 49.512,
      "lon": 2.431,
      "cp": "60130",
      "ville": "SAINT-JUST-EN-CHAUSSéE",
      "prix": {
        "Gazole": 0.001994,
        "SP95": 0.001938,
        "E85": 0.000753,
        "SP98": 0.002072
      },
      "maj_gouv": {
        "Gazole": "2026-06-01 08:02:03",
        "SP95": "2026-06-01 08:02:03",
        "E85": "2026-05-28 07:59:54",
        "SP98": "2026-05-29 07:53:03"
      }
    },
    {
      "id": "60000011",
      "lat": 49.41,
      "lon": 2.109,
      "cp": "60000",
      "ville": "BEAUVAIS",
      "prix": {
        "Gazole": 0.002088,
        "SP95": 0.002065,
        "E85": 0.0008629999999999999,
        "GPLc": 0.000988,
        "SP98": 0.002133
      },
      "maj_gouv": {
        "Gazole": "2026-05-30 13:28:03",
        "SP95": "2026-05-30 13:28:03",
        "E85": "2026-05-27 11:03:20",
        "GPLc": "2026-05-06 08:07:45",
        "SP98": "2026-05-30 13:28:03"
      }
    },
    {
      "id": "60270003",
      "lat": 49.188755748479004,
      "lon": 2.413338110243,
      "cp": "60270",
      "ville": "GOUVIEUX",
      "prix": {
        "Gazole": 0.002033,
        "E10": 0.001923,
        "SP98": 0.0020659999999999997
      },
      "maj_gouv": {
        "Gazole": "2026-05-29 10:03:33",
        "E10": "2026-05-29 10:03:34",
        "SP98": "2026-05-29 10:03:34"
      }
    },
    {
      "id": "60590001",
      "lat": 49.289,
      "lon": 1.807,
      "cp": "60590",
      "ville": "Trie-Château",
      "prix": {
        "Gazole": 0.001978,
        "SP95": 0.001999,
        "E85": 0.0007970000000000001,
        "E10": 0.001952,
        "SP98": 0.002059
      },
      "maj_gouv": {
        "Gazole": "2026-06-01 08:29:59",
        "SP95": "2026-06-01 08:29:59",
        "E85": "2026-05-18 08:31:02",
        "E10": "2026-06-01 08:30:00",
        "SP98": "2026-05-29 08:30:15"
      }
    },
    {
      "id": "60280001",
      "lat": 49.408,
      "lon": 2.781,
      "cp": "60280",
      "ville": "VENETTE",
      "prix": {
        "Gazole": 0.00196,
        "SP95": 0.002012,
        "E85": 0.000804,
        "GPLc": 0.000949,
        "E10": 0.0019270000000000001,
        "SP98": 0.002092
      },
      "maj_gouv": {
        "Gazole": "2026-06-01 08:08:31",
        "SP95": "2026-06-01 08:08:31",
        "E85": "2026-06-01 08:08:31",
        "GPLc": "2026-06-01 08:08:31",
        "E10": "2026-06-01 08:08:31",
        "SP98": "2026-06-01 08:08:31"
      }
    },
    {
      "id": "60150005",
      "lat": 49.47,
      "lon": 2.86,
      "cp": "60150",
      "ville": "LONGUEIL ANNEL",
      "prix": {
        "Gazole": 0.002039,
        "E10": 0.001999,
        "SP98": 0.002099
      },
      "maj_gouv": {
        "Gazole": "2026-05-30 11:06:28",
        "E10": "2026-05-30 11:06:28",
        "SP98": "2026-05-30 11:06:28"
      }
    },
    {
      "id": "60610002",
      "lat": 49.357318877451,
      "lon": 2.7763757910323,
      "cp": "60610",
      "ville": "Lacroix-Saint-Ouen",
      "prix": {
        "Gazole": 0.0019790000000000003,
        "E85": 0.000789,
        "E10": 0.001949,
        "SP98": 0.002069
      },
      "maj_gouv": {
        "Gazole": "2026-05-29 10:32:27",
        "E85": "2026-05-18 12:59:52",
        "E10": "2026-05-29 10:32:28",
        "SP98": "2026-06-01 14:30:30"
      }
    },
    {
      "id": "60000008",
      "lat": 49.433,
      "lon": 2.046,
      "cp": "60000",
      "ville": "Goincourt",
      "prix": {
        "Gazole": 0.001999,
        "E85": 0.000798,
        "E10": 0.001899,
        "SP98": 0.001987
      },
      "maj_gouv": {
        "Gazole": "2026-06-01 11:05:53",
        "E85": "2026-05-29 09:05:00",
        "E10": "2026-06-01 11:05:53",
        "SP98": "2026-06-01 11:05:53"
      }
    },
    {
      "id": "60120002",
      "lat": 49.63618,
      "lon": 2.29025,
      "cp": "60120",
      "ville": "BRETEUIL",
      "prix": {
        "Gazole": 0.001977,
        "SP95": 0.002034,
        "SP98": 0.00209
      },
      "maj_gouv": {
        "Gazole": "2026-06-01 14:39:22",
        "SP95": "2026-06-01 14:39:22",
        "SP98": "2026-05-27 10:33:41"
      }
    },
    {
      "id": "60000007",
      "lat": 49.431,
      "lon": 2.071,
      "cp": "60000",
      "ville": "Beauvais",
      "prix": {
        "Gazole": 0.002112,
        "E10": 0.002048,
        "SP98": 0.002179
      },
      "maj_gouv": {
        "Gazole": "2026-05-26 17:42:13",
        "E10": "2026-05-26 17:42:13",
        "SP98": "2026-05-26 17:42:13"
      }
    },
    {
      "id": "60690001",
      "lat": 49.582,
      "lon": 1.954,
      "cp": "60690",
      "ville": "MARSEILLE EN BEAUVAISIS",
      "prix": {
        "Gazole": 0.001994,
        "SP95": 0.0019790000000000003,
        "E85": 0.000798,
        "E10": 0.001929,
        "SP98": 0.0021349999999999997
      },
      "maj_gouv": {
        "Gazole": "2026-05-30 14:46:20",
        "SP95": "2026-05-30 14:46:20",
        "E85": "2026-05-30 14:46:20",
        "E10": "2026-05-30 14:46:20",
        "SP98": "2026-05-27 09:37:51"
      }
    },
    {
      "id": "60490009",
      "lat": 49.519649613694995,
      "lon": 2.7195533558196,
      "cp": "60490",
      "ville": "RESSONS SUR MATZ",
      "prix": {
        "Gazole": 0.002104,
        "E85": 0.000998,
        "GPLc": 0.001108,
        "E10": 0.00199,
        "SP98": 0.00199
      },
      "maj_gouv": {
        "Gazole": "2026-06-02 00:01:00",
        "E85": "2026-06-02 00:01:00",
        "GPLc": "2026-06-02 00:01:00",
        "E10": "2026-06-02 00:01:00",
        "SP98": "2026-06-02 00:01:00"
      }
    },
    {
      "id": "60730002",
      "lat": 49.29,
      "lon": 2.201,
      "cp": "60730",
      "ville": "SAINTE-GENEVIèVE",
      "prix": {
        "Gazole": 0.0019790000000000003,
        "E10": 0.001958,
        "SP98": 0.002109
      },
      "maj_gouv": {
        "Gazole": "2026-06-01 08:45:00",
        "E10": "2026-06-01 08:45:00",
        "SP98": "2026-06-01 08:45:00"
      }
    },
    {
      "id": "60350002",
      "lat": 49.401,
      "lon": 2.994,
      "cp": "60350",
      "ville": "Trosly-Breuil",
      "prix": {
        "Gazole": 0.00197,
        "E85": 0.000819,
        "E10": 0.001926,
        "SP98": 0.0020310000000000003
      },
      "maj_gouv": {
        "Gazole": "2026-06-01 08:29:30",
        "E85": "2026-04-17 12:32:37",
        "E10": "2026-06-01 08:29:30",
        "SP98": "2026-06-01 08:29:30"
      }
    },
    {
      "id": "60740001",
      "lat": 49.239,
      "lon": 2.471,
      "cp": "60740",
      "ville": "SAINT-MAXIMIN",
      "prix": {
        "Gazole": 0.002,
        "GPLc": 0.000999,
        "E10": 0.00198,
        "SP98": 0.0020499999999999997
      },
      "maj_gouv": {
        "Gazole": "2026-06-01 10:07:39",
        "GPLc": "2026-05-22 10:31:06",
        "E10": "2026-06-01 10:07:39",
        "SP98": "2026-06-01 10:07:39"
      }
    },
    {
      "id": "60190002",
      "lat": 49.41449,
      "lon": 2.64666,
      "cp": "60190",
      "ville": "Moyvillers",
      "prix": {},
      "maj_gouv": {}
    },
    {
      "id": "60160002",
      "lat": 49.253,
      "lon": 2.428,
      "cp": "60160",
      "ville": "MONTATAIRE",
      "prix": {
        "Gazole": 0.001999,
        "E85": 0.000769,
        "E10": 0.0019790000000000003,
        "SP98": 0.002049
      },
      "maj_gouv": {
        "Gazole": "2026-05-30 08:00:00",
        "E85": "2026-05-30 08:00:00",
        "E10": "2026-05-30 08:00:00",
        "SP98": "2026-05-30 08:00:00"
      }
    },
    {
      "id": "60650007",
      "lat": 49.438949,
      "lon": 1.887184,
      "cp": "60650",
      "ville": "Saint Aubin en Bray",
      "prix": {
        "Gazole": 0.001973,
        "E85": 0.000799,
        "E10": 0.001954,
        "SP98": 0.002019
      },
      "maj_gouv": {
        "Gazole": "2026-06-01 08:26:09",
        "E85": "2026-04-24 08:33:52",
        "E10": "2026-06-01 08:26:09",
        "SP98": "2026-06-01 08:26:09"
      }
    },
    {
      "id": "60200012",
      "lat": 49.407,
      "lon": 2.813,
      "cp": "60200",
      "ville": "COMPIEGNE",
      "prix": {
        "Gazole": 0.001981,
        "E10": 0.001917
      },
      "maj_gouv": {
        "Gazole": "2026-06-02 00:01:00",
        "E10": "2026-06-02 00:01:00"
      }
    },
    {
      "id": "60170003",
      "lat": 49.515,
      "lon": 2.924,
      "cp": "60170",
      "ville": "Ribécourt-Dreslincourt",
      "prix": {
        "Gazole": 0.0019790000000000003,
        "E10": 0.0019790000000000003,
        "SP98": 0.002049
      },
      "maj_gouv": {
        "Gazole": "2026-05-30 10:54:57",
        "E10": "2026-05-30 10:54:57",
        "SP98": "2026-05-30 10:54:57"
      }
    },
    {
      "id": "60290005",
      "lat": 49.337,
      "lon": 2.434,
      "cp": "60290",
      "ville": "RANTIGNY",
      "prix": {
        "Gazole": 0.001976,
        "E85": 0.000829,
        "E10": 0.001911
      },
      "maj_gouv": {
        "Gazole": "2026-06-02 00:01:00",
        "E85": "2026-06-02 00:01:00",
        "E10": "2026-06-02 00:01:00"
      }
    }
  ]
}