{
  "departement": "40",
  "date": "2026-06-02",
  "stations": [
    {
      "id": "40500002",
      "lat": 43.773,
      "lon": -0.567,
      "cp": "40500",
      "ville": "Saint-Sever",
      "prix": {
        "Gazole": 0.00211,
        "GPLc": 0.000999,
        "SP98": 0.00218
      },
      "maj_gouv": {
        "Gazole": "2026-05-27 16:51:00",
        "GPLc": "2026-04-03 12:22:08",
        "SP98": "2026-05-21 19:09:25"
      }
    },
    {
      "id": "40465002",
      "lat": 43.78529,
      "lon": -0.93105,
      "cp": "40465",
      "ville": "Pontonx-sur-l'Adour",
      "prix": {
        "Gazole": 0.0019399999999999999,
        "E85": 0.000798,
        "E10": 0.0018919999999999998,
        "SP98": 0.00212
      },
      "maj_gouv": {
        "Gazole": "2026-06-01 16:34:54",
        "E85": "2026-05-21 20:00:00",
        "E10": "2026-06-01 16:34:55",
        "SP98": "2026-05-27 08:00:00"
      }
    },
    {
      "id": "40006001",
      "lat": 43.877,
      "lon": -0.467,
      "cp": "40000",
      "ville": "Mont-de-Marsan",
      "prix": {
        "Gazole": 0.001999,
        "SP95": 0.002099,
        "E85": 0.0009310000000000001,
        "GPLc": 0.000995,
        "E10": 0.001999
      },
      "maj_gouv": {
        "Gazole": "2026-06-02 01:18:00",
        "SP95": "2026-06-02 01:18:00",
        "E85": "2026-06-02 01:18:00",
        "GPLc": "2026-06-02 01:18:00",
        "E10": "2026-06-02 01:18:00"
      }
    },
    {
      "id": "40280006",
      "lat": 43.867,
      "lon": -0.485,
      "cp": "40280",
      "ville": "Saint-Pierre-du-Mont",
      "prix": {
        "Gazole": 0.001999,
        "SP95": 0.002099,
        "E85": 0.0009310000000000001,
        "E10": 0.001999
      },
      "maj_gouv": {
        "Gazole": "2026-06-02 01:17:00",
        "SP95": "2026-06-02 01:17:00",
        "E85": "2026-06-02 01:17:00",
        "E10": "2026-06-02 01:17:00"
      }
    },
    {
      "id": "40410005",
      "lat": 44.36,
      "lon": -0.851,
      "cp": "40410",
      "ville": "Saugnacq-et-Muret",
      "prix": {
        "Gazole": 0.0023599999999999997,
        "GPLc": 0.00106,
        "E10": 0.00222,
        "SP98": 0.00232
      },
      "maj_gouv": {
        "Gazole": "2026-05-29 08:29:13",
        "GPLc": "2026-05-29 08:29:13",
        "E10": "2026-05-29 08:29:13",
        "SP98": "2026-05-29 08:29:13"
      }
    },
    {
      "id": "40230006",
      "lat": 43.637096148683995,
      "lon": -1.3532557977807,
      "cp": "40230",
      "ville": "Bénesse-Maremne",
      "prix": {
        "Gazole": 0.002149,
        "E85": 0.0008449999999999999,
        "E10": 0.002109,
        "SP98": 0.002219
      },
      "maj_gouv": {
        "Gazole": "2026-05-29 23:50:00",
        "E85": "2026-05-29 23:50:00",
        "E10": "2026-05-29 23:50:00",
        "SP98": "2026-05-29 23:50:00"
      }
    },
    {
      "id": "40140002",
      "lat": 43.745,
      "lon": -1.334,
      "cp": "40140",
      "ville": "SOUSTONS",
      "prix": {
        "Gazole": 0.0019950000000000002,
        "E85": 0.000798,
        "E10": 0.0019619999999999998,
        "SP98": 0.0020670000000000003
      },
      "maj_gouv": {
        "Gazole": "2026-06-02 01:17:00",
        "E85": "2026-06-02 01:17:00",
        "E10": "2026-06-02 01:17:00",
        "SP98": "2026-06-02 01:17:00"
      }
    },
    {
      "id": "40300009",
      "lat": 43.529,
      "lon": -1.152,
      "cp": "40300",
      "ville": "HASTINGUES",
      "prix": {
        "Gazole": 0.002369,
        "GPLc": 0.001064,
        "E10": 0.002209,
        "SP98": 0.0023090000000000003
      },
      "maj_gouv": {
        "Gazole": "2026-05-28 09:00:00",
        "GPLc": "2026-01-29 09:51:24",
        "E10": "2026-05-19 09:00:00",
        "SP98": "2026-05-19 09:00:00"
      }
    },
    {
      "id": "40000012",
      "lat": 43.886,
      "lon": -0.495,
      "cp": "40000",
      "ville": "Mont-de-Marsan",
      "prix": {
        "GPLc": 0.000999
      },
      "maj_gouv": {
        "GPLc": "2026-06-02 00:01:00"
      }
    },
    {
      "id": "40110003",
      "lat": 43.976,
      "lon": -0.737,
      "cp": "40110",
      "ville": "Ygos-Saint-Saturnin",
      "prix": {
        "Gazole": 0.002074
      },
      "maj_gouv": {
        "Gazole": "2026-06-02 00:01:00"
      }
    },
    {
      "id": "40380003",
      "lat": 43.7104,
      "lon": -0.8344,
      "cp": "40380",
      "ville": "Montfort-en-Chalosse",
      "prix": {
        "Gazole": 0.001999,
        "E10": 0.001999,
        "SP98": 0.002139
      },
      "maj_gouv": {
        "Gazole": "2026-05-30 10:13:09",
        "E10": "2026-05-30 10:13:09",
        "SP98": "2026-05-30 10:13:09"
      }
    },
    {
      "id": "40110002",
      "lat": 44.031,
      "lon": -0.911,
      "cp": "40110",
      "ville": "MORCENX",
      "prix": {
        "Gazole": 0.001997,
        "E10": 0.002039,
        "SP98": 0.002079
      },
      "maj_gouv": {
        "Gazole": "2026-05-28 18:59:38",
        "E10": "2026-05-28 18:59:38",
        "SP98": "2026-05-28 18:59:38"
      }
    },
    {
      "id": "40800006",
      "lat": 43.717,
      "lon": -0.269,
      "cp": "40800",
      "ville": "Aire-sur-l'Adour",
      "prix": {
        "Gazole": 0.00207,
        "E85": 0.00085,
        "GPLc": 0.001046,
        "E10": 0.00199,
        "SP98": 0.00211
      },
      "maj_gouv": {
        "Gazole": "2026-06-02 01:18:00",
        "E85": "2026-06-02 01:18:00",
        "GPLc": "2026-06-02 01:18:00",
        "E10": "2026-06-02 01:18:00",
        "SP98": "2026-06-02 01:18:00"
      }
    },
    {
      "id": "40140005",
      "lat": 43.747,
      "lon": -1.321,
      "cp": "40140",
      "ville": "SOUSTONS",
      "prix": {
        "Gazole": 0.001999,
        "E85": 0.000799,
        "E10": 0.0019690000000000003
      },
      "maj_gouv": {
        "Gazole": "2026-06-01 13:47:58",
        "E85": "2026-05-25 08:45:06",
        "E10": "2026-06-01 13:47:58"
      }
    },
    {
      "id": "40160003",
      "lat": 44.347469558383004,
      "lon": -1.0765071887945,
      "cp": "40160",
      "ville": "Parentis-en-Born",
      "prix": {
        "Gazole": 0.002029,
        "E10": 0.0019790000000000003,
        "SP98": 0.002189
      },
      "maj_gouv": {
        "Gazole": "2026-05-30 11:59:25",
        "E10": "2026-06-01 09:22:31",
        "SP98": "2026-05-22 19:30:00"
      }
    },
    {
      "id": "40100004",
      "lat": 43.708,
      "lon": -1.044,
      "cp": "40100",
      "ville": "Dax",
      "prix": {
        "Gazole": 0.00199,
        "SP95": 0.001999,
        "E10": 0.0019399999999999999,
        "SP98": 0.002121
      },
      "maj_gouv": {
        "Gazole": "2026-06-02 01:17:00",
        "SP95": "2026-06-02 01:17:00",
        "E10": "2026-06-02 01:17:00",
        "SP98": "2026-06-02 01:17:00"
      }
    },
    {
      "id": "40210004",
      "lat": 44.202,
      "lon": -0.929,
      "cp": "40210",
      "ville": "Labouheyre",
      "prix": {
        "Gazole": 0.001997,
        "SP95": 0.002053,
        "GPLc": 0.001142,
        "E10": 0.0020299999999999997
      },
      "maj_gouv": {
        "Gazole": "2026-06-02 01:18:00",
        "SP95": "2026-06-02 01:18:00",
        "GPLc": "2026-06-02 01:18:00",
        "E10": "2026-06-02 01:18:00"
      }
    },
    {
      "id": "40260008",
      "lat": 43.937,
      "lon": -1.093,
      "cp": "40260",
      "ville": "Lesperon",
      "prix": {
        "Gazole": 0.00232,
        "GPLc": 0.00106,
        "E10": 0.00218,
        "SP98": 0.00228
      },
      "maj_gouv": {
        "Gazole": "2026-05-29 07:33:31",
        "GPLc": "2026-05-28 08:37:03",
        "E10": "2026-05-29 07:33:31",
        "SP98": "2026-05-29 07:33:32"
      }
    },
    {
      "id": "40260002",
      "lat": 43.937,
      "lon": -1.087,
      "cp": "40260",
      "ville": "LESPERON",
      "prix": {
        "Gazole": 0.0023250000000000002,
        "GPLc": 0.001253,
        "E10": 0.002255,
        "SP98": 0.002405
      },
      "maj_gouv": {
        "Gazole": "2026-05-27 09:30:00",
        "GPLc": "2026-05-27 09:30:00",
        "E10": "2026-05-27 09:30:00",
        "SP98": "2026-05-27 09:30:00"
      }
    },
    {
      "id": "40100001",
      "lat": 43.71,
      "lon": -1.041,
      "cp": "40100",
      "ville": "DAX",
      "prix": {
        "Gazole": 0.0019890000000000003,
        "E10": 0.001932,
        "SP98": 0.002096
      },
      "maj_gouv": {
        "Gazole": "2026-06-01 09:44:15",
        "E10": "2026-06-01 09:44:15",
        "SP98": "2026-06-01 09:44:16"
      }
    },
    {
      "id": "40160005",
      "lat": 44.353,
      "lon": -1.08,
      "cp": "40160",
      "ville": "Parentis-en-Born",
      "prix": {
        "Gazole": 0.002029,
        "SP95": 0.002159,
        "E10": 0.0019790000000000003,
        "SP98": 0.002189
      },
      "maj_gouv": {
        "Gazole": "2026-06-01 08:56:03",
        "SP95": "2026-05-22 09:31:05",
        "E10": "2026-06-01 09:29:16",
        "SP98": "2026-05-22 09:31:05"
      }
    },
    {
      "id": "40800008",
      "lat": 43.707393700000004,
      "lon": -0.2565532,
      "cp": "40800",
      "ville": "Aire-sur-l'Adour",
      "prix": {
        "Gazole": 0.00207,
        "SP95": 0.002129,
        "E10": 0.002029
      },
      "maj_gouv": {
        "Gazole": "2026-05-30 10:20:32",
        "SP95": "2026-05-30 10:20:32",
        "E10": "2026-05-30 10:20:32"
      }
    },
    {
      "id": "40160001",
      "lat": 44.34909,
      "lon": -1.06754,
      "cp": "40160",
      "ville": "PARENTIS-EN-BORN",
      "prix": {
        "Gazole": 0.002029,
        "SP95": 0.002159,
        "E10": 0.0019790000000000003
      },
      "maj_gouv": {
        "Gazole": "2026-05-30 15:23:01",
        "SP95": "2026-05-22 09:15:00",
        "E10": "2026-06-01 09:15:00"
      }
    },
    {
      "id": "40240007",
      "lat": 44.064,
      "lon": -0.057,
      "cp": "40240",
      "ville": "LOSSE",
      "prix": {
        "Gazole": 0.002049,
        "E85": 0.000795,
        "E10": 0.002049,
        "SP98": 0.002149
      },
      "maj_gouv": {
        "Gazole": "2026-05-30 15:11:31",
        "E85": "2026-05-27 08:57:04",
        "E10": "2026-05-30 15:11:31",
        "SP98": "2026-05-30 15:11:32"
      }
    },
    {
      "id": "40550001",
      "lat": 43.8867,
      "lon": -1.29501,
      "cp": "40550",
      "ville": "LéON",
      "prix": {
        "Gazole": 0.002006,
        "E85": 0.0008539999999999999,
        "E10": 0.001939,
        "SP98": 0.00206
      },
      "maj_gouv": {
        "Gazole": "2026-05-29 22:39:00",
        "E85": "2026-05-29 22:39:00",
        "E10": "2026-05-29 22:39:00",
        "SP98": "2026-05-29 22:39:00"
      }
    },
    {
      "id": "40180001",
      "lat": 43.683347419,
      "lon": -0.99557445703,
      "cp": "40180",
      "ville": "SAUGNAC-ET-CAMBRAN",
      "prix": {
        "Gazole": 0.002077
      },
      "maj_gouv": {
        "Gazole": "2026-06-01 20:21:03"
      }
    },
    {
      "id": "40990002",
      "lat": 43.732,
      "lon": -1.045,
      "cp": "40990",
      "ville": "Saint-Paul-lès-Dax",
      "prix": {
        "Gazole": 0.00199,
        "SP95": 0.001999,
        "E85": 0.000798,
        "E10": 0.0019399999999999999
      },
      "maj_gouv": {
        "Gazole": "2026-06-02 01:17:00",
        "SP95": "2026-06-02 01:17:00",
        "E85": "2026-06-02 01:17:00",
        "E10": "2026-06-02 01:17:00"
      }
    },
    {
      "id": "40400005",
      "lat": 43.827363479028,
      "lon": -0.8344030125094299,
      "cp": "40400",
      "ville": "Bégaar",
      "prix": {
        "Gazole": 0.00199,
        "SP95": 0.002079,
        "E10": 0.0019399999999999999,
        "SP98": 0.002169
      },
      "maj_gouv": {
        "Gazole": "2026-06-01 09:43:35",
        "SP95": "2026-05-28 09:24:08",
        "E10": "2026-06-01 09:43:35",
        "SP98": "2026-05-19 09:33:37"
      }
    },
    {
      "id": "40270004",
      "lat": 43.774,
      "lon": -0.432,
      "cp": "40270",
      "ville": "Grenade-sur-l'Adour",
      "prix": {
        "Gazole": 0.001999,
        "SP95": 0.002069,
        "SP98": 0.002189
      },
      "maj_gouv": {
        "Gazole": "2026-06-01 05:12:58",
        "SP95": "2026-06-01 05:12:58",
        "SP98": "2026-06-01 05:12:59"
      }
    },
    {
      "id": "40230005",
      "lat": 43.714,
      "lon": -1.233,
      "cp": "40230",
      "ville": "Saint-Geours-de-Maremne",
      "prix": {
        "Gazole": 0.002025,
        "E85": 0.000989,
        "E10": 0.001999,
        "SP98": 0.002129
      },
      "maj_gouv": {
        "Gazole": "2026-06-01 13:00:22",
        "E85": "2026-05-18 23:59:00",
        "E10": "2026-06-01 13:00:23",
        "SP98": "2026-06-01 13:00:23"
      }
    },
    {
      "id": "40460002",
      "lat": 44.4973242,
      "lon": -1.0558437,
      "cp": "40460",
      "ville": "Sanguinet",
      "prix": {
        "Gazole": 0.002099,
        "SP95": 0.002099,
        "E85": 0.000798,
        "E10": 0.002059
      },
      "maj_gouv": {
        "Gazole": "2026-05-29 09:38:47",
        "SP95": "2026-05-29 09:38:47",
        "E85": "2026-05-29 09:38:47",
        "E10": "2026-05-29 09:38:47"
      }
    },
    {
      "id": "40180003",
      "lat": 43.707185996655,
      "lon": -1.0229783097333,
      "cp": "40100",
      "ville": "YZOSSE",
      "prix": {
        "Gazole": 0.001988,
        "E85": 0.000798,
        "E10": 0.0019299999999999999,
        "SP98": 0.00209
      },
      "maj_gouv": {
        "Gazole": "2026-06-01 16:29:39",
        "E85": "2026-05-22 11:52:10",
        "E10": "2026-06-01 14:11:12",
        "SP98": "2026-06-01 14:09:00"
      }
    },
    {
      "id": "40220002",
      "lat": 43.549,
      "lon": -1.486,
      "cp": "40220",
      "ville": "TARNOS",
      "prix": {
        "Gazole": 0.002049,
        "E85": 0.000859,
        "E10": 0.002059
      },
      "maj_gouv": {
        "Gazole": "2026-06-01 14:00:00",
        "E85": "2026-06-01 14:00:00",
        "E10": "2026-06-01 14:00:00"
      }
    },
    {
      "id": "40130003",
      "lat": 43.645,
      "lon": -1.426,
      "cp": "40130",
      "ville": "CAPBRETON",
      "prix": {
        "Gazole": 0.001999,
        "E85": 0.000798,
        "E10": 0.0019950000000000002,
        "SP98": 0.002157
      },
      "maj_gouv": {
        "Gazole": "2026-06-01 18:40:00",
        "E85": "2026-05-13 15:02:00",
        "E10": "2026-06-01 18:40:00",
        "SP98": "2026-05-28 14:49:53"
      }
    },
    {
      "id": "40700004",
      "lat": 43.657,
      "lon": -0.58,
      "cp": "40700",
      "ville": "Hagetmau",
      "prix": {
        "Gazole": 0.002039,
        "SP95": 0.0021190000000000002,
        "SP98": 0.002199
      },
      "maj_gouv": {
        "Gazole": "2026-05-29 12:31:35",
        "SP95": "2026-05-25 09:28:26",
        "SP98": "2026-05-30 09:06:01"
      }
    },
    {
      "id": "40110001",
      "lat": 44.030531149603,
      "lon": -0.9243893274282899,
      "cp": "40110",
      "ville": "Morcenx",
      "prix": {
        "Gazole": 0.001997,
        "SP95": 0.002058,
        "SP98": 0.002098
      },
      "maj_gouv": {
        "Gazole": "2026-05-28 09:04:30",
        "SP95": "2026-05-28 09:04:49",
        "SP98": "2026-05-28 09:05:07"
      }
    },
    {
      "id": "40360003",
      "lat": 43.626,
      "lon": -0.825,
      "cp": "40360",
      "ville": "Pomarez",
      "prix": {
        "Gazole": 0.0019950000000000002,
        "SP95": 0.002069,
        "SP98": 0.002099
      },
      "maj_gouv": {
        "Gazole": "2026-06-01 09:55:45",
        "SP95": "2026-06-01 09:55:45",
        "SP98": "2026-06-01 09:55:45"
      }
    },
    {
      "id": "40000001",
      "lat": 43.883,
      "lon": -0.482,
      "cp": "40000",
      "ville": "MONT-DE-MARSAN",
      "prix": {
        "Gazole": 0.002109,
        "E10": 0.002099,
        "SP98": 0.002149
      },
      "maj_gouv": {
        "Gazole": "2026-05-27 10:21:10",
        "E10": "2026-05-27 10:21:10",
        "SP98": "2026-05-27 10:21:10"
      }
    },
    {
      "id": "40500001",
      "lat": 43.749,
      "lon": -0.564,
      "cp": "40500",
      "ville": "SAINT-SEVER",
      "prix": {
        "Gazole": 0.002115,
        "SP95": 0.002149,
        "SP98": 0.00221
      },
      "maj_gouv": {
        "Gazole": "2026-05-19 18:20:44",
        "SP95": "2026-05-19 18:20:44",
        "SP98": "2026-05-19 18:20:44"
      }
    },
    {
      "id": "40400001",
      "lat": 43.829,
      "lon": -0.804,
      "cp": "40400",
      "ville": "TARTAS",
      "prix": {
        "Gazole": 0.0020350000000000004,
        "E10": 0.001974,
        "SP98": 0.00199
      },
      "maj_gouv": {
        "Gazole": "2026-06-01 06:45:47",
        "E10": "2026-06-01 11:20:06",
        "SP98": "2026-06-01 11:20:06"
      }
    },
    {
      "id": "40320002",
      "lat": 43.641402315507996,
      "lon": -0.51206767452832,
      "cp": "40320",
      "ville": "Samadet",
      "prix": {
        "Gazole": 0.00204,
        "E85": 0.00094,
        "E10": 0.0021000000000000003
      },
      "maj_gouv": {
        "Gazole": "2026-06-01 15:25:27",
        "E85": "2026-04-23 09:43:52",
        "E10": "2026-05-28 10:29:02"
      }
    },
    {
      "id": "40600004",
      "lat": 44.3831,
      "lon": -1.14726,
      "cp": "40600",
      "ville": "BISCARROSSE",
      "prix": {
        "Gazole": 0.002029,
        "SP95": 0.002159,
        "E85": 0.000739,
        "SP98": 0.002189
      },
      "maj_gouv": {
        "Gazole": "2026-05-30 07:09:19",
        "SP95": "2026-05-22 12:35:50",
        "E85": "2026-04-30 07:18:13",
        "SP98": "2026-05-22 12:35:50"
      }
    },
    {
      "id": "40230004",
      "lat": 43.689392196755996,
      "lon": -1.3330044457269,
      "cp": "40230",
      "ville": "Tosse",
      "prix": {
        "Gazole": 0.0019950000000000002,
        "SP95": 0.002098,
        "E10": 0.0019619999999999998,
        "SP98": 0.0020670000000000003
      },
      "maj_gouv": {
        "Gazole": "2026-06-01 12:24:58",
        "SP95": "2026-05-30 12:10:13",
        "E10": "2026-06-01 12:24:58",
        "SP98": "2026-06-01 12:24:58"
      }
    },
    {
      "id": "40990001",
      "lat": 43.741,
      "lon": -1.018,
      "cp": "40990",
      "ville": "Saint-Vincent-de-Paul",
      "prix": {
        "Gazole": 0.0020710000000000004,
        "E85": 0.0008810000000000001,
        "GPLc": 0.00107,
        "E10": 0.00199,
        "SP98": 0.00199
      },
      "maj_gouv": {
        "Gazole": "2026-06-01 19:24:11",
        "E85": "2026-05-28 11:18:49",
        "GPLc": "2026-05-28 11:18:49",
        "E10": "2026-06-01 19:26:55",
        "SP98": "2026-06-01 17:56:04"
      }
    },
    {
      "id": "40150002",
      "lat": 43.659010099999996,
      "lon": -1.3683753,
      "cp": "40150",
      "ville": "Angresse",
      "prix": {
        "Gazole": 0.0019950000000000002,
        "E85": 0.000798,
        "E10": 0.0019619999999999998,
        "SP98": 0.0020670000000000003
      },
      "maj_gouv": {
        "Gazole": "2026-06-01 05:25:13",
        "E85": "2026-05-20 07:54:40",
        "E10": "2026-06-01 05:25:13",
        "SP98": "2026-06-01 05:25:13"
      }
    },
    {
      "id": "40000007",
      "lat": 43.884,
      "lon": -0.498,
      "cp": "40000",
      "ville": "Mont-de-Marsan",
      "prix": {
        "Gazole": 0.002139,
        "SP95": 0.002129,
        "E10": 0.002099
      },
      "maj_gouv": {
        "Gazole": "2026-05-20 08:41:42",
        "SP95": "2026-05-22 11:12:43",
        "E10": "2026-05-20 12:00:13"
      }
    },
    {
      "id": "40170003",
      "lat": 44.025,
      "lon": -1.259,
      "cp": "40170",
      "ville": "LIT-ET-MIXE",
      "prix": {
        "Gazole": 0.002049,
        "SP95": 0.001999,
        "E10": 0.0019590000000000002,
        "SP98": 0.002115
      },
      "maj_gouv": {
        "Gazole": "2026-06-01 14:53:53",
        "SP95": "2026-06-01 14:53:53",
        "E10": "2026-06-01 14:53:53",
        "SP98": "2026-06-01 14:53:53"
      }
    },
    {
      "id": "40170004",
      "lat": 44.067,
      "lon": -1.228,
      "cp": "40170",
      "ville": "SAINT-JULIEN-EN-BORN",
      "prix": {
        "Gazole": 0.0019850000000000002,
        "SP95": 0.0019890000000000003,
        "SP98": 0.00221
      },
      "maj_gouv": {
        "Gazole": "2026-06-01 08:07:02",
        "SP95": "2026-06-01 08:07:02",
        "SP98": "2026-05-27 19:16:43"
      }
    },
    {
      "id": "40120003",
      "lat": 44.023813382481,
      "lon": -0.33892597342881997,
      "cp": "40120",
      "ville": "Sarbazan",
      "prix": {
        "Gazole": 0.002006,
        "SP95": 0.0020800000000000003,
        "E10": 0.001999
      },
      "maj_gouv": {
        "Gazole": "2026-06-02 01:17:00",
        "SP95": "2026-06-02 01:17:00",
        "E10": "2026-06-02 01:17:00"
      }
    },
    {
      "id": "40260009",
      "lat": 43.869941219434004,
      "lon": -1.1338228489867999,
      "cp": "40260",
      "ville": "CASTETS",
      "prix": {
        "Gazole": 0.001984,
        "E85": 0.0008539999999999999
      },
      "maj_gouv": {
        "Gazole": "2026-06-02 00:01:00",
        "E85": "2026-06-02 00:01:00"
      }
    },
    {
      "id": "40260005",
      "lat": 43.877,
      "lon": -1.143,
      "cp": "40260",
      "ville": "CASTETS",
      "prix": {
        "Gazole": 0.00199,
        "SP95": 0.0020350000000000004,
        "E10": 0.001999
      },
      "maj_gouv": {
        "Gazole": "2026-06-01 05:56:51",
        "SP95": "2026-05-30 06:39:36",
        "E10": "2026-06-01 05:56:51"
      }
    },
    {
      "id": "40100008",
      "lat": 43.717,
      "lon": -1.051,
      "cp": "40100",
      "ville": "DAX",
      "prix": {
        "Gazole": 0.001987,
        "E85": 0.000853,
        "GPLc": 0.001059,
        "E10": 0.001911
      },
      "maj_gouv": {
        "Gazole": "2026-06-02 00:01:00",
        "E85": "2026-06-02 00:01:00",
        "GPLc": "2026-06-02 00:01:00",
        "E10": "2026-06-02 00:01:00"
      }
    },
    {
      "id": "40300003",
      "lat": 43.55,
      "lon": -1.123,
      "cp": "40300",
      "ville": "PEYREHORADE",
      "prix": {
        "Gazole": 0.002112,
        "SP95": 0.002114,
        "SP98": 0.00217
      },
      "maj_gouv": {
        "Gazole": "2026-05-22 13:49:45",
        "SP95": "2026-05-22 13:49:45",
        "SP98": "2026-05-19 09:32:43"
      }
    },
    {
      "id": "40700001",
      "lat": 43.659,
      "lon": -0.591,
      "cp": "40700",
      "ville": "HAGETMAU",
      "prix": {
        "Gazole": 0.002091
      },
      "maj_gouv": {
        "Gazole": "2026-06-02 00:00:00"
      }
    },
    {
      "id": "40180002",
      "lat": 43.68,
      "lon": -1.093,
      "cp": "40180",
      "ville": "OEYRELUY",
      "prix": {
        "Gazole": 0.00225
      },
      "maj_gouv": {
        "Gazole": "2026-06-01 08:33:41"
      }
    },
    {
      "id": "40140001",
      "lat": 43.779,
      "lon": -1.216,
      "cp": "40140",
      "ville": "MAGESCQ",
      "prix": {
        "Gazole": 0.00225,
        "SP95": 0.00199
      },
      "maj_gouv": {
        "Gazole": "2026-04-08 14:30:05",
        "SP95": "2026-04-08 14:30:06"
      }
    },
    {
      "id": "40210001",
      "lat": 44.21,
      "lon": -0.925,
      "cp": "40210",
      "ville": "Labouheyre",
      "prix": {
        "Gazole": 0.002029,
        "SP95": 0.002053,
        "E85": 0.000798,
        "E10": 0.0020299999999999997
      },
      "maj_gouv": {
        "Gazole": "2026-06-01 11:58:03",
        "SP95": "2026-05-29 11:04:50",
        "E85": "2026-05-19 06:15:34",
        "E10": "2026-05-29 11:04:50"
      }
    },
    {
      "id": "40370001",
      "lat": 43.92756,
      "lon": -0.92096,
      "cp": "40370",
      "ville": "Rion-des-Landes",
      "prix": {
        "Gazole": 0.002159,
        "SP95": 0.002169
      },
      "maj_gouv": {
        "Gazole": "2026-05-22 11:37:10",
        "SP95": "2026-05-22 11:37:10"
      }
    },
    {
      "id": "40250001",
      "lat": 43.746086876999996,
      "lon": -0.758021592231,
      "cp": "40250",
      "ville": "MUGRON",
      "prix": {
        "Gazole": 0.002029,
        "SP95": 0.002025,
        "SP98": 0.002099
      },
      "maj_gouv": {
        "Gazole": "2026-05-29 10:47:41",
        "SP95": "2026-05-29 10:47:41",
        "SP98": "2026-06-01 10:47:02"
      }
    },
    {
      "id": "40410002",
      "lat": 44.304,
      "lon": -0.777,
      "cp": "40410",
      "ville": "PISSOS",
      "prix": {
        "Gazole": 0.002055,
        "SP95": 0.002075,
        "E85": 0.000879
      },
      "maj_gouv": {
        "Gazole": "2026-05-27 22:27:45",
        "SP95": "2026-05-27 22:27:45",
        "E85": "2026-05-27 22:27:45"
      }
    },
    {
      "id": "40200002",
      "lat": 44.205,
      "lon": -1.22,
      "cp": "40200",
      "ville": "MIMIZAN",
      "prix": {
        "Gazole": 0.001997,
        "E85": 0.0007970000000000001,
        "E10": 0.0020299999999999997,
        "SP98": 0.002178
      },
      "maj_gouv": {
        "Gazole": "2026-06-02 01:18:00",
        "E85": "2026-06-02 01:18:00",
        "E10": "2026-06-02 01:18:00",
        "SP98": "2026-06-02 01:18:00"
      }
    },
    {
      "id": "40350001",
      "lat": 43.60651,
      "lon": -0.99139,
      "cp": "40350",
      "ville": "Pouillon",
      "prix": {
        "Gazole": 0.002039,
        "E85": 0.000798,
        "E10": 0.001999,
        "SP98": 0.002139
      },
      "maj_gouv": {
        "Gazole": "2026-05-30 06:51:02",
        "E85": "2026-05-19 07:24:56",
        "E10": "2026-05-30 06:51:02",
        "SP98": "2026-05-28 09:17:39"
      }
    },
    {
      "id": "40320001",
      "lat": 43.635865491263,
      "lon": -0.37221614856684,
      "cp": "40320",
      "ville": "GEAUNE",
      "prix": {
        "Gazole": 0.00204,
        "E10": 0.0021000000000000003
      },
      "maj_gouv": {
        "Gazole": "2026-06-01 15:25:03",
        "E10": "2026-05-28 10:28:35"
      }
    },
    {
      "id": "40120001",
      "lat": 44.019,
      "lon": -0.313,
      "cp": "40120",
      "ville": "SARBAZAN",
      "prix": {
        "Gazole": 0.002059,
        "E85": 0.000855,
        "E10": 0.002099,
        "SP98": 0.002159
      },
      "maj_gouv": {
        "Gazole": "2026-05-28 13:59:15",
        "E85": "2026-05-28 13:59:16",
        "E10": "2026-05-28 13:59:16",
        "SP98": "2026-05-28 13:59:16"
      }
    },
    {
      "id": "40420003",
      "lat": 44.062,
      "lon": -0.662,
      "cp": "40420",
      "ville": "Garein",
      "prix": {
        "Gazole": 0.00225,
        "SP95": 0.00199
      },
      "maj_gouv": {
        "Gazole": "2026-06-01 00:12:06",
        "SP95": "2026-06-01 00:12:07"
      }
    },
    {
      "id": "40300005",
      "lat": 43.544,
      "lon": -1.075,
      "cp": "40300",
      "ville": "Cauneille",
      "prix": {
        "Gazole": 0.002039,
        "E85": 0.000798,
        "E10": 0.001999
      },
      "maj_gouv": {
        "Gazole": "2026-06-01 08:30:00",
        "E85": "2026-05-18 09:00:00",
        "E10": "2026-06-01 08:30:00"
      }
    },
    {
      "id": "40400004",
      "lat": 43.828,
      "lon": -0.805,
      "cp": "40400",
      "ville": "TARTAS",
      "prix": {
        "Gazole": 0.002039,
        "SP95": 0.002099,
        "SP98": 0.002189
      },
      "maj_gouv": {
        "Gazole": "2026-06-01 16:42:20",
        "SP95": "2026-05-28 07:59:18",
        "SP98": "2026-05-08 08:24:28"
      }
    },
    {
      "id": "40300008",
      "lat": 43.547,
      "lon": -1.113,
      "cp": "40300",
      "ville": "Peyrehorade",
      "prix": {
        "Gazole": 0.00209
      },
      "maj_gouv": {
        "Gazole": "2026-05-30 07:33:59"
      }
    },
    {
      "id": "40330001",
      "lat": 43.593,
      "lon": -0.755,
      "cp": "40330",
      "ville": "AMOU",
      "prix": {
        "Gazole": 0.002105,
        "E10": 0.002059,
        "SP98": 0.002179
      },
      "maj_gouv": {
        "Gazole": "2026-05-26 13:30:58",
        "E10": "2026-05-26 13:30:58",
        "SP98": "2026-05-26 13:30:58"
      }
    },
    {
      "id": "40600002",
      "lat": 44.411,
      "lon": -1.169,
      "cp": "40600",
      "ville": "BISCARROSSE",
      "prix": {
        "Gazole": 0.002029,
        "SP95": 0.002159,
        "E10": 0.0019790000000000003,
        "SP98": 0.002189
      },
      "maj_gouv": {
        "Gazole": "2026-05-30 08:21:49",
        "SP95": "2026-05-21 19:59:00",
        "E10": "2026-06-01 08:21:00",
        "SP98": "2026-05-21 19:59:00"
      }
    },
    {
      "id": "40460001",
      "lat": 44.48127212,
      "lon": -1.07975102,
      "cp": "40460",
      "ville": "SANGUINET",
      "prix": {
        "Gazole": 0.002099,
        "SP95": 0.002099,
        "E85": 0.000798,
        "E10": 0.002059
      },
      "maj_gouv": {
        "Gazole": "2026-05-29 09:36:14",
        "SP95": "2026-05-29 09:36:15",
        "E85": "2026-05-29 09:36:15",
        "E10": "2026-05-29 09:36:15"
      }
    },
    {
      "id": "40660002",
      "lat": 43.850740460000004,
      "lon": -1.3549578500000001,
      "cp": "40660",
      "ville": "Moliets-et-Maa",
      "prix": {
        "Gazole": 0.002005,
        "E85": 0.0008539999999999999,
        "E10": 0.0019590000000000002,
        "SP98": 0.002179
      },
      "maj_gouv": {
        "Gazole": "2026-06-01 10:01:00",
        "E85": "2026-05-22 15:13:06",
        "E10": "2026-06-01 10:01:00",
        "SP98": "2026-05-22 15:13:06"
      }
    },
    {
      "id": "40800002",
      "lat": 43.73203,
      "lon": -0.26679,
      "cp": "40800",
      "ville": "Aire-sur-l'Adour",
      "prix": {
        "Gazole": 0.00207,
        "E85": 0.00085,
        "E10": 0.0020299999999999997,
        "SP98": 0.00215
      },
      "maj_gouv": {
        "Gazole": "2026-05-29 11:56:54",
        "E85": "2026-05-27 09:38:57",
        "E10": "2026-05-27 09:38:57",
        "SP98": "2026-05-27 09:38:57"
      }
    },
    {
      "id": "40400003",
      "lat": 43.860622025,
      "lon": -0.882638340499,
      "cp": "40400",
      "ville": "TARTAS",
      "prix": {
        "Gazole": 0.00199,
        "SP95": 0.002079,
        "E85": 0.000798,
        "E10": 0.0019399999999999999
      },
      "maj_gouv": {
        "Gazole": "2026-06-01 09:42:46",
        "SP95": "2026-05-28 09:23:10",
        "E85": "2026-05-22 10:40:08",
        "E10": "2026-06-01 09:42:46"
      }
    },
    {
      "id": "40280005",
      "lat": 43.876,
      "lon": -0.507,
      "cp": "40280",
      "ville": "Saint-Pierre-du-Mont",
      "prix": {
        "Gazole": 0.002007,
        "E85": 0.0007740000000000001,
        "E10": 0.001999,
        "SP98": 0.002058
      },
      "maj_gouv": {
        "Gazole": "2026-06-02 01:18:00",
        "E85": "2026-06-02 01:18:00",
        "E10": "2026-06-02 01:18:00",
        "SP98": "2026-06-02 01:18:00"
      }
    },
    {
      "id": "40260006",
      "lat": 43.928,
      "lon": -1.255,
      "cp": "40260",
      "ville": "LINXE",
      "prix": {
        "Gazole": 0.00199,
        "SP95": 0.0020350000000000004,
        "E10": 0.002003,
        "SP98": 0.002049
      },
      "maj_gouv": {
        "Gazole": "2026-06-02 01:17:00",
        "SP95": "2026-06-02 01:17:00",
        "E10": "2026-06-02 01:17:00",
        "SP98": "2026-06-02 01:17:00"
      }
    },
    {
      "id": "40100005",
      "lat": 43.692561158399,
      "lon": -1.0498232325563002,
      "cp": "40100",
      "ville": "Dax",
      "prix": {
        "Gazole": 0.00199,
        "E85": 0.000798,
        "E10": 0.001932,
        "SP98": 0.002096
      },
      "maj_gouv": {
        "Gazole": "2026-06-01 11:27:19",
        "E85": "2026-06-01 11:27:19",
        "E10": "2026-06-01 11:27:19",
        "SP98": "2026-06-01 11:27:19"
      }
    },
    {
      "id": "40310001",
      "lat": 43.98646,
      "lon": 0.00999000000001,
      "cp": "40310",
      "ville": "Gabarret",
      "prix": {
        "Gazole": 0.002049,
        "SP95": 0.0021190000000000002,
        "SP98": 0.002149
      },
      "maj_gouv": {
        "Gazole": "2026-05-30 15:10:28",
        "SP95": "2026-05-30 15:15:41",
        "SP98": "2026-05-30 15:10:29"
      }
    },
    {
      "id": "40390001",
      "lat": 43.543,
      "lon": -1.387,
      "cp": "40390",
      "ville": "SAINT-MARTIN-DE-SEIGNANX",
      "prix": {
        "Gazole": 0.0020459999999999996,
        "SP95": 0.002099,
        "E10": 0.001999,
        "SP98": 0.002184
      },
      "maj_gouv": {
        "Gazole": "2026-06-01 11:14:31",
        "SP95": "2026-06-01 11:14:31",
        "E10": "2026-06-01 11:14:31",
        "SP98": "2026-05-29 07:15:51"
      }
    },
    {
      "id": "40130004",
      "lat": 43.639,
      "lon": -1.426,
      "cp": "40130",
      "ville": "CAPBRETON",
      "prix": {
        "Gazole": 0.0020350000000000004,
        "E10": 0.002029,
        "SP98": 0.002157
      },
      "maj_gouv": {
        "Gazole": "2026-06-01 08:36:52",
        "E10": "2026-06-01 08:36:52",
        "SP98": "2026-05-28 15:10:48"
      }
    },
    {
      "id": "40420002",
      "lat": 44.106,
      "lon": -0.547,
      "cp": "40420",
      "ville": "LABRIT",
      "prix": {
        "Gazole": 0.002089,
        "E10": 0.00209,
        "SP98": 0.002214
      },
      "maj_gouv": {
        "Gazole": "2026-05-29 10:14:13",
        "E10": "2026-05-22 10:07:16",
        "SP98": "2026-05-04 14:37:22"
      }
    },
    {
      "id": "40190003",
      "lat": 43.885,
      "lon": -0.307,
      "cp": "40190",
      "ville": "VILLENEUVE-DE-MARSAN",
      "prix": {
        "Gazole": 0.0021520000000000003,
        "SP95": 0.00213,
        "SP98": 0.002218
      },
      "maj_gouv": {
        "Gazole": "2026-05-16 09:19:37",
        "SP95": "2026-05-21 11:25:22",
        "SP98": "2026-05-21 11:25:22"
      }
    },
    {
      "id": "40530003",
      "lat": 43.588,
      "lon": -1.429,
      "cp": "40530",
      "ville": "Labenne",
      "prix": {
        "Gazole": 0.002049,
        "SP95": 0.002049,
        "E10": 0.001999
      },
      "maj_gouv": {
        "Gazole": "2026-06-01 09:17:46",
        "SP95": "2026-06-01 09:17:46",
        "E10": "2026-06-01 09:17:47"
      }
    },
    {
      "id": "40370003",
      "lat": 43.918,
      "lon": -0.916,
      "cp": "40370",
      "ville": "Rion-des-Landes",
      "prix": {
        "Gazole": 0.00199,
        "E85": 0.000798,
        "E10": 0.0019399999999999999,
        "SP98": 0.002079
      },
      "maj_gouv": {
        "Gazole": "2026-06-02 01:16:00",
        "E85": "2026-06-02 01:16:00",
        "E10": "2026-06-02 01:16:00",
        "SP98": "2026-06-02 01:16:00"
      }
    },
    {
      "id": "40200001",
      "lat": 44.193,
      "lon": -1.229,
      "cp": "40200",
      "ville": "MIMIZAN",
      "prix": {
        "Gazole": 0.002099,
        "E85": 0.0008990000000000001,
        "E10": 0.00206,
        "SP98": 0.002179
      },
      "maj_gouv": {
        "Gazole": "2026-05-29 11:53:58",
        "E85": "2026-05-20 10:57:11",
        "E10": "2026-05-23 12:04:31",
        "SP98": "2026-05-26 11:06:31"
      }
    },
    {
      "id": "40230001",
      "lat": 43.666989042,
      "lon": -1.2853196366242001,
      "cp": "40230",
      "ville": "Saint-Vincent-de-Tyrosse",
      "prix": {
        "Gazole": 0.0019950000000000002,
        "E85": 0.000799,
        "GPLc": 0.00107,
        "E10": 0.0019619999999999998,
        "SP98": 0.0020670000000000003
      },
      "maj_gouv": {
        "Gazole": "2026-06-01 12:26:03",
        "E85": "2026-05-05 12:19:46",
        "GPLc": "2026-04-14 09:58:06",
        "E10": "2026-06-01 12:26:03",
        "SP98": "2026-06-01 12:26:41"
      }
    },
    {
      "id": "40150001",
      "lat": 43.67,
      "lon": -1.391,
      "cp": "40150",
      "ville": "SOORTS-HOSSEGOR",
      "prix": {
        "Gazole": 0.001999,
        "E85": 0.000799,
        "E10": 0.0019690000000000003,
        "SP98": 0.002069
      },
      "maj_gouv": {
        "Gazole": "2026-06-01 12:06:12",
        "E85": "2026-05-15 07:40:35",
        "E10": "2026-06-01 12:06:12",
        "SP98": "2026-06-01 12:06:13"
      }
    },
    {
      "id": "40270005",
      "lat": 43.78,
      "lon": -0.437,
      "cp": "40270",
      "ville": "Grenade-sur-l'Adour",
      "prix": {
        "Gazole": 0.0020350000000000004,
        "SP95": 0.00199
      },
      "maj_gouv": {
        "Gazole": "2026-06-01 06:59:35",
        "SP95": "2026-05-28 08:24:33"
      }
    },
    {
      "id": "40410004",
      "lat": 44.362860807475,
      "lon": -0.85169803376746,
      "cp": "40410",
      "ville": "Saugnacq-et-Muret",
      "prix": {
        "Gazole": 0.0023599999999999997,
        "GPLc": 0.00106,
        "E10": 0.00221,
        "SP98": 0.00231
      },
      "maj_gouv": {
        "Gazole": "2026-05-29 06:00:00",
        "GPLc": "2026-05-29 06:00:00",
        "E10": "2026-05-29 06:00:00",
        "SP98": "2026-05-29 06:00:00"
      }
    },
    {
      "id": "40240008",
      "lat": 43.977,
      "lon": -0.236,
      "cp": "40240",
      "ville": "Saint Justin",
      "prix": {
        "Gazole": 0.002019,
        "SP95": 0.002049,
        "SP98": 0.002139
      },
      "maj_gouv": {
        "Gazole": "2026-06-01 15:14:56",
        "SP95": "2026-06-01 15:14:56",
        "SP98": "2026-06-01 15:14:56"
      }
    },
    {
      "id": "40160004",
      "lat": 44.327,
      "lon": -0.944,
      "cp": "40160",
      "ville": "Ychoux",
      "prix": {
        "Gazole": 0.00225
      },
      "maj_gouv": {
        "Gazole": "2026-06-01 06:30:00"
      }
    },
    {
      "id": "40630004",
      "lat": 44.14717263889101,
      "lon": -0.73739597895759,
      "cp": "40630",
      "ville": "Sabres",
      "prix": {},
      "maj_gouv": {}
    },
    {
      "id": "40660005",
      "lat": 43.795363098096,
      "lon": -1.3901242711202,
      "cp": "40660",
      "ville": "MESSANGES",
      "prix": {
        "Gazole": 0.001999,
        "E10": 0.0019590000000000002,
        "SP98": 0.002099
      },
      "maj_gouv": {
        "Gazole": "2026-06-01 18:40:40",
        "E10": "2026-06-01 18:40:40",
        "SP98": "2026-05-30 12:49:10"
      }
    },
    {
      "id": "40530002",
      "lat": 43.586,
      "lon": -1.42,
      "cp": "40530",
      "ville": "Labenne",
      "prix": {
        "Gazole": 0.002316,
        "GPLc": 0.0010789999999999999,
        "E10": 0.0021070000000000004,
        "SP98": 0.0022069999999999998
      },
      "maj_gouv": {
        "Gazole": "2026-05-30 07:46:00",
        "GPLc": "2026-05-30 07:46:00",
        "E10": "2026-05-30 07:46:00",
        "SP98": "2026-05-30 07:46:00"
      }
    },
    {
      "id": "40530001",
      "lat": 43.587,
      "lon": -1.42,
      "cp": "40530",
      "ville": "Labenne",
      "prix": {
        "Gazole": 0.0023740000000000002,
        "GPLc": 0.0010789999999999999,
        "E10": 0.002163,
        "SP98": 0.002263
      },
      "maj_gouv": {
        "Gazole": "2026-05-27 07:51:00",
        "GPLc": "2026-05-27 07:51:00",
        "E10": "2026-05-27 07:51:00",
        "SP98": "2026-05-27 07:51:00"
      }
    },
    {
      "id": "40700003",
      "lat": 43.637,
      "lon": -0.614,
      "cp": "40700",
      "ville": "HAGETMAU",
      "prix": {
        "Gazole": 0.002045,
        "E85": 0.000853,
        "GPLc": 0.001185,
        "E10": 0.002018,
        "SP98": 0.0021520000000000003
      },
      "maj_gouv": {
        "Gazole": "2026-05-29 09:20:15",
        "E85": "2026-04-15 09:15:48",
        "GPLc": "2026-04-15 09:15:49",
        "E10": "2026-05-28 09:05:00",
        "SP98": "2026-05-28 09:05:00"
      }
    },
    {
      "id": "40280008",
      "lat": 43.877,
      "lon": -0.506,
      "cp": "40280",
      "ville": "SAINT PIERRE DU MONT",
      "prix": {
        "Gazole": 0.0020350000000000004,
        "GPLc": 0.00107,
        "E10": 0.001983,
        "SP98": 0.00199
      },
      "maj_gouv": {
        "Gazole": "2026-06-01 05:12:12",
        "GPLc": "2026-06-01 05:12:12",
        "E10": "2026-06-01 05:12:12",
        "SP98": "2026-06-01 05:12:12"
      }
    },
    {
      "id": "40220006",
      "lat": 43.526,
      "lon": -1.466,
      "cp": "40220",
      "ville": "Tarnos",
      "prix": {
        "Gazole": 0.0019890000000000003,
        "E85": 0.0008449999999999999,
        "E10": 0.001952,
        "SP98": 0.002079
      },
      "maj_gouv": {
        "Gazole": "2026-06-01 06:13:34",
        "E85": "2026-06-01 06:13:34",
        "E10": "2026-06-01 06:13:34",
        "SP98": "2026-06-01 11:19:29"
      }
    },
    {
      "id": "40800007",
      "lat": 43.732,
      "lon": -0.239,
      "cp": "40800",
      "ville": "Aire-sur-l'Adour",
      "prix": {
        "Gazole": 0.002245,
        "E85": 0.000998,
        "E10": 0.00199,
        "SP98": 0.00199
      },
      "maj_gouv": {
        "Gazole": "2026-06-02 00:01:00",
        "E85": "2026-06-02 00:01:00",
        "E10": "2026-06-02 00:01:00",
        "SP98": "2026-06-02 00:01:00"
      }
    },
    {
      "id": "40400002",
      "lat": 43.833,
      "lon": -0.808,
      "cp": "40400",
      "ville": "Carcarès-Sainte-Croix",
      "prix": {
        "Gazole": 0.002099,
        "SP95": 0.0019890000000000003,
        "GPLc": 0.0011
      },
      "maj_gouv": {
        "Gazole": "2026-06-01 07:32:46",
        "SP95": "2026-06-01 07:32:46",
        "GPLc": "2026-06-01 07:32:46"
      }
    },
    {
      "id": "40990004",
      "lat": 43.726,
      "lon": -1.072,
      "cp": "40990",
      "ville": "Saint-Paul-lès-Dax",
      "prix": {
        "Gazole": 0.00199,
        "E85": 0.000798,
        "E10": 0.001932,
        "SP98": 0.002096
      },
      "maj_gouv": {
        "Gazole": "2026-06-01 12:39:22",
        "E85": "2026-05-15 09:07:04",
        "E10": "2026-06-01 12:39:22",
        "SP98": "2026-06-01 12:39:22"
      }
    },
    {
      "id": "40600005",
      "lat": 44.44134,
      "lon": -1.241538,
      "cp": "40600",
      "ville": "biscarrosse",
      "prix": {
        "Gazole": 0.00225,
        "SP95": 0.00199
      },
      "maj_gouv": {
        "Gazole": "2026-04-08 08:50:58",
        "SP95": "2026-04-08 08:50:58"
      }
    },
    {
      "id": "40280009",
      "lat": 43.886,
      "lon": -0.52,
      "cp": "40280",
      "ville": "Saint-Pierre-du-Mont",
      "prix": {
        "Gazole": 0.002299,
        "SP95": 0.002269,
        "E10": 0.002269
      },
      "maj_gouv": {
        "Gazole": "2026-05-29 10:29:01",
        "SP95": "2026-05-29 10:29:01",
        "E10": "2026-05-29 10:29:01"
      }
    }
  ]
}