{
  "departement": "28",
  "date": "2026-06-02",
  "stations": [
    {
      "id": "28330003",
      "lat": 48.194,
      "lon": 0.899,
      "cp": "28330",
      "ville": "Authon-du-Perche",
      "prix": {
        "Gazole": 0.002269,
        "SP95": 0.002139,
        "SP98": 0.002219
      },
      "maj_gouv": {
        "Gazole": "2026-05-07 08:05:19",
        "SP95": "2026-05-07 08:05:20",
        "SP98": "2026-05-07 08:05:20"
      }
    },
    {
      "id": "28700004",
      "lat": 48.478,
      "lon": 1.768,
      "cp": "28700",
      "ville": "AUNEAU",
      "prix": {
        "Gazole": 0.001938,
        "SP95": 0.002018,
        "E85": 0.000769,
        "E10": 0.0019119999999999999,
        "SP98": 0.002079
      },
      "maj_gouv": {
        "Gazole": "2026-05-30 11:15:00",
        "SP95": "2026-05-30 11:15:00",
        "E85": "2026-05-30 11:15:00",
        "E10": "2026-05-30 11:15:00",
        "SP98": "2026-05-30 11:15:00"
      }
    },
    {
      "id": "28210003",
      "lat": 48.65,
      "lon": 1.538,
      "cp": "28210",
      "ville": "Lormaye",
      "prix": {
        "Gazole": 0.0020350000000000004,
        "E10": 0.00199,
        "SP98": 0.00199
      },
      "maj_gouv": {
        "Gazole": "2026-06-01 10:16:52",
        "E10": "2026-06-01 10:16:52",
        "SP98": "2026-06-01 10:16:52"
      }
    },
    {
      "id": "28500001",
      "lat": 48.717,
      "lon": 1.369,
      "cp": "28500",
      "ville": "Vernouillet",
      "prix": {
        "Gazole": 0.001942,
        "E85": 0.000769,
        "E10": 0.001953,
        "SP98": 0.0020350000000000004
      },
      "maj_gouv": {
        "Gazole": "2026-06-01 12:40:00",
        "E85": "2026-06-01 12:40:00",
        "E10": "2026-06-01 12:40:00",
        "SP98": "2026-06-01 12:40:00"
      }
    },
    {
      "id": "28160004",
      "lat": 48.24,
      "lon": 1.083,
      "cp": "28160",
      "ville": "Dampierre-sous-Brou",
      "prix": {
        "Gazole": 0.00225,
        "E10": 0.002169,
        "SP98": 0.002269
      },
      "maj_gouv": {
        "Gazole": "2026-05-30 07:46:00",
        "E10": "2026-05-30 07:46:00",
        "SP98": "2026-05-30 07:46:00"
      }
    },
    {
      "id": "28220002",
      "lat": 47.99,
      "lon": 1.256,
      "cp": "28220",
      "ville": "Cloyes-sur-le-Loir",
      "prix": {
        "Gazole": 0.0019590000000000002,
        "SP95": 0.001939,
        "SP98": 0.001999
      },
      "maj_gouv": {
        "Gazole": "2026-06-01 14:42:11",
        "SP95": "2026-06-01 14:42:11",
        "SP98": "2026-06-01 14:42:12"
      }
    },
    {
      "id": "28000011",
      "lat": 48.45,
      "lon": 1.506,
      "cp": "28000",
      "ville": "chartres",
      "prix": {
        "Gazole": 0.001975,
        "GPLc": 0.000999,
        "E10": 0.001905,
        "SP98": 0.00199
      },
      "maj_gouv": {
        "Gazole": "2026-06-02 00:01:00",
        "GPLc": "2026-06-02 00:01:00",
        "E10": "2026-06-02 00:01:00",
        "SP98": "2026-06-02 00:01:00"
      }
    },
    {
      "id": "28400004",
      "lat": 48.331,
      "lon": 0.805,
      "cp": "28400",
      "ville": "Nogent-le-Rotrou",
      "prix": {
        "Gazole": 0.0019690000000000003,
        "E85": 0.0007790000000000001,
        "GPLc": 0.001055,
        "E10": 0.001949,
        "SP98": 0.002089
      },
      "maj_gouv": {
        "Gazole": "2026-06-01 14:56:03",
        "E85": "2026-06-01 14:56:03",
        "GPLc": "2026-06-01 08:55:49",
        "E10": "2026-06-01 14:56:03",
        "SP98": "2026-06-01 14:56:03"
      }
    },
    {
      "id": "28190003",
      "lat": 48.45,
      "lon": 1.254,
      "cp": "28190",
      "ville": "Courville-sur-Eure",
      "prix": {
        "Gazole": 0.0019950000000000002,
        "E10": 0.001965,
        "SP98": 0.0020350000000000004
      },
      "maj_gouv": {
        "Gazole": "2026-05-29 09:00:00",
        "E10": "2026-05-29 09:00:00",
        "SP98": "2026-05-29 09:00:00"
      }
    },
    {
      "id": "28500011",
      "lat": 48.677003,
      "lon": 1.331272,
      "cp": "28500",
      "ville": "TREON",
      "prix": {
        "Gazole": 0.002065,
        "E85": 0.0008399999999999999,
        "E10": 0.0020099999999999996,
        "SP98": 0.00215
      },
      "maj_gouv": {
        "Gazole": "2026-05-27 06:57:15",
        "E85": "2026-05-27 06:57:15",
        "E10": "2026-05-27 06:57:15",
        "SP98": "2026-05-27 06:57:16"
      }
    },
    {
      "id": "28700005",
      "lat": 48.452057318886,
      "lon": 1.7537188857641999,
      "cp": "28700",
      "ville": "Roinville",
      "prix": {
        "Gazole": 0.002139,
        "E85": 0.0009649999999999999,
        "E10": 0.002079,
        "SP98": 0.002199
      },
      "maj_gouv": {
        "Gazole": "2026-05-29 23:50:00",
        "E85": "2026-05-29 23:50:00",
        "E10": "2026-05-29 23:50:00",
        "SP98": "2026-05-29 23:50:00"
      }
    },
    {
      "id": "28000010",
      "lat": 48.436,
      "lon": 1.521,
      "cp": "28000",
      "ville": "CHARTRES",
      "prix": {
        "Gazole": 0.0019690000000000003,
        "E10": 0.001898,
        "SP98": 0.00199
      },
      "maj_gouv": {
        "Gazole": "2026-06-02 00:01:00",
        "E10": "2026-06-02 00:01:00",
        "SP98": "2026-06-02 00:01:00"
      }
    },
    {
      "id": "28320003",
      "lat": 48.532295395999995,
      "lon": 1.68398622791,
      "cp": "28320",
      "ville": "GALLARDON",
      "prix": {
        "Gazole": 0.002112,
        "SP95": 0.00213,
        "SP98": 0.00219
      },
      "maj_gouv": {
        "Gazole": "2026-05-18 13:27:47",
        "SP95": "2026-05-18 13:27:47",
        "SP98": "2026-05-18 13:27:47"
      }
    },
    {
      "id": "28200002",
      "lat": 48.062,
      "lon": 1.335,
      "cp": "28200",
      "ville": "Châteaudun",
      "prix": {
        "Gazole": 0.0020350000000000004
      },
      "maj_gouv": {
        "Gazole": "2026-06-01 06:01:33"
      }
    },
    {
      "id": "28160003",
      "lat": 48.209,
      "lon": 1.178,
      "cp": "28160",
      "ville": "BROU",
      "prix": {
        "Gazole": 0.00225,
        "E10": 0.00199
      },
      "maj_gouv": {
        "Gazole": "2026-06-01 08:08:22",
        "E10": "2026-06-01 08:08:23"
      }
    },
    {
      "id": "28500012",
      "lat": 48.732046455851,
      "lon": 1.341092847969,
      "cp": "28500",
      "ville": "VERNOUILLET",
      "prix": {
        "Gazole": 0.00199,
        "E85": 0.00095,
        "E10": 0.00198,
        "SP98": 0.0021000000000000003
      },
      "maj_gouv": {
        "Gazole": "2026-05-29 16:41:42",
        "E85": "2026-05-29 16:41:42",
        "E10": "2026-05-29 16:41:43",
        "SP98": "2026-05-29 16:41:43"
      }
    },
    {
      "id": "28310010",
      "lat": 48.275,
      "lon": 1.856,
      "cp": "28310",
      "ville": "Fresnay-l'Évêque",
      "prix": {
        "Gazole": 0.0022919999999999998,
        "E10": 0.0023079999999999997,
        "SP98": 0.002458
      },
      "maj_gouv": {
        "Gazole": "2026-06-01 13:00:00",
        "E10": "2026-06-01 13:00:00",
        "SP98": "2026-06-01 13:00:00"
      }
    },
    {
      "id": "28130001",
      "lat": 48.58726,
      "lon": 1.57307,
      "cp": "28130",
      "ville": "PIERRES",
      "prix": {
        "Gazole": 0.0019950000000000002,
        "E85": 0.000812,
        "E10": 0.001978,
        "SP98": 0.002075
      },
      "maj_gouv": {
        "Gazole": "2026-05-29 09:09:01",
        "E85": "2026-05-29 09:09:02",
        "E10": "2026-05-29 09:09:02",
        "SP98": "2026-05-29 09:09:02"
      }
    },
    {
      "id": "28120003",
      "lat": 48.364,
      "lon": 1.33,
      "cp": "28120",
      "ville": "BAILLEAU-LE-PIN",
      "prix": {
        "Gazole": 0.002099,
        "E10": 0.002059,
        "SP98": 0.002179
      },
      "maj_gouv": {
        "Gazole": "2026-05-29 07:20:35",
        "E10": "2026-05-29 07:20:35",
        "SP98": "2026-05-29 07:20:35"
      }
    },
    {
      "id": "28300004",
      "lat": 48.454,
      "lon": 1.465,
      "cp": "28300",
      "ville": "MAINVILLIERS",
      "prix": {
        "Gazole": 0.001935,
        "E85": 0.000798,
        "E10": 0.001889,
        "SP98": 0.001994
      },
      "maj_gouv": {
        "Gazole": "2026-06-01 08:45:03",
        "E85": "2026-05-27 08:57:02",
        "E10": "2026-06-01 12:06:26",
        "SP98": "2026-06-01 12:06:26"
      }
    },
    {
      "id": "28300005",
      "lat": 48.473,
      "lon": 1.508,
      "cp": "28300",
      "ville": "CHAMPHOL",
      "prix": {
        "Gazole": 0.002062,
        "E10": 0.002036,
        "SP98": 0.002153
      },
      "maj_gouv": {
        "Gazole": "2026-05-27 09:41:24",
        "E10": "2026-05-27 09:41:24",
        "SP98": "2026-05-27 09:41:24"
      }
    },
    {
      "id": "28500006",
      "lat": 48.743,
      "lon": 1.425,
      "cp": "28500",
      "ville": "Cherisy",
      "prix": {
        "Gazole": 0.002049,
        "SP95": 0.002079,
        "SP98": 0.002129
      },
      "maj_gouv": {
        "Gazole": "2026-05-29 10:02:09",
        "SP95": "2026-05-29 10:02:10",
        "SP98": "2026-05-29 10:02:10"
      }
    },
    {
      "id": "28310011",
      "lat": 48.1962525,
      "lon": 1.9367845626934999,
      "cp": "28310",
      "ville": "Toury",
      "prix": {
        "Gazole": 0.0019690000000000003,
        "E85": 0.000759,
        "E10": 0.001949,
        "SP98": 0.002069
      },
      "maj_gouv": {
        "Gazole": "2026-06-01 15:02:30",
        "E85": "2026-05-30 11:40:35",
        "E10": "2026-06-01 15:02:30",
        "SP98": "2026-06-01 15:02:30"
      }
    },
    {
      "id": "28480001",
      "lat": 48.313,
      "lon": 0.991,
      "cp": "28480",
      "ville": "Thiron-Gardais",
      "prix": {
        "Gazole": 0.00209,
        "SP95": 0.00196,
        "SP98": 0.00198
      },
      "maj_gouv": {
        "Gazole": "2026-05-30 00:17:54",
        "SP95": "2026-05-30 00:17:54",
        "SP98": "2026-05-30 00:17:54"
      }
    },
    {
      "id": "28300010",
      "lat": 48.468,
      "lon": 1.579,
      "cp": "28300",
      "ville": "Gasville-Oisème",
      "prix": {
        "Gazole": 0.0022879999999999997,
        "E10": 0.0023020000000000002,
        "SP98": 0.0024519999999999998
      },
      "maj_gouv": {
        "Gazole": "2026-06-01 13:00:00",
        "E10": "2026-06-01 13:00:00",
        "SP98": "2026-06-01 13:00:00"
      }
    },
    {
      "id": "28000009",
      "lat": 48.436,
      "lon": 1.52,
      "cp": "28000",
      "ville": "CHARTRES",
      "prix": {
        "Gazole": 0.002064,
        "E85": 0.000829,
        "E10": 0.0019850000000000002,
        "SP98": 0.00199
      },
      "maj_gouv": {
        "Gazole": "2026-06-02 00:01:00",
        "E85": "2026-06-02 00:01:00",
        "E10": "2026-06-02 00:01:00",
        "SP98": "2026-06-02 00:01:00"
      }
    },
    {
      "id": "28000007",
      "lat": 48.4324014794,
      "lon": 1.49271484815,
      "cp": "28000",
      "ville": "CHARTRES",
      "prix": {
        "Gazole": 0.001935,
        "SP95": 0.0019399999999999999,
        "E85": 0.000798,
        "E10": 0.001889,
        "SP98": 0.001994
      },
      "maj_gouv": {
        "Gazole": "2026-06-01 11:18:17",
        "SP95": "2026-06-01 11:18:17",
        "E85": "2026-06-01 11:18:17",
        "E10": "2026-06-01 11:18:17",
        "SP98": "2026-06-01 11:18:17"
      }
    },
    {
      "id": "28270003",
      "lat": 48.69,
      "lon": 1.079,
      "cp": "28270",
      "ville": "Brezolles",
      "prix": {
        "Gazole": 0.002129,
        "SP95": 0.002139,
        "SP98": 0.002199
      },
      "maj_gouv": {
        "Gazole": "2026-05-23 07:14:28",
        "SP95": "2026-05-23 07:14:28",
        "SP98": "2026-05-23 07:14:29"
      }
    },
    {
      "id": "28400005",
      "lat": 48.306,
      "lon": 0.808,
      "cp": "28400",
      "ville": "Nogent-le-Rotrou",
      "prix": {
        "Gazole": 0.002068,
        "E10": 0.00199
      },
      "maj_gouv": {
        "Gazole": "2026-06-01 19:26:23",
        "E10": "2026-06-01 19:26:23"
      }
    },
    {
      "id": "28500010",
      "lat": 48.730673127189,
      "lon": 1.3374733095697,
      "cp": "28500",
      "ville": "VERNOUILLET",
      "prix": {
        "Gazole": 0.0019399999999999999,
        "SP95": 0.0020499999999999997,
        "SP98": 0.0020800000000000003
      },
      "maj_gouv": {
        "Gazole": "2026-06-01 22:10:07",
        "SP95": "2026-06-01 22:10:07",
        "SP98": "2026-06-01 22:10:08"
      }
    },
    {
      "id": "28300008",
      "lat": 48.437,
      "lon": 1.424,
      "cp": "28300",
      "ville": "AMILLY",
      "prix": {
        "Gazole": 0.001977,
        "E85": 0.000825,
        "E10": 0.001913
      },
      "maj_gouv": {
        "Gazole": "2026-06-02 00:01:00",
        "E85": "2026-06-02 00:01:00",
        "E10": "2026-06-02 00:01:00"
      }
    },
    {
      "id": "28150001",
      "lat": 48.268,
      "lon": 1.632,
      "cp": "28150",
      "ville": "VOVES",
      "prix": {
        "Gazole": 0.002039,
        "E10": 0.002009,
        "SP98": 0.002089
      },
      "maj_gouv": {
        "Gazole": "2026-05-28 11:12:36",
        "E10": "2026-05-28 11:12:36",
        "SP98": "2026-05-28 11:12:37"
      }
    },
    {
      "id": "28310002",
      "lat": 48.198,
      "lon": 1.889,
      "cp": "28310",
      "ville": "Janville",
      "prix": {
        "Gazole": 0.0020350000000000004,
        "SP95": 0.00199
      },
      "maj_gouv": {
        "Gazole": "2026-06-01 08:31:22",
        "SP95": "2026-06-01 08:31:22"
      }
    },
    {
      "id": "28000001",
      "lat": 48.451,
      "lon": 1.516,
      "cp": "28000",
      "ville": "CHARTRES",
      "prix": {
        "Gazole": 0.0019479999999999999,
        "SP95": 0.001991,
        "E85": 0.000798,
        "GPLc": 0.000989,
        "E10": 0.001928,
        "SP98": 0.002064
      },
      "maj_gouv": {
        "Gazole": "2026-06-01 09:14:59",
        "SP95": "2026-06-01 09:15:00",
        "E85": "2026-06-01 09:15:00",
        "GPLc": "2026-06-01 09:15:00",
        "E10": "2026-06-01 09:15:00",
        "SP98": "2026-06-01 09:08:35"
      }
    },
    {
      "id": "28500007",
      "lat": 48.748,
      "lon": 1.271,
      "cp": "28500",
      "ville": "Vert-en-Drouais",
      "prix": {
        "Gazole": 0.002072,
        "E85": 0.0008990000000000001,
        "GPLc": 0.001001,
        "E10": 0.00199,
        "SP98": 0.00199
      },
      "maj_gouv": {
        "Gazole": "2026-06-02 00:01:00",
        "E85": "2026-06-02 00:01:00",
        "GPLc": "2026-06-02 00:01:00",
        "E10": "2026-06-02 00:01:00",
        "SP98": "2026-06-02 00:01:00"
      }
    },
    {
      "id": "28120002",
      "lat": 48.305,
      "lon": 1.257,
      "cp": "28120",
      "ville": "ILLIERS-COMBRAY",
      "prix": {
        "Gazole": 0.001949,
        "E85": 0.000798,
        "GPLc": 0.001139,
        "E10": 0.001899,
        "SP98": 0.0019890000000000003
      },
      "maj_gouv": {
        "Gazole": "2026-05-30 09:21:46",
        "E85": "2026-05-15 11:57:50",
        "GPLc": "2026-05-06 13:05:42",
        "E10": "2026-05-30 09:21:46",
        "SP98": "2026-05-29 10:49:25"
      }
    },
    {
      "id": "28170001",
      "lat": 48.577,
      "lon": 1.239,
      "cp": "28170",
      "ville": "THIMERT-GâTELLES",
      "prix": {
        "Gazole": 0.002084,
        "E10": 0.0020350000000000004,
        "SP98": 0.002159
      },
      "maj_gouv": {
        "Gazole": "2026-05-27 11:03:35",
        "E10": "2026-05-27 11:03:35",
        "SP98": "2026-05-27 11:03:35"
      }
    },
    {
      "id": "28130003",
      "lat": 48.58,
      "lon": 1.57,
      "cp": "28130",
      "ville": "Maintenon",
      "prix": {
        "Gazole": 0.002039,
        "E85": 0.000798,
        "E10": 0.002009,
        "SP98": 0.0021190000000000002
      },
      "maj_gouv": {
        "Gazole": "2026-05-29 08:19:31",
        "E85": "2026-05-21 19:11:53",
        "E10": "2026-05-29 08:19:31",
        "SP98": "2026-05-29 08:19:32"
      }
    },
    {
      "id": "28350001",
      "lat": 48.767,
      "lon": 1.196,
      "cp": "28350",
      "ville": "SAINT-LUBIN-DES-JONCHERETS",
      "prix": {
        "Gazole": 0.0019590000000000002,
        "E10": 0.002049,
        "SP98": 0.0020350000000000004
      },
      "maj_gouv": {
        "Gazole": "2026-06-01 14:00:00",
        "E10": "2026-06-01 14:00:00",
        "SP98": "2026-06-01 14:00:00"
      }
    },
    {
      "id": "28100002",
      "lat": 48.737,
      "lon": 1.351,
      "cp": "28100",
      "ville": "DREUX",
      "prix": {
        "Gazole": 0.001958,
        "E10": 0.001968,
        "SP98": 0.002045
      },
      "maj_gouv": {
        "Gazole": "2026-06-01 09:39:05",
        "E10": "2026-06-01 09:39:05",
        "SP98": "2026-06-01 09:39:06"
      }
    },
    {
      "id": "28630001",
      "lat": 48.406,
      "lon": 1.491,
      "cp": "28630",
      "ville": "Morancez",
      "prix": {
        "Gazole": 0.00209,
        "E10": 0.0020350000000000004,
        "SP98": 0.002156
      },
      "maj_gouv": {
        "Gazole": "2026-05-21 08:10:21",
        "E10": "2026-05-21 08:10:21",
        "SP98": "2026-05-21 08:10:22"
      }
    },
    {
      "id": "28310006",
      "lat": 48.197,
      "lon": 1.892,
      "cp": "28310",
      "ville": "Janville",
      "prix": {
        "Gazole": 0.002049,
        "E10": 0.00199,
        "SP98": 0.002099
      },
      "maj_gouv": {
        "Gazole": "2026-05-28 10:35:38",
        "E10": "2026-05-28 10:35:38",
        "SP98": "2026-05-28 10:35:38"
      }
    },
    {
      "id": "28100003",
      "lat": 48.748,
      "lon": 1.344,
      "cp": "28100",
      "ville": "DREUX",
      "prix": {
        "Gazole": 0.0019590000000000002,
        "GPLc": 0.000989,
        "E10": 0.0019690000000000003,
        "SP98": 0.0020459999999999996
      },
      "maj_gouv": {
        "Gazole": "2026-06-01 10:01:40",
        "GPLc": "2026-06-01 10:01:40",
        "E10": "2026-06-01 10:01:40",
        "SP98": "2026-06-01 10:01:41"
      }
    },
    {
      "id": "28600002",
      "lat": 48.41,
      "lon": 1.463,
      "cp": "28630",
      "ville": "Barjouville",
      "prix": {
        "Gazole": 0.001929,
        "SP95": 0.0019590000000000002,
        "E10": 0.001899,
        "SP98": 0.0019790000000000003
      },
      "maj_gouv": {
        "Gazole": "2026-06-01 09:06:28",
        "SP95": "2026-05-30 09:02:49",
        "E10": "2026-05-30 09:02:49",
        "SP98": "2026-05-30 09:02:49"
      }
    },
    {
      "id": "28190002",
      "lat": 48.475,
      "lon": 1.322,
      "cp": "28190",
      "ville": "FONTAINE-LA-GUYON",
      "prix": {
        "Gazole": 0.001999,
        "E85": 0.000799,
        "E10": 0.0019590000000000002,
        "SP98": 0.002059
      },
      "maj_gouv": {
        "Gazole": "2026-06-01 09:20:58",
        "E85": "2026-06-01 09:20:58",
        "E10": "2026-06-01 09:20:58",
        "SP98": "2026-06-01 09:20:58"
      }
    },
    {
      "id": "28160006",
      "lat": 48.215,
      "lon": 1.18,
      "cp": "28160",
      "ville": "BROU",
      "prix": {
        "Gazole": 0.0019690000000000003,
        "E85": 0.000798,
        "E10": 0.001909,
        "SP98": 0.002019
      },
      "maj_gouv": {
        "Gazole": "2026-06-01 09:35:58",
        "E85": "2026-06-01 09:35:58",
        "E10": "2026-06-01 09:35:58",
        "SP98": "2026-06-01 09:35:59"
      }
    },
    {
      "id": "28800001",
      "lat": 48.187,
      "lon": 1.391,
      "cp": "28800",
      "ville": "BONNEVAL",
      "prix": {
        "Gazole": 0.0020310000000000003,
        "E10": 0.002022,
        "SP98": 0.002146
      },
      "maj_gouv": {
        "Gazole": "2026-06-01 08:44:24",
        "E10": "2026-06-01 08:44:24",
        "SP98": "2026-06-01 08:44:24"
      }
    },
    {
      "id": "28800002",
      "lat": 48.1915025,
      "lon": 1.5789829000000002,
      "cp": "28800",
      "ville": "SANCHEVILLE",
      "prix": {
        "Gazole": 0.002179,
        "E10": 0.002139
      },
      "maj_gouv": {
        "Gazole": "2026-05-29 10:07:18",
        "E10": "2026-05-20 10:15:47"
      }
    },
    {
      "id": "28420001",
      "lat": 48.261,
      "lon": 0.913,
      "cp": "28480",
      "ville": "VICHèRES",
      "prix": {
        "Gazole": 0.00218,
        "E10": 0.00199,
        "SP98": 0.00199
      },
      "maj_gouv": {
        "Gazole": "2026-06-01 00:01:00",
        "E10": "2026-05-27 13:04:22",
        "SP98": "2026-05-27 13:04:22"
      }
    },
    {
      "id": "28160005",
      "lat": 48.218,
      "lon": 1.178,
      "cp": "28160",
      "ville": "BROU",
      "prix": {
        "Gazole": 0.0019690000000000003,
        "E85": 0.000798,
        "E10": 0.001909,
        "SP98": 0.002019
      },
      "maj_gouv": {
        "Gazole": "2026-06-01 11:55:08",
        "E85": "2026-05-21 10:24:30",
        "E10": "2026-06-01 11:55:08",
        "SP98": "2026-06-01 11:55:08"
      }
    },
    {
      "id": "28500008",
      "lat": 48.76,
      "lon": 1.24,
      "cp": "28500",
      "ville": "Vert-en-Drouais",
      "prix": {
        "Gazole": 0.001983,
        "E85": 0.000879,
        "E10": 0.001915,
        "SP98": 0.00199
      },
      "maj_gouv": {
        "Gazole": "2026-06-02 01:00:00",
        "E85": "2026-06-02 01:00:00",
        "E10": "2026-06-02 01:00:00",
        "SP98": "2026-06-02 01:00:00"
      }
    },
    {
      "id": "28310004",
      "lat": 48.272,
      "lon": 1.858,
      "cp": "28310",
      "ville": "FRESNAY-L'ÉVêQUE",
      "prix": {
        "Gazole": 0.0022919999999999998,
        "E10": 0.0023079999999999997,
        "SP98": 0.002458
      },
      "maj_gouv": {
        "Gazole": "2026-06-01 13:00:00",
        "E10": "2026-06-01 13:00:00",
        "SP98": "2026-06-01 13:00:00"
      }
    },
    {
      "id": "28210002",
      "lat": 48.639,
      "lon": 1.515,
      "cp": "28210",
      "ville": "NOGENT-LE-ROI",
      "prix": {
        "Gazole": 0.0020800000000000003,
        "E85": 0.000798,
        "E10": 0.002039,
        "SP98": 0.002149
      },
      "maj_gouv": {
        "Gazole": "2026-05-29 18:59:25",
        "E85": "2026-05-29 19:06:36",
        "E10": "2026-05-29 19:06:36",
        "SP98": "2026-05-29 19:06:36"
      }
    },
    {
      "id": "28400002",
      "lat": 48.331,
      "lon": 0.833,
      "cp": "28400",
      "ville": "Nogent-le-Rotrou",
      "prix": {
        "Gazole": 0.00196,
        "SP95": 0.001988,
        "E85": 0.0007650000000000001,
        "GPLc": 0.001055,
        "E10": 0.0019399999999999999,
        "SP98": 0.002149
      },
      "maj_gouv": {
        "Gazole": "2026-06-01 11:19:07",
        "SP95": "2026-05-30 09:01:05",
        "E85": "2026-05-28 08:52:27",
        "GPLc": "2026-04-23 14:34:16",
        "E10": "2026-06-01 11:19:07",
        "SP98": "2026-05-28 08:52:27"
      }
    },
    {
      "id": "28170002",
      "lat": 48.63119,
      "lon": 1.14832,
      "cp": "28170",
      "ville": "MAILLEBOIS",
      "prix": {
        "Gazole": 0.002049,
        "SP95": 0.001999,
        "SP98": 0.002039
      },
      "maj_gouv": {
        "Gazole": "2026-05-27 18:17:38",
        "SP95": "2026-05-27 18:17:38",
        "SP98": "2026-05-27 18:17:39"
      }
    },
    {
      "id": "28700001",
      "lat": 48.466,
      "lon": 1.758,
      "cp": "28700",
      "ville": "AUNEAU",
      "prix": {
        "Gazole": 0.002156,
        "E10": 0.0020369999999999997,
        "SP98": 0.002162
      },
      "maj_gouv": {
        "Gazole": "2026-05-27 10:42:04",
        "E10": "2026-05-28 10:06:33",
        "SP98": "2026-05-29 09:41:08"
      }
    },
    {
      "id": "28200005",
      "lat": 48.092,
      "lon": 1.339,
      "cp": "28200",
      "ville": "CHATEAUDUN",
      "prix": {
        "Gazole": 0.001999,
        "SP95": 0.002049,
        "E10": 0.001999,
        "SP98": 0.002089
      },
      "maj_gouv": {
        "Gazole": "2026-06-01 10:00:00",
        "SP95": "2026-06-01 10:00:00",
        "E10": "2026-06-01 10:00:00",
        "SP98": "2026-06-01 10:00:00"
      }
    },
    {
      "id": "28130002",
      "lat": 48.593,
      "lon": 1.678,
      "cp": "28130",
      "ville": "HANCHES",
      "prix": {
        "Gazole": 0.001925,
        "SP95": 0.001956,
        "E85": 0.000769,
        "GPLc": 0.0011690000000000001,
        "E10": 0.001898,
        "SP98": 0.001974
      },
      "maj_gouv": {
        "Gazole": "2026-06-01 11:50:00",
        "SP95": "2026-06-01 11:50:00",
        "E85": "2026-06-01 11:50:00",
        "GPLc": "2026-06-01 11:50:00",
        "E10": "2026-06-01 11:50:00",
        "SP98": "2026-06-01 11:50:00"
      }
    },
    {
      "id": "28260003",
      "lat": 48.85967,
      "lon": 1.42303,
      "cp": "28260",
      "ville": "Saussay",
      "prix": {
        "Gazole": 0.0021939999999999998,
        "SP95": 0.00211
      },
      "maj_gouv": {
        "Gazole": "2026-05-19 08:56:50",
        "SP95": "2026-05-19 08:56:50"
      }
    },
    {
      "id": "28300009",
      "lat": 48.467,
      "lon": 1.579,
      "cp": "28300",
      "ville": "Gasville-Oisème",
      "prix": {
        "Gazole": 0.0022879999999999997,
        "E10": 0.0023020000000000002,
        "SP98": 0.0024519999999999998
      },
      "maj_gouv": {
        "Gazole": "2026-06-01 13:00:00",
        "E10": "2026-06-01 13:00:00",
        "SP98": "2026-06-01 13:00:00"
      }
    },
    {
      "id": "28000002",
      "lat": 48.463,
      "lon": 1.48,
      "cp": "28000",
      "ville": "Chartres",
      "prix": {
        "Gazole": 0.0020350000000000004
      },
      "maj_gouv": {
        "Gazole": "2026-06-01 08:34:00"
      }
    },
    {
      "id": "28240006",
      "lat": 48.468,
      "lon": 1.01,
      "cp": "28240",
      "ville": "la loupe",
      "prix": {
        "Gazole": 0.001965,
        "E85": 0.000798,
        "E10": 0.0019450000000000001,
        "SP98": 0.002095
      },
      "maj_gouv": {
        "Gazole": "2026-05-30 11:53:20",
        "E85": "2026-05-15 08:11:45",
        "E10": "2026-05-30 11:53:21",
        "SP98": "2026-05-30 11:53:21"
      }
    },
    {
      "id": "28100006",
      "lat": 48.743,
      "lon": 1.39,
      "cp": "28100",
      "ville": "DREUX",
      "prix": {
        "Gazole": 0.001984,
        "GPLc": 0.000989,
        "E10": 0.001913
      },
      "maj_gouv": {
        "Gazole": "2026-06-02 00:01:00",
        "GPLc": "2026-06-02 00:01:00",
        "E10": "2026-06-02 00:01:00"
      }
    },
    {
      "id": "28260005",
      "lat": 48.861,
      "lon": 1.459,
      "cp": "28260",
      "ville": "ANET",
      "prix": {
        "Gazole": 0.0021219999999999998,
        "SP95": 0.0021309999999999996,
        "E10": 0.002094,
        "SP98": 0.002169
      },
      "maj_gouv": {
        "Gazole": "2026-06-02 04:43:32",
        "SP95": "2026-06-02 04:43:32",
        "E10": "2026-06-02 04:43:33",
        "SP98": "2026-06-02 04:43:33"
      }
    },
    {
      "id": "28190001",
      "lat": 48.424,
      "lon": 1.361,
      "cp": "28190",
      "ville": "Saint-Georges-sur-Eure",
      "prix": {
        "Gazole": 0.002049,
        "SP95": 0.002079,
        "E10": 0.002009,
        "SP98": 0.002129
      },
      "maj_gouv": {
        "Gazole": "2026-05-29 10:01:27",
        "SP95": "2026-05-29 10:01:28",
        "E10": "2026-05-29 10:01:28",
        "SP98": "2026-05-29 10:01:28"
      }
    },
    {
      "id": "28330002",
      "lat": 48.144,
      "lon": 0.972,
      "cp": "28330",
      "ville": "LA BAZOCHE-GOUET",
      "prix": {
        "Gazole": 0.0021070000000000004,
        "E10": 0.002069,
        "SP98": 0.002179
      },
      "maj_gouv": {
        "Gazole": "2026-05-27 11:47:03",
        "E10": "2026-05-27 11:47:03",
        "SP98": "2026-05-27 11:47:03"
      }
    },
    {
      "id": "28240005",
      "lat": 48.475,
      "lon": 1.026,
      "cp": "28240",
      "ville": "La Loupe",
      "prix": {
        "Gazole": 0.001965,
        "E10": 0.0019450000000000001,
        "SP98": 0.002095
      },
      "maj_gouv": {
        "Gazole": "2026-05-30 11:51:27",
        "E10": "2026-05-30 11:51:27",
        "SP98": "2026-05-30 11:51:27"
      }
    },
    {
      "id": "28200003",
      "lat": 48.067,
      "lon": 1.302,
      "cp": "28200",
      "ville": "Saint-Denis-les-Ponts",
      "prix": {
        "Gazole": 0.001999,
        "SP95": 0.002049,
        "E85": 0.000799,
        "E10": 0.001999,
        "SP98": 0.002089
      },
      "maj_gouv": {
        "Gazole": "2026-05-30 05:37:45",
        "SP95": "2026-05-30 05:37:46",
        "E85": "2026-05-21 07:12:03",
        "E10": "2026-05-30 05:37:46",
        "SP98": "2026-05-30 05:37:46"
      }
    },
    {
      "id": "28150002",
      "lat": 48.279,
      "lon": 1.623,
      "cp": "28150",
      "ville": "Voves",
      "prix": {
        "Gazole": 0.0019590000000000002,
        "E85": 0.000798,
        "E10": 0.0019190000000000001,
        "SP98": 0.002019
      },
      "maj_gouv": {
        "Gazole": "2026-06-01 06:48:28",
        "E85": "2026-05-27 11:10:59",
        "E10": "2026-06-01 06:48:28",
        "SP98": "2026-06-01 06:48:28"
      }
    },
    {
      "id": "28160008",
      "lat": 48.241,
      "lon": 1.084,
      "cp": "28160",
      "ville": "Frazé",
      "prix": {
        "Gazole": 0.0023740000000000002,
        "GPLc": 0.0013289999999999999,
        "E10": 0.002354,
        "SP98": 0.002534
      },
      "maj_gouv": {
        "Gazole": "2026-05-29 11:43:26",
        "GPLc": "2026-05-29 11:43:26",
        "E10": "2026-05-29 11:43:27",
        "SP98": "2026-05-29 11:43:26"
      }
    },
    {
      "id": "28600003",
      "lat": 48.417,
      "lon": 1.465,
      "cp": "28600",
      "ville": "Luisant",
      "prix": {
        "Gazole": 0.0020499999999999997,
        "E10": 0.001978,
        "SP98": 0.00199
      },
      "maj_gouv": {
        "Gazole": "2026-06-01 20:39:14",
        "E10": "2026-06-01 20:39:14",
        "SP98": "2026-06-01 14:09:33"
      }
    },
    {
      "id": "28250001",
      "lat": 48.57,
      "lon": 1.024,
      "cp": "28250",
      "ville": "Senonches",
      "prix": {
        "Gazole": 0.001999,
        "E10": 0.0019690000000000003,
        "SP98": 0.002089
      },
      "maj_gouv": {
        "Gazole": "2026-06-01 10:34:41",
        "E10": "2026-06-01 10:34:41",
        "SP98": "2026-06-01 10:34:41"
      }
    },
    {
      "id": "28290002",
      "lat": 48.103697000000004,
      "lon": 1.11963,
      "cp": "28290",
      "ville": "VAL D'YERRE",
      "prix": {
        "Gazole": 0.002009,
        "E10": 0.002099,
        "SP98": 0.002199
      },
      "maj_gouv": {
        "Gazole": "2026-05-30 13:40:29",
        "E10": "2026-05-18 10:57:34",
        "SP98": "2026-05-19 13:35:27"
      }
    },
    {
      "id": "28310012",
      "lat": 48.224837400000006,
      "lon": 1.9511478,
      "cp": "28310",
      "ville": "Oinville-Saint-Liphard",
      "prix": {
        "Gazole": 0.00215
      },
      "maj_gouv": {
        "Gazole": "2026-06-01 07:25:21"
      }
    }
  ]
}