{
  "departement": "18",
  "date": "2026-06-02",
  "stations": [
    {
      "id": "18200011",
      "lat": 46.752,
      "lon": 2.416,
      "cp": "18200",
      "ville": "FARGE ALLICHAMPS",
      "prix": {
        "Gazole": 0.002241,
        "GPLc": 0.001118,
        "E10": 0.002179,
        "SP98": 0.0022789999999999998
      },
      "maj_gouv": {
        "Gazole": "2026-05-30 07:46:00",
        "GPLc": "2026-05-30 07:46:00",
        "E10": "2026-05-30 07:46:00",
        "SP98": "2026-05-30 07:46:00"
      }
    },
    {
      "id": "18390004",
      "lat": 47.099,
      "lon": 2.489,
      "cp": "18390",
      "ville": "Saint-germain-du-puy",
      "prix": {
        "Gazole": 0.002079,
        "E85": 0.000798,
        "E10": 0.002049
      },
      "maj_gouv": {
        "Gazole": "2026-05-28 20:09:17",
        "E85": "2026-05-19 08:10:59",
        "E10": "2026-05-28 20:09:17"
      }
    },
    {
      "id": "18600003",
      "lat": 46.833,
      "lon": 2.938,
      "cp": "18600",
      "ville": "SANCOINS",
      "prix": {
        "Gazole": 0.0020310000000000003,
        "SP95": 0.0019890000000000003,
        "SP98": 0.002008
      },
      "maj_gouv": {
        "Gazole": "2026-05-30 05:52:03",
        "SP95": "2026-05-30 05:52:03",
        "SP98": "2026-05-30 05:52:03"
      }
    },
    {
      "id": "18000001",
      "lat": 47.103,
      "lon": 2.41,
      "cp": "18000",
      "ville": "BOURGES",
      "prix": {
        "Gazole": 0.00215,
        "SP95": 0.002099,
        "SP98": 0.0021000000000000003
      },
      "maj_gouv": {
        "Gazole": "2026-06-01 14:50:37",
        "SP95": "2026-06-01 14:50:37",
        "SP98": "2026-06-01 14:50:37"
      }
    },
    {
      "id": "18000021",
      "lat": 47.082,
      "lon": 2.365,
      "cp": "18000",
      "ville": "BOURGES",
      "prix": {
        "E85": 0.000798,
        "E10": 0.0019119999999999999,
        "SP98": 0.002047
      },
      "maj_gouv": {
        "E85": "2026-06-01 09:05:28",
        "E10": "2026-06-01 09:05:28",
        "SP98": "2026-06-01 09:05:28"
      }
    },
    {
      "id": "18200002",
      "lat": 46.726,
      "lon": 2.503,
      "cp": "18200",
      "ville": "Saint-Amand-Montrond",
      "prix": {
        "Gazole": 0.0020350000000000004,
        "SP95": 0.00199
      },
      "maj_gouv": {
        "Gazole": "2026-06-01 08:11:49",
        "SP95": "2026-06-01 08:11:49"
      }
    },
    {
      "id": "18700003",
      "lat": 47.498,
      "lon": 2.441,
      "cp": "18700",
      "ville": "AUBIGNY-SUR-NERE",
      "prix": {
        "E85": 0.000798,
        "E10": 0.002069,
        "SP98": 0.002159
      },
      "maj_gouv": {
        "E85": "2026-05-26 06:39:36",
        "E10": "2026-05-26 06:39:36",
        "SP98": "2026-05-26 06:39:36"
      }
    },
    {
      "id": "18000002",
      "lat": 47.093,
      "lon": 2.428,
      "cp": "18000",
      "ville": "BOURGES",
      "prix": {
        "Gazole": 0.001973,
        "SP95": 0.001977,
        "E10": 0.001928,
        "SP98": 0.002054
      },
      "maj_gouv": {
        "Gazole": "2026-06-01 08:56:31",
        "SP95": "2026-06-01 08:56:31",
        "E10": "2026-06-01 08:56:31",
        "SP98": "2026-06-01 08:56:31"
      }
    },
    {
      "id": "18200009",
      "lat": 46.724,
      "lon": 2.461,
      "cp": "18200",
      "ville": "Orval",
      "prix": {
        "Gazole": 0.0019950000000000002,
        "E85": 0.000798,
        "E10": 0.002095
      },
      "maj_gouv": {
        "Gazole": "2026-05-30 09:44:20",
        "E85": "2026-05-16 16:41:37",
        "E10": "2026-05-19 11:08:32"
      }
    },
    {
      "id": "18000016",
      "lat": 47.079,
      "lon": 2.389,
      "cp": "18000",
      "ville": "BOURGES",
      "prix": {
        "Gazole": 0.002019,
        "E10": 0.001999,
        "SP98": 0.002169
      },
      "maj_gouv": {
        "Gazole": "2026-06-01 10:54:26",
        "E10": "2026-06-01 10:54:26",
        "SP98": "2026-06-01 10:54:26"
      }
    },
    {
      "id": "18170001",
      "lat": 46.642,
      "lon": 2.284,
      "cp": "18170",
      "ville": "Le Châtelet",
      "prix": {
        "Gazole": 0.002235,
        "SP95": 0.002149,
        "SP98": 0.0022389999999999997
      },
      "maj_gouv": {
        "Gazole": "2026-05-27 15:00:03",
        "SP95": "2026-05-04 07:18:02",
        "SP98": "2026-05-04 07:18:02"
      }
    },
    {
      "id": "18190001",
      "lat": 46.86,
      "lon": 2.328,
      "cp": "18190",
      "ville": "CHATEAUNEUF-SUR-CHER",
      "prix": {
        "Gazole": 0.002069,
        "SP95": 0.002089,
        "E10": 0.002049
      },
      "maj_gouv": {
        "Gazole": "2026-05-29 07:30:00",
        "SP95": "2026-05-29 07:30:00",
        "E10": "2026-05-29 07:30:00"
      }
    },
    {
      "id": "18100016",
      "lat": 47.222,
      "lon": 2.069,
      "cp": "18100",
      "ville": "Vierzon",
      "prix": {
        "Gazole": 0.002075,
        "E10": 0.002019,
        "SP98": 0.002155
      },
      "maj_gouv": {
        "Gazole": "2026-05-29 12:31:01",
        "E10": "2026-05-29 12:31:01",
        "SP98": "2026-05-29 12:31:01"
      }
    },
    {
      "id": "18300006",
      "lat": 47.32481951378,
      "lon": 2.8238587922201996,
      "cp": "18300",
      "ville": "SANCERRE",
      "prix": {
        "Gazole": 0.002161,
        "SP95": 0.002069,
        "SP98": 0.0022010000000000003
      },
      "maj_gouv": {
        "Gazole": "2026-05-29 11:39:31",
        "SP95": "2026-05-29 11:39:31",
        "SP98": "2026-05-29 11:39:31"
      }
    },
    {
      "id": "18350001",
      "lat": 46.998,
      "lon": 2.818,
      "cp": "18350",
      "ville": "NéRONDES",
      "prix": {
        "Gazole": 0.002149,
        "E10": 0.002069,
        "SP98": 0.002169
      },
      "maj_gouv": {
        "Gazole": "2026-05-19 07:16:19",
        "E10": "2026-05-19 07:16:20",
        "SP98": "2026-05-19 07:16:20"
      }
    },
    {
      "id": "18110001",
      "lat": 47.210547849899996,
      "lon": 2.42521747273,
      "cp": "18110",
      "ville": "SAINT-MARTIN-D'AUXIGNY",
      "prix": {
        "Gazole": 0.00213,
        "SP95": 0.00212,
        "SP98": 0.0022
      },
      "maj_gouv": {
        "Gazole": "2026-05-22 15:29:54",
        "SP95": "2026-05-22 15:29:54",
        "SP98": "2026-05-22 15:29:54"
      }
    },
    {
      "id": "18000004",
      "lat": 47.07082,
      "lon": 2.37747,
      "cp": "18000",
      "ville": "BOURGES",
      "prix": {
        "Gazole": 0.002299,
        "SP95": 0.002179,
        "SP98": 0.002245
      },
      "maj_gouv": {
        "Gazole": "2026-05-06 08:02:36",
        "SP95": "2026-05-19 08:09:13",
        "SP98": "2026-05-19 08:09:13"
      }
    },
    {
      "id": "18140003",
      "lat": 47.156918787550005,
      "lon": 2.9110220760407004,
      "cp": "18140",
      "ville": "Sancergues",
      "prix": {},
      "maj_gouv": {}
    },
    {
      "id": "18240001",
      "lat": 47.505,
      "lon": 2.852,
      "cp": "18240",
      "ville": "Belleville-sur-Loire",
      "prix": {
        "Gazole": 0.002209,
        "E10": 0.002169,
        "SP98": 0.002229
      },
      "maj_gouv": {
        "Gazole": "2026-05-23 07:30:55",
        "E10": "2026-05-23 07:30:55",
        "SP98": "2026-05-23 07:30:55"
      }
    },
    {
      "id": "18100017",
      "lat": 47.239786394848004,
      "lon": 2.0920474189544,
      "cp": "18100",
      "ville": "Vierzon",
      "prix": {
        "Gazole": 0.001994,
        "E85": 0.000808,
        "GPLc": 0.0010789999999999999,
        "E10": 0.0019890000000000003,
        "SP98": 0.0021349999999999997
      },
      "maj_gouv": {
        "Gazole": "2026-06-01 08:24:36",
        "E85": "2026-05-26 08:36:42",
        "GPLc": "2026-05-16 05:56:46",
        "E10": "2026-06-01 08:24:36",
        "SP98": "2026-06-01 08:24:36"
      }
    },
    {
      "id": "18200005",
      "lat": 46.736,
      "lon": 2.491,
      "cp": "18200",
      "ville": "SAINT-AMAND-MONTROND",
      "prix": {
        "SP95": 0.002155,
        "E10": 0.002095,
        "SP98": 0.002199
      },
      "maj_gouv": {
        "SP95": "2026-05-19 11:07:22",
        "E10": "2026-05-19 11:07:22",
        "SP98": "2026-05-19 11:07:22"
      }
    },
    {
      "id": "18350003",
      "lat": 46.896,
      "lon": 2.729,
      "cp": "18350",
      "ville": "BLET",
      "prix": {
        "Gazole": 0.00225,
        "SP95": 0.00199
      },
      "maj_gouv": {
        "Gazole": "2026-06-01 07:48:23",
        "SP95": "2026-06-01 07:48:23"
      }
    },
    {
      "id": "18000011",
      "lat": 47.065077699022005,
      "lon": 2.39756900796,
      "cp": "18000",
      "ville": "Bourges",
      "prix": {
        "Gazole": 0.002075,
        "E10": 0.002018,
        "SP98": 0.002245
      },
      "maj_gouv": {
        "Gazole": "2026-06-01 10:03:19",
        "E10": "2026-06-01 10:03:19",
        "SP98": "2026-05-27 11:12:01"
      }
    },
    {
      "id": "18310003",
      "lat": 47.144119839116996,
      "lon": 1.8480204743653998,
      "cp": "18310",
      "ville": "Graçay",
      "prix": {
        "Gazole": 0.00212,
        "E10": 0.002055,
        "SP98": 0.0021880000000000003
      },
      "maj_gouv": {
        "Gazole": "2026-05-26 08:44:01",
        "E10": "2026-05-26 08:44:02",
        "SP98": "2026-05-26 08:44:02"
      }
    },
    {
      "id": "18520001",
      "lat": 47.032,
      "lon": 2.642,
      "cp": "18520",
      "ville": "AVORD",
      "prix": {
        "Gazole": 0.002009,
        "E85": 0.000798,
        "E10": 0.001955,
        "SP98": 0.0021680000000000002
      },
      "maj_gouv": {
        "Gazole": "2026-05-30 10:42:20",
        "E85": "2026-05-15 10:57:54",
        "E10": "2026-05-30 10:42:20",
        "SP98": "2026-05-26 18:14:31"
      }
    },
    {
      "id": "18000014",
      "lat": 47.067,
      "lon": 2.416,
      "cp": "18000",
      "ville": "Bourges",
      "prix": {
        "Gazole": 0.001954,
        "SP95": 0.002159,
        "E10": 0.001954,
        "SP98": 0.002245
      },
      "maj_gouv": {
        "Gazole": "2026-06-01 12:40:59",
        "SP95": "2026-05-19 11:54:06",
        "E10": "2026-06-01 12:40:59",
        "SP98": "2026-05-23 11:21:47"
      }
    },
    {
      "id": "18390003",
      "lat": 47.096,
      "lon": 2.441,
      "cp": "18390",
      "ville": "Saint-Germain-du-Puy",
      "prix": {},
      "maj_gouv": {}
    },
    {
      "id": "18100011",
      "lat": 47.227125767400004,
      "lon": 2.05324708161,
      "cp": "18100",
      "ville": "VIERZON",
      "prix": {},
      "maj_gouv": {}
    },
    {
      "id": "18500007",
      "lat": 47.095,
      "lon": 2.24,
      "cp": "18500",
      "ville": "Marmagne",
      "prix": {
        "Gazole": 0.00226,
        "E10": 0.002162,
        "SP98": 0.002267
      },
      "maj_gouv": {
        "Gazole": "2026-06-01 15:51:00",
        "E10": "2026-06-01 15:51:00",
        "SP98": "2026-06-01 15:51:00"
      }
    },
    {
      "id": "18410002",
      "lat": 47.549,
      "lon": 2.448,
      "cp": "18410",
      "ville": "ARGENT-SUR-SAULDRE",
      "prix": {
        "Gazole": 0.002109,
        "E85": 0.000758,
        "E10": 0.002069,
        "SP98": 0.002159
      },
      "maj_gouv": {
        "Gazole": "2026-05-27 09:29:31",
        "E85": "2026-05-27 09:29:31",
        "E10": "2026-05-27 09:29:31",
        "SP98": "2026-05-27 09:29:31"
      }
    },
    {
      "id": "18103001",
      "lat": 47.231,
      "lon": 2.088,
      "cp": "18100",
      "ville": "Vierzon",
      "prix": {
        "Gazole": 0.0019790000000000003,
        "SP95": 0.002065,
        "E10": 0.0019890000000000003,
        "SP98": 0.0021349999999999997
      },
      "maj_gouv": {
        "Gazole": "2026-06-01 11:54:20",
        "SP95": "2026-05-30 14:29:40",
        "E10": "2026-05-30 14:29:40",
        "SP98": "2026-05-30 14:29:40"
      }
    },
    {
      "id": "18240002",
      "lat": 47.421,
      "lon": 2.884,
      "cp": "18240",
      "ville": "Boulleret",
      "prix": {
        "Gazole": 0.00211,
        "E85": 0.00083,
        "E10": 0.00204
      },
      "maj_gouv": {
        "Gazole": "2026-06-01 23:50:00",
        "E85": "2026-05-27 23:50:00",
        "E10": "2026-06-01 23:50:00"
      }
    },
    {
      "id": "18370001",
      "lat": 46.555,
      "lon": 2.201,
      "cp": "18370",
      "ville": "Châteaumeillant",
      "prix": {
        "Gazole": 0.002059,
        "E85": 0.000798,
        "E10": 0.001999,
        "SP98": 0.002109
      },
      "maj_gouv": {
        "Gazole": "2026-05-29 14:25:58",
        "E85": "2026-05-19 17:13:46",
        "E10": "2026-05-29 14:25:58",
        "SP98": "2026-05-29 14:25:58"
      }
    },
    {
      "id": "18000017",
      "lat": 47.094,
      "lon": 2.391,
      "cp": "18000",
      "ville": "BOURGES",
      "prix": {
        "Gazole": 0.002109,
        "E85": 0.000855,
        "E10": 0.00199
      },
      "maj_gouv": {
        "Gazole": "2026-06-02 00:01:00",
        "E85": "2026-06-02 00:01:00",
        "E10": "2026-06-02 00:01:00"
      }
    },
    {
      "id": "18100015",
      "lat": 47.221473011548,
      "lon": 2.0652897018218,
      "cp": "18100",
      "ville": "VIERZON",
      "prix": {},
      "maj_gouv": {}
    },
    {
      "id": "18250002",
      "lat": 47.3,
      "lon": 2.517,
      "cp": "18250",
      "ville": "HENRICHEMONT",
      "prix": {
        "Gazole": 0.0019790000000000003,
        "E10": 0.001929,
        "SP98": 0.002039
      },
      "maj_gouv": {
        "Gazole": "2026-06-01 08:41:44",
        "E10": "2026-06-01 08:41:44",
        "SP98": "2026-06-01 08:41:44"
      }
    },
    {
      "id": "18150001",
      "lat": 46.951,
      "lon": 2.949,
      "cp": "18150",
      "ville": "LA GUERCHE SUR L AUBOIS",
      "prix": {
        "Gazole": 0.002195,
        "SP95": 0.002149,
        "SP98": 0.002199
      },
      "maj_gouv": {
        "Gazole": "2026-05-26 12:18:51",
        "SP95": "2026-05-26 12:18:51",
        "SP98": "2026-05-26 12:18:51"
      }
    },
    {
      "id": "18300001",
      "lat": 47.33375944,
      "lon": 2.8320786700000005,
      "cp": "18300",
      "ville": "SANCERRE",
      "prix": {
        "Gazole": 0.002075,
        "E85": 0.0008489999999999999,
        "SP98": 0.002109
      },
      "maj_gouv": {
        "Gazole": "2026-05-30 10:35:15",
        "E85": "2026-05-27 08:19:21",
        "SP98": "2026-05-30 08:31:51"
      }
    },
    {
      "id": "18000018",
      "lat": 47.072,
      "lon": 2.395,
      "cp": "18000",
      "ville": "BOURGES",
      "prix": {
        "Gazole": 0.00198
      },
      "maj_gouv": {
        "Gazole": "2026-06-02 00:01:00"
      }
    },
    {
      "id": "18800001",
      "lat": 47.082,
      "lon": 2.729,
      "cp": "18800",
      "ville": "BAUGY",
      "prix": {
        "Gazole": 0.002199,
        "SP95": 0.002129,
        "SP98": 0.002199
      },
      "maj_gouv": {
        "Gazole": "2026-05-22 00:00:00",
        "SP95": "2026-05-22 00:00:00",
        "SP98": "2026-04-15 00:00:00"
      }
    },
    {
      "id": "18160001",
      "lat": 46.753,
      "lon": 2.169,
      "cp": "18160",
      "ville": "LIGNIèRES",
      "prix": {
        "Gazole": 0.00209,
        "SP95": 0.0020729999999999998,
        "E10": 0.0020299999999999997,
        "SP98": 0.002156
      },
      "maj_gouv": {
        "Gazole": "2026-05-29 08:56:00",
        "SP95": "2026-05-29 08:56:00",
        "E10": "2026-05-29 08:56:00",
        "SP98": "2026-05-29 08:56:00"
      }
    },
    {
      "id": "18500008",
      "lat": 47.1501613,
      "lon": 2.2153735,
      "cp": "18500",
      "ville": "Mehun-sur-Yèvre",
      "prix": {
        "Gazole": 0.002099,
        "SP95": 0.002109,
        "SP98": 0.002175
      },
      "maj_gouv": {
        "Gazole": "2026-05-26 16:34:37",
        "SP95": "2026-05-20 12:24:21",
        "SP98": "2026-05-26 16:34:37"
      }
    },
    {
      "id": "18130002",
      "lat": 46.889,
      "lon": 2.569,
      "cp": "18130",
      "ville": "DUN-SUR-AURON",
      "prix": {
        "Gazole": 0.0020099999999999996,
        "E10": 0.002025,
        "SP98": 0.0021349999999999997
      },
      "maj_gouv": {
        "Gazole": "2026-06-01 10:19:18",
        "E10": "2026-06-01 10:19:18",
        "SP98": "2026-06-01 10:19:19"
      }
    },
    {
      "id": "18200001",
      "lat": 46.730351458895996,
      "lon": 2.4937252949649,
      "cp": "18200",
      "ville": "Saint-Amand-Montrond",
      "prix": {
        "Gazole": 0.001999,
        "SP95": 0.0020499999999999997,
        "SP98": 0.002199
      },
      "maj_gouv": {
        "Gazole": "2026-06-01 11:19:36",
        "SP95": "2026-06-01 11:19:36",
        "SP98": "2026-05-15 08:53:27"
      }
    },
    {
      "id": "18500004",
      "lat": 47.142,
      "lon": 2.243,
      "cp": "18500",
      "ville": "MEHUN-SUR-YèVRE",
      "prix": {
        "Gazole": 0.0019950000000000002,
        "E85": 0.000798,
        "E10": 0.001939,
        "SP98": 0.002099
      },
      "maj_gouv": {
        "Gazole": "2026-05-30 14:48:13",
        "E85": "2026-05-30 14:48:13",
        "E10": "2026-05-30 14:48:13",
        "SP98": "2026-05-30 14:48:14"
      }
    },
    {
      "id": "18600001",
      "lat": 46.836,
      "lon": 2.914,
      "cp": "18600",
      "ville": "SANCOINS",
      "prix": {
        "Gazole": 0.002199,
        "SP95": 0.002129,
        "SP98": 0.002199
      },
      "maj_gouv": {
        "Gazole": "2026-05-22 00:00:00",
        "SP95": "2026-05-22 00:00:00",
        "SP98": "2026-04-15 00:00:00"
      }
    },
    {
      "id": "18130001",
      "lat": 46.885,
      "lon": 2.569,
      "cp": "18130",
      "ville": "DUN-SUR-AURON",
      "prix": {
        "Gazole": 0.002199,
        "SP95": 0.002169,
        "SP98": 0.002199
      },
      "maj_gouv": {
        "Gazole": "2026-05-22 00:00:00",
        "SP95": "2026-05-22 00:00:00",
        "SP98": "2026-04-15 00:00:00"
      }
    },
    {
      "id": "18200007",
      "lat": 46.722,
      "lon": 2.532,
      "cp": "18200",
      "ville": "Saint-Amand-Montrond",
      "prix": {
        "Gazole": 0.001999,
        "SP95": 0.0020499999999999997,
        "SP98": 0.0021000000000000003
      },
      "maj_gouv": {
        "Gazole": "2026-05-30 09:05:50",
        "SP95": "2026-06-01 09:42:47",
        "SP98": "2026-06-01 09:42:47"
      }
    },
    {
      "id": "18330001",
      "lat": 47.31545,
      "lon": 2.25574,
      "cp": "18330",
      "ville": "NEUVY-SUR-BARANGEON",
      "prix": {
        "Gazole": 0.0022660000000000002,
        "SP95": 0.002267,
        "SP98": 0.002331
      },
      "maj_gouv": {
        "Gazole": "2026-05-22 13:49:54",
        "SP95": "2026-05-22 13:49:54",
        "SP98": "2026-05-22 13:49:54"
      }
    },
    {
      "id": "18220001",
      "lat": 47.195403353380996,
      "lon": 2.5666948514844,
      "cp": "18220",
      "ville": "LES AIX-D'ANGILLON",
      "prix": {
        "Gazole": 0.002099,
        "E85": 0.0008489999999999999,
        "E10": 0.002019,
        "SP98": 0.002149
      },
      "maj_gouv": {
        "Gazole": "2026-05-31 10:12:43",
        "E85": "2026-05-30 09:53:07",
        "E10": "2026-05-30 09:53:07",
        "SP98": "2026-05-30 09:53:07"
      }
    },
    {
      "id": "18570002",
      "lat": 47.063,
      "lon": 2.324,
      "cp": "18570",
      "ville": "La Chapelle-Saint-Ursin",
      "prix": {
        "Gazole": 0.002149,
        "SP95": 0.002149,
        "SP98": 0.002219
      },
      "maj_gouv": {
        "Gazole": "2026-05-22 07:30:46",
        "SP95": "2026-05-22 07:30:47",
        "SP98": "2026-05-22 07:30:47"
      }
    },
    {
      "id": "18700001",
      "lat": 47.475,
      "lon": 2.423,
      "cp": "18700",
      "ville": "Aubigny-sur-Nère",
      "prix": {
        "Gazole": 0.001986,
        "E10": 0.001942,
        "SP98": 0.002065
      },
      "maj_gouv": {
        "Gazole": "2026-06-01 15:54:37",
        "E10": "2026-06-01 15:54:37",
        "SP98": "2026-06-01 15:54:37"
      }
    },
    {
      "id": "18230004",
      "lat": 47.121,
      "lon": 2.37,
      "cp": "18230",
      "ville": "Saint-Doulchard",
      "prix": {
        "Gazole": 0.0019790000000000003,
        "E10": 0.0019219999999999999,
        "SP98": 0.002047
      },
      "maj_gouv": {
        "Gazole": "2026-06-01 05:09:56",
        "E10": "2026-06-01 05:09:56",
        "SP98": "2026-06-01 05:09:56"
      }
    },
    {
      "id": "18000019",
      "lat": 47.082,
      "lon": 2.384,
      "cp": "18000",
      "ville": "BOURGES",
      "prix": {
        "Gazole": 0.00198
      },
      "maj_gouv": {
        "Gazole": "2026-06-02 00:01:00"
      }
    },
    {
      "id": "18400004",
      "lat": 46.996,
      "lon": 2.249,
      "cp": "18400",
      "ville": "SAINT-FLORENT-SUR-CHER",
      "prix": {
        "Gazole": 0.001999,
        "SP95": 0.002079,
        "SP98": 0.00213
      },
      "maj_gouv": {
        "Gazole": "2026-06-01 08:53:18",
        "SP95": "2026-06-01 08:53:18",
        "SP98": "2026-06-01 08:53:18"
      }
    },
    {
      "id": "18300007",
      "lat": 47.334,
      "lon": 2.856,
      "cp": "18300",
      "ville": "ST SATUR",
      "prix": {
        "Gazole": 0.002075,
        "E85": 0.000798,
        "E10": 0.001956
      },
      "maj_gouv": {
        "Gazole": "2026-05-30 08:54:00",
        "E85": "2026-05-30 08:54:00",
        "E10": "2026-05-30 08:54:00"
      }
    },
    {
      "id": "18100010",
      "lat": 47.215,
      "lon": 2.109,
      "cp": "18100",
      "ville": "VIERZON",
      "prix": {
        "Gazole": 0.002079,
        "E10": 0.002019,
        "SP98": 0.002139
      },
      "maj_gouv": {
        "Gazole": "2026-06-01 10:51:50",
        "E10": "2026-06-01 10:51:50",
        "SP98": "2026-06-01 10:51:50"
      }
    },
    {
      "id": "18100008",
      "lat": 47.205,
      "lon": 2.072,
      "cp": "18100",
      "ville": "Vierzon",
      "prix": {
        "Gazole": 0.0019890000000000003,
        "SP95": 0.002079,
        "E85": 0.000798,
        "E10": 0.001999
      },
      "maj_gouv": {
        "Gazole": "2026-06-01 16:42:31",
        "SP95": "2026-05-29 11:22:58",
        "E85": "2026-05-28 11:04:39",
        "E10": "2026-06-01 16:42:31"
      }
    },
    {
      "id": "18400001",
      "lat": 47.005,
      "lon": 2.267,
      "cp": "18400",
      "ville": "Saint-Florent-sur-Cher",
      "prix": {
        "Gazole": 0.001999,
        "SP95": 0.002079,
        "E85": 0.000808,
        "SP98": 0.00213
      },
      "maj_gouv": {
        "Gazole": "2026-06-01 07:52:58",
        "SP95": "2026-06-01 07:52:58",
        "E85": "2026-06-01 07:52:58",
        "SP98": "2026-06-01 07:52:59"
      }
    },
    {
      "id": "18390005",
      "lat": 47.097,
      "lon": 2.451,
      "cp": "18390",
      "ville": "Saint-Germain-du-Puy",
      "prix": {
        "Gazole": 0.0023,
        "SP95": 0.0023
      },
      "maj_gouv": {
        "Gazole": "2026-05-21 07:32:45",
        "SP95": "2026-05-21 07:32:45"
      }
    },
    {
      "id": "18000022",
      "lat": 47.041867728406004,
      "lon": 2.348930007346,
      "cp": "18000",
      "ville": "Bourges",
      "prix": {
        "Gazole": 0.002039,
        "E85": 0.000798,
        "E10": 0.001952,
        "SP98": 0.0020870000000000003
      },
      "maj_gouv": {
        "Gazole": "2026-06-01 09:07:51",
        "E85": "2026-06-01 09:07:51",
        "E10": "2026-06-01 09:07:52",
        "SP98": "2026-06-01 09:07:52"
      }
    },
    {
      "id": "18160002",
      "lat": 46.837,
      "lon": 2.109,
      "cp": "18160",
      "ville": "CHEZAL BENOIT",
      "prix": {
        "Gazole": 0.00225,
        "SP95": 0.00199
      },
      "maj_gouv": {
        "Gazole": "2026-06-01 08:16:59",
        "SP95": "2026-06-01 08:16:59"
      }
    },
    {
      "id": "18500006",
      "lat": 47.095,
      "lon": 2.243,
      "cp": "18500",
      "ville": "MARMAGNE",
      "prix": {
        "Gazole": 0.002369,
        "GPLc": 0.001149,
        "E10": 0.002299,
        "SP98": 0.002369
      },
      "maj_gouv": {
        "Gazole": "2026-06-01 08:00:00",
        "GPLc": "2026-06-01 08:00:00",
        "E10": "2026-06-01 08:00:00",
        "SP98": "2026-06-01 08:00:00"
      }
    }
  ]
}