{
  "departement": "61",
  "date": "2026-06-02",
  "stations": [
    {
      "id": "61000008",
      "lat": 48.44542,
      "lon": 0.09912,
      "cp": "61000",
      "ville": "Alençon",
      "prix": {
        "Gazole": 0.0021509999999999997,
        "SP95": 0.002145
      },
      "maj_gouv": {
        "Gazole": "2026-06-01 08:11:13",
        "SP95": "2026-05-22 09:17:03"
      }
    },
    {
      "id": "61250005",
      "lat": 48.433335571932,
      "lon": 0.06257896013097,
      "cp": "61250",
      "ville": "CONDÉ-SUR-SARTHE",
      "prix": {
        "Gazole": 0.0019890000000000003,
        "E10": 0.0019890000000000003,
        "SP98": 0.0019890000000000003
      },
      "maj_gouv": {
        "Gazole": "2026-06-01 12:30:09",
        "E10": "2026-06-01 12:30:09",
        "SP98": "2026-06-01 12:30:09"
      }
    },
    {
      "id": "61230005",
      "lat": 48.789,
      "lon": 0.294,
      "cp": "61230",
      "ville": "Gacé",
      "prix": {
        "Gazole": 0.0020350000000000004,
        "E10": 0.00199
      },
      "maj_gouv": {
        "Gazole": "2026-06-01 08:44:28",
        "E10": "2026-06-01 10:02:02"
      }
    },
    {
      "id": "61230006",
      "lat": 48.849,
      "lon": 0.373,
      "cp": "61230",
      "ville": "LE SAP-ANDRE",
      "prix": {
        "Gazole": 0.00228,
        "GPLc": 0.0012079999999999999,
        "E10": 0.00221,
        "SP98": 0.002275
      },
      "maj_gouv": {
        "Gazole": "2026-05-27 09:30:00",
        "GPLc": "2026-05-27 09:30:00",
        "E10": "2026-05-27 09:30:00",
        "SP98": "2026-05-27 09:30:00"
      }
    },
    {
      "id": "61320002",
      "lat": 48.5701616,
      "lon": -0.15060590000000001,
      "cp": "61320",
      "ville": "Carrouges",
      "prix": {
        "Gazole": 0.00225
      },
      "maj_gouv": {
        "Gazole": "2026-05-27 15:51:45"
      }
    },
    {
      "id": "61000009",
      "lat": 48.444,
      "lon": 0.1,
      "cp": "61000",
      "ville": "Alençon",
      "prix": {
        "Gazole": 0.001996,
        "E85": 0.000846,
        "GPLc": 0.001029
      },
      "maj_gouv": {
        "Gazole": "2026-06-02 00:01:00",
        "E85": "2026-06-02 00:01:00",
        "GPLc": "2026-06-02 00:01:00"
      }
    },
    {
      "id": "61600002",
      "lat": 48.575,
      "lon": -0.37,
      "cp": "61600",
      "ville": "LA FERTé-MACé",
      "prix": {
        "Gazole": 0.0019399999999999999,
        "E85": 0.00073,
        "GPLc": 0.001089,
        "E10": 0.001941,
        "SP98": 0.00212
      },
      "maj_gouv": {
        "Gazole": "2026-06-02 01:17:00",
        "E85": "2026-06-02 01:17:00",
        "GPLc": "2026-06-02 01:17:00",
        "E10": "2026-06-02 01:17:00",
        "SP98": "2026-06-02 01:17:00"
      }
    },
    {
      "id": "61430002",
      "lat": 48.806,
      "lon": -0.5,
      "cp": "61430",
      "ville": "Athis-de-l'Orne",
      "prix": {
        "Gazole": 0.002069,
        "SP95": 0.002089,
        "SP98": 0.002179
      },
      "maj_gouv": {
        "Gazole": "2026-05-22 11:48:36",
        "SP95": "2026-05-22 11:48:37",
        "SP98": "2026-05-22 11:48:37"
      }
    },
    {
      "id": "61230007",
      "lat": 48.785057169822,
      "lon": 0.29557538992625,
      "cp": "61230",
      "ville": "Gacé",
      "prix": {
        "Gazole": 0.001999,
        "E85": 0.000798,
        "E10": 0.002019,
        "SP98": 0.0019890000000000003
      },
      "maj_gouv": {
        "Gazole": "2026-06-01 09:26:17",
        "E85": "2026-05-27 09:36:42",
        "E10": "2026-05-27 09:36:42",
        "SP98": "2026-06-01 09:26:17"
      }
    },
    {
      "id": "61140001",
      "lat": 48.530247,
      "lon": -0.47256349999999997,
      "cp": "61140",
      "ville": "Rives d'Andaine",
      "prix": {
        "Gazole": 0.002157,
        "SP95": 0.002049,
        "SP98": 0.002159
      },
      "maj_gouv": {
        "Gazole": "2026-05-12 18:08:38",
        "SP95": "2026-05-12 18:08:38",
        "SP98": "2026-05-12 18:08:38"
      }
    },
    {
      "id": "61100007",
      "lat": 48.767575,
      "lon": -0.724313,
      "cp": "61800",
      "ville": "Tinchebray-Bocage",
      "prix": {
        "Gazole": 0.002079,
        "SP95": 0.002115,
        "SP98": 0.002198
      },
      "maj_gouv": {
        "Gazole": "2026-05-26 09:00:00",
        "SP95": "2026-05-16 09:50:10",
        "SP98": "2026-05-16 09:50:10"
      }
    },
    {
      "id": "61150001",
      "lat": 48.71448987224301,
      "lon": -0.12194789740828998,
      "cp": "61150",
      "ville": "Écouche les Vallées",
      "prix": {
        "Gazole": 0.00212,
        "SP95": 0.00211
      },
      "maj_gouv": {
        "Gazole": "2026-05-26 10:06:25",
        "SP95": "2026-05-29 10:02:50"
      }
    },
    {
      "id": "61190003",
      "lat": 48.652031214534,
      "lon": 0.7609930317664,
      "cp": "61190",
      "ville": "CHARENCEY",
      "prix": {
        "Gazole": 0.002099,
        "E85": 0.0009459999999999999,
        "E10": 0.002099
      },
      "maj_gouv": {
        "Gazole": "2026-05-28 10:37:35",
        "E85": "2026-05-28 10:37:36",
        "E10": "2026-05-28 10:37:36"
      }
    },
    {
      "id": "61110002",
      "lat": 48.4274749,
      "lon": 0.7900661,
      "cp": "61110",
      "ville": "Rémalard en Perche",
      "prix": {
        "Gazole": 0.001999,
        "SP98": 0.002069
      },
      "maj_gouv": {
        "Gazole": "2026-05-29 10:41:51",
        "SP98": "2026-05-28 11:36:46"
      }
    },
    {
      "id": "61120003",
      "lat": 48.935,
      "lon": 0.199,
      "cp": "61120",
      "ville": "Vimoutiers",
      "prix": {
        "Gazole": 0.001986,
        "SP95": 0.001974,
        "SP98": 0.0020510000000000003
      },
      "maj_gouv": {
        "Gazole": "2026-06-01 09:00:27",
        "SP95": "2026-06-01 09:00:27",
        "SP98": "2026-06-01 09:00:28"
      }
    },
    {
      "id": "61260003",
      "lat": 48.265660145811,
      "lon": 0.6737759073923101,
      "cp": "61260",
      "ville": "Val-au-Perche",
      "prix": {
        "Gazole": 0.002219,
        "E10": 0.002039,
        "SP98": 0.002129
      },
      "maj_gouv": {
        "Gazole": "2026-05-09 13:19:27",
        "E10": "2026-05-09 13:19:27",
        "SP98": "2026-05-09 13:19:27"
      }
    },
    {
      "id": "61220001",
      "lat": 48.699,
      "lon": -0.364,
      "cp": "61220",
      "ville": "BRIOUZE",
      "prix": {
        "Gazole": 0.0022299999999999998,
        "SP95": 0.002128,
        "SP98": 0.002156
      },
      "maj_gouv": {
        "Gazole": "2026-05-06 09:16:56",
        "SP95": "2026-05-06 09:16:57",
        "SP98": "2026-05-06 09:16:57"
      }
    },
    {
      "id": "61250002",
      "lat": 48.435,
      "lon": 0.054,
      "cp": "61250",
      "ville": "Condé-sur-Sarthe",
      "prix": {},
      "maj_gouv": {}
    },
    {
      "id": "61260002",
      "lat": 48.255,
      "lon": 0.695,
      "cp": "61260",
      "ville": "VAL AU PERCHE",
      "prix": {
        "Gazole": 0.002069,
        "E10": 0.002039,
        "SP98": 0.0021190000000000002
      },
      "maj_gouv": {
        "Gazole": "2026-05-29 08:20:23",
        "E10": "2026-05-29 08:20:23",
        "SP98": "2026-05-29 08:20:23"
      }
    },
    {
      "id": "61190004",
      "lat": 48.588522000000005,
      "lon": 0.653751,
      "cp": "61190",
      "ville": "Tourouvre au Perche",
      "prix": {
        "Gazole": 0.002129,
        "SP95": 0.002139,
        "SP98": 0.002199
      },
      "maj_gouv": {
        "Gazole": "2026-06-01 13:39:42",
        "SP95": "2026-06-01 13:39:43",
        "SP98": "2026-06-01 13:39:43"
      }
    },
    {
      "id": "61400003",
      "lat": 48.508,
      "lon": 0.561,
      "cp": "61400",
      "ville": "MORTAGNE-AU-PERCHE",
      "prix": {
        "Gazole": 0.001999,
        "E85": 0.000798,
        "E10": 0.0019690000000000003,
        "SP98": 0.002069
      },
      "maj_gouv": {
        "Gazole": "2026-06-01 09:08:36",
        "E85": "2026-05-22 08:25:59",
        "E10": "2026-06-01 09:08:36",
        "SP98": "2026-06-01 09:08:37"
      }
    },
    {
      "id": "61100005",
      "lat": 48.7409248,
      "lon": -0.5618584,
      "cp": "61100",
      "ville": "Flers",
      "prix": {
        "Gazole": 0.001934,
        "SP95": 0.001942,
        "E85": 0.00073,
        "GPLc": 0.00109,
        "E10": 0.001941
      },
      "maj_gouv": {
        "Gazole": "2026-06-02 00:00:00",
        "SP95": "2026-06-01 00:00:00",
        "E85": "2026-06-01 00:00:00",
        "GPLc": "2026-04-14 00:00:00",
        "E10": "2026-06-02 00:00:00"
      }
    },
    {
      "id": "61000002",
      "lat": 48.444322199999995,
      "lon": 0.1119963,
      "cp": "61000",
      "ville": "Alençon",
      "prix": {
        "Gazole": 0.002012,
        "E10": 0.001999,
        "SP98": 0.002137
      },
      "maj_gouv": {
        "Gazole": "2026-06-01 09:22:37",
        "E10": "2026-06-01 09:22:37",
        "SP98": "2026-06-01 09:22:37"
      }
    },
    {
      "id": "61200007",
      "lat": 48.7327278,
      "lon": -0.0348591,
      "cp": "61200",
      "ville": "Argentan",
      "prix": {
        "Gazole": 0.001967,
        "SP95": 0.001982,
        "E85": 0.000798,
        "E10": 0.001932,
        "SP98": 0.002075
      },
      "maj_gouv": {
        "Gazole": "2026-06-01 09:46:35",
        "SP95": "2026-06-01 09:46:35",
        "E85": "2026-05-19 08:00:00",
        "E10": "2026-06-01 09:46:35",
        "SP98": "2026-06-01 09:46:36"
      }
    },
    {
      "id": "61430003",
      "lat": 48.8034714,
      "lon": -0.500752,
      "cp": "61430",
      "ville": "Athis-Val de Rouvre",
      "prix": {
        "Gazole": 0.00222,
        "SP95": 0.00221,
        "SP98": 0.0022
      },
      "maj_gouv": {
        "Gazole": "2026-05-22 15:56:40",
        "SP95": "2026-05-29 08:26:44",
        "SP98": "2026-05-18 15:20:47"
      }
    },
    {
      "id": "61240001",
      "lat": 48.7064096,
      "lon": 0.22269470000000002,
      "cp": "61240",
      "ville": "Nonant-le-Pin",
      "prix": {
        "Gazole": 0.0020819999999999996,
        "E10": 0.00199,
        "SP98": 0.00199
      },
      "maj_gouv": {
        "Gazole": "2026-06-01 20:45:22",
        "E10": "2026-06-01 20:45:23",
        "SP98": "2026-06-01 20:45:23"
      }
    },
    {
      "id": "61100010",
      "lat": 48.744147726636,
      "lon": -0.56304856211159,
      "cp": "61100",
      "ville": "Flers",
      "prix": {
        "Gazole": 0.002021,
        "SP95": 0.0020310000000000003,
        "E85": 0.0008179999999999999,
        "E10": 0.001977
      },
      "maj_gouv": {
        "Gazole": "2026-05-27 09:21:45",
        "SP95": "2026-05-27 11:39:23",
        "E85": "2026-05-13 12:49:28",
        "E10": "2026-05-27 11:39:23"
      }
    },
    {
      "id": "61000012",
      "lat": 48.4177924,
      "lon": 0.0763198,
      "cp": "61000",
      "ville": "Saint-Germain-du-Corbéis",
      "prix": {
        "Gazole": 0.002155,
        "SP95": 0.002129,
        "SP98": 0.002215
      },
      "maj_gouv": {
        "Gazole": "2026-05-20 10:57:38",
        "SP95": "2026-05-20 10:57:38",
        "SP98": "2026-05-20 10:57:38"
      }
    },
    {
      "id": "61100012",
      "lat": 48.750858,
      "lon": -0.551504,
      "cp": "61100",
      "ville": "FLERS",
      "prix": {
        "Gazole": 0.00225,
        "SP98": 0.00199
      },
      "maj_gouv": {
        "Gazole": "2026-05-19 10:25:09",
        "SP98": "2026-06-01 14:34:17"
      }
    },
    {
      "id": "61302001",
      "lat": 48.7605166,
      "lon": 0.6421013,
      "cp": "61300",
      "ville": "L'Aigle",
      "prix": {
        "Gazole": 0.001999,
        "E85": 0.000769,
        "E10": 0.002006,
        "SP98": 0.002069
      },
      "maj_gouv": {
        "Gazole": "2026-06-01 08:26:06",
        "E85": "2026-04-30 08:28:51",
        "E10": "2026-06-01 08:26:06",
        "SP98": "2026-06-01 08:26:06"
      }
    },
    {
      "id": "61000005",
      "lat": 48.44,
      "lon": 0.105,
      "cp": "61000",
      "ville": "Alençon",
      "prix": {
        "Gazole": 0.002012,
        "E10": 0.001952,
        "SP98": 0.002137
      },
      "maj_gouv": {
        "Gazole": "2026-06-01 11:00:00",
        "E10": "2026-06-01 11:00:00",
        "SP98": "2026-06-01 11:00:00"
      }
    },
    {
      "id": "61400004",
      "lat": 48.5228301,
      "lon": 0.5424211,
      "cp": "61400",
      "ville": "Mortagne-au-Perche",
      "prix": {
        "Gazole": 0.002129,
        "SP95": 0.0019790000000000003
      },
      "maj_gouv": {
        "Gazole": "2026-06-01 06:51:58",
        "SP95": "2026-06-01 06:51:58"
      }
    },
    {
      "id": "61790001",
      "lat": 48.829295599999995,
      "lon": -0.5616943,
      "cp": "61790",
      "ville": "Saint-Pierre-du-Regard",
      "prix": {
        "Gazole": 0.001934,
        "E10": 0.0019039999999999999,
        "SP98": 0.001975
      },
      "maj_gouv": {
        "Gazole": "2026-06-02 00:00:00",
        "E10": "2026-06-01 00:00:00",
        "SP98": "2026-06-01 00:00:00"
      }
    },
    {
      "id": "61400001",
      "lat": 48.527,
      "lon": 0.534,
      "cp": "61400",
      "ville": "SAINT-LANGIS-LèS-MORTAGNE",
      "prix": {
        "Gazole": 0.001986,
        "E85": 0.000799,
        "GPLc": 0.001121,
        "E10": 0.001939,
        "SP98": 0.002025
      },
      "maj_gouv": {
        "Gazole": "2026-05-30 19:32:00",
        "E85": "2026-04-15 19:35:00",
        "GPLc": "2026-05-04 19:35:00",
        "E10": "2026-05-30 19:32:00",
        "SP98": "2026-05-30 19:32:00"
      }
    },
    {
      "id": "61120001",
      "lat": 48.94,
      "lon": 0.198,
      "cp": "61120",
      "ville": "VIMOUTIERS",
      "prix": {
        "Gazole": 0.002099,
        "E10": 0.0021349999999999997,
        "SP98": 0.002199
      },
      "maj_gouv": {
        "Gazole": "2026-05-28 22:03:14",
        "E10": "2026-05-22 12:44:53",
        "SP98": "2026-05-22 12:44:53"
      }
    },
    {
      "id": "61100008",
      "lat": 48.7333102,
      "lon": -0.5764591,
      "cp": "61100",
      "ville": "Flers",
      "prix": {
        "Gazole": 0.001934,
        "E10": 0.001941,
        "SP98": 0.001976
      },
      "maj_gouv": {
        "Gazole": "2026-06-02 00:00:00",
        "E10": "2026-06-02 00:00:00",
        "SP98": "2026-06-01 00:00:00"
      }
    },
    {
      "id": "61700003",
      "lat": 48.588908700000005,
      "lon": -0.6437785,
      "cp": "61700",
      "ville": "Domfront en Poiraie",
      "prix": {
        "Gazole": 0.002113,
        "SP95": 0.002109,
        "SP98": 0.0021920000000000004
      },
      "maj_gouv": {
        "Gazole": "2026-05-21 14:26:31",
        "SP95": "2026-05-21 14:26:31",
        "SP98": "2026-05-21 14:26:31"
      }
    },
    {
      "id": "61200003",
      "lat": 48.749,
      "lon": -0.011,
      "cp": "61200",
      "ville": "Argentan",
      "prix": {
        "Gazole": 0.0020350000000000004,
        "E10": 0.00199,
        "SP98": 0.00199
      },
      "maj_gouv": {
        "Gazole": "2026-05-31 20:00:00",
        "E10": "2026-06-01 20:19:31",
        "SP98": "2026-06-01 20:19:31"
      }
    },
    {
      "id": "61250003",
      "lat": 48.456738391763,
      "lon": 0.12705878900904,
      "cp": "61250",
      "ville": "VALFRAMBERT",
      "prix": {
        "Gazole": 0.0021869999999999997,
        "E85": 0.000998,
        "GPLc": 0.001148,
        "E10": 0.00199,
        "SP98": 0.00199
      },
      "maj_gouv": {
        "Gazole": "2026-06-02 00:01:00",
        "E85": "2026-06-02 00:01:00",
        "GPLc": "2026-06-02 00:01:00",
        "E10": "2026-06-02 00:01:00",
        "SP98": "2026-06-02 00:01:00"
      }
    },
    {
      "id": "61170001",
      "lat": 48.502335,
      "lon": 0.360261,
      "cp": "61170",
      "ville": "Saint-Julien-sur-Sarthe",
      "prix": {
        "Gazole": 0.0020859999999999997,
        "SP95": 0.002106,
        "SP98": 0.002177
      },
      "maj_gouv": {
        "Gazole": "2026-05-27 12:15:04",
        "SP95": "2026-05-27 12:15:04",
        "SP98": "2026-05-27 12:15:04"
      }
    },
    {
      "id": "61500004",
      "lat": 48.599262,
      "lon": 0.17176349999999999,
      "cp": "61500",
      "ville": "Sées",
      "prix": {
        "Gazole": 0.002099,
        "SP95": 0.002089,
        "SP98": 0.002169
      },
      "maj_gouv": {
        "Gazole": "2026-06-01 12:10:12",
        "SP95": "2026-06-01 12:10:12",
        "SP98": "2026-06-01 12:10:12"
      }
    },
    {
      "id": "61130002",
      "lat": 48.261,
      "lon": 0.604,
      "cp": "61130",
      "ville": "Saint-Germain-de-la-Coudre",
      "prix": {
        "Gazole": 0.002179,
        "SP95": 0.002109
      },
      "maj_gouv": {
        "Gazole": "2026-06-01 16:52:26",
        "SP95": "2026-06-01 16:52:26"
      }
    },
    {
      "id": "61160001",
      "lat": 48.845114,
      "lon": 0.0369949,
      "cp": "61160",
      "ville": "Trun",
      "prix": {
        "Gazole": 0.002099,
        "SP95": 0.002098,
        "SP98": 0.002182
      },
      "maj_gouv": {
        "Gazole": "2026-05-18 12:17:00",
        "SP95": "2026-05-18 12:17:00",
        "SP98": "2026-05-18 12:17:00"
      }
    },
    {
      "id": "61200001",
      "lat": 48.749,
      "lon": -0.027,
      "cp": "61200",
      "ville": "ARGENTAN",
      "prix": {
        "Gazole": 0.001978,
        "SP95": 0.0020099999999999996
      },
      "maj_gouv": {
        "Gazole": "2026-05-29 11:20:39",
        "SP95": "2026-05-29 11:20:39"
      }
    },
    {
      "id": "61200008",
      "lat": 48.722216324002,
      "lon": -0.056921417848999,
      "cp": "61200",
      "ville": "Fontenai-sur-Orne",
      "prix": {
        "Gazole": 0.00218,
        "E85": 0.0009699999999999999,
        "E10": 0.00215,
        "SP98": 0.0022299999999999998
      },
      "maj_gouv": {
        "Gazole": "2026-06-01 22:00:00",
        "E85": "2026-05-29 22:00:00",
        "E10": "2026-06-01 22:00:00",
        "SP98": "2026-06-01 21:00:00"
      }
    },
    {
      "id": "61500003",
      "lat": 48.6071326,
      "lon": 0.1859266,
      "cp": "61500",
      "ville": "Sées",
      "prix": {
        "Gazole": 0.002079,
        "E85": 0.000798,
        "E10": 0.002089,
        "SP98": 0.002169
      },
      "maj_gouv": {
        "Gazole": "2026-05-29 15:22:26",
        "E85": "2026-05-26 09:14:44",
        "E10": "2026-05-29 15:22:27",
        "SP98": "2026-05-29 15:22:27"
      }
    },
    {
      "id": "61600003",
      "lat": 48.5868167,
      "lon": -0.36540370000000005,
      "cp": "61600",
      "ville": "La Ferté Macé",
      "prix": {
        "Gazole": 0.001971,
        "E10": 0.001971,
        "SP98": 0.002199
      },
      "maj_gouv": {
        "Gazole": "2026-06-01 10:43:27",
        "E10": "2026-06-01 10:43:27",
        "SP98": "2026-06-01 10:43:27"
      }
    },
    {
      "id": "61300002",
      "lat": 48.764,
      "lon": 0.619,
      "cp": "61300",
      "ville": "L'Aigle",
      "prix": {
        "Gazole": 0.001999,
        "SP95": 0.001936,
        "E85": 0.000798
      },
      "maj_gouv": {
        "Gazole": "2026-06-01 09:06:06",
        "SP95": "2026-06-01 09:06:07",
        "E85": "2026-05-23 09:22:56"
      }
    },
    {
      "id": "61700002",
      "lat": 48.580850941341,
      "lon": -0.64038866532045,
      "cp": "61700",
      "ville": "Domfront",
      "prix": {
        "Gazole": 0.001998,
        "E85": 0.0008179999999999999,
        "GPLc": 0.00109,
        "E10": 0.001998,
        "SP98": 0.002115
      },
      "maj_gouv": {
        "Gazole": "2026-05-30 09:12:29",
        "E85": "2026-04-22 19:49:54",
        "GPLc": "2026-04-16 14:24:11",
        "E10": "2026-05-30 09:12:29",
        "SP98": "2026-05-27 10:39:20"
      }
    },
    {
      "id": "61100003",
      "lat": 48.752871799999994,
      "lon": -0.5767266000000001,
      "cp": "61100",
      "ville": "Flers",
      "prix": {
        "Gazole": 0.002079,
        "SP95": 0.002099,
        "SP98": 0.002149
      },
      "maj_gouv": {
        "Gazole": "2026-05-26 07:27:54",
        "SP95": "2026-05-26 07:27:54",
        "SP98": "2026-05-26 07:27:54"
      }
    },
    {
      "id": "61130001",
      "lat": 48.375,
      "lon": 0.542,
      "cp": "61130",
      "ville": "SAINT-MARTIN-DU-VIEUX-BELLEME",
      "prix": {
        "Gazole": 0.002049,
        "SP95": 0.002089,
        "SP98": 0.002159
      },
      "maj_gouv": {
        "Gazole": "2026-06-01 09:43:27",
        "SP95": "2026-05-30 09:25:26",
        "SP98": "2026-05-30 09:25:27"
      }
    },
    {
      "id": "61200006",
      "lat": 48.752,
      "lon": -0.013,
      "cp": "61200",
      "ville": "ARGENTAN",
      "prix": {
        "Gazole": 0.00196,
        "SP95": 0.00198,
        "GPLc": 0.0010760000000000001,
        "SP98": 0.0020729999999999998
      },
      "maj_gouv": {
        "Gazole": "2026-06-01 08:55:00",
        "SP95": "2026-06-01 08:55:00",
        "GPLc": "2026-04-27 09:00:00",
        "SP98": "2026-06-01 08:55:00"
      }
    },
    {
      "id": "61500002",
      "lat": 48.606,
      "lon": 0.184,
      "cp": "61500",
      "ville": "Sées",
      "prix": {
        "Gazole": 0.0020350000000000004,
        "E10": 0.00199,
        "SP98": 0.00199
      },
      "maj_gouv": {
        "Gazole": "2026-06-01 07:43:32",
        "E10": "2026-05-29 07:44:52",
        "SP98": "2026-05-29 07:44:52"
      }
    },
    {
      "id": "61000006",
      "lat": 48.434881600000004,
      "lon": 0.09830530000000001,
      "cp": "61000",
      "ville": "Alençon",
      "prix": {
        "Gazole": 0.0021720000000000003,
        "SP95": 0.002145,
        "SP98": 0.002234
      },
      "maj_gouv": {
        "Gazole": "2026-06-01 09:07:47",
        "SP95": "2026-06-01 09:07:47",
        "SP98": "2026-06-01 09:07:47"
      }
    },
    {
      "id": "61700004",
      "lat": 48.589,
      "lon": -0.635,
      "cp": "61700",
      "ville": "Domfront en Poiraie",
      "prix": {
        "Gazole": 0.0020350000000000004,
        "E85": 0.000862,
        "E10": 0.001982,
        "SP98": 0.00199
      },
      "maj_gouv": {
        "Gazole": "2026-06-01 18:27:25",
        "E85": "2026-06-01 18:27:25",
        "E10": "2026-06-01 18:27:25",
        "SP98": "2026-06-01 18:27:25"
      }
    },
    {
      "id": "61130004",
      "lat": 48.371598898834,
      "lon": 0.5831480330658,
      "cp": "61130",
      "ville": "belforet en perche",
      "prix": {
        "Gazole": 0.00225
      },
      "maj_gouv": {
        "Gazole": "2026-06-01 15:45:36"
      }
    },
    {
      "id": "61400005",
      "lat": 48.531873198923996,
      "lon": 0.51166496256938,
      "cp": "61400",
      "ville": "Saint-Langis-lès-Mortagne",
      "prix": {
        "Gazole": 0.0020729999999999998
      },
      "maj_gouv": {
        "Gazole": "2026-06-01 19:34:05"
      }
    },
    {
      "id": "61290002",
      "lat": 48.5265354,
      "lon": 0.749707,
      "cp": "61290",
      "ville": "Longny les Villages",
      "prix": {
        "Gazole": 0.002059,
        "E10": 0.002019,
        "SP98": 0.002129
      },
      "maj_gouv": {
        "Gazole": "2026-05-30 12:19:13",
        "E10": "2026-05-30 12:19:13",
        "SP98": "2026-05-30 12:19:13"
      }
    }
  ]
}