{
  "departement": "63",
  "date": "2026-05-07",
  "stations": [
    {
      "id": "63360003",
      "lat": 45.82,
      "lon": 3.15,
      "cp": "63360",
      "ville": "GERZAT",
      "prix": {
        "Gazole": 0.002197,
        "E10": 0.0020659999999999997,
        "SP98": 0.002166
      },
      "maj_gouv": {
        "Gazole": "2026-05-06 14:18:38",
        "E10": "2026-05-06 14:18:38",
        "SP98": "2026-04-28 07:28:48"
      }
    },
    {
      "id": "63122001",
      "lat": 45.705,
      "lon": 3.022,
      "cp": "63122",
      "ville": "SAINT-GENèS-CHAMPANELLE",
      "prix": {
        "Gazole": 0.002235,
        "SP95": 0.002139,
        "SP98": 0.002219
      },
      "maj_gouv": {
        "Gazole": "2026-05-05 15:41:59",
        "SP95": "2026-05-05 15:42:00",
        "SP98": "2026-05-05 15:42:00"
      }
    },
    {
      "id": "63140001",
      "lat": 45.923,
      "lon": 3.063,
      "cp": "63140",
      "ville": "Châtel-guyon",
      "prix": {
        "Gazole": 0.00225,
        "E10": 0.00199
      },
      "maj_gouv": {
        "Gazole": "2026-05-05 12:08:08",
        "E10": "2026-05-05 12:08:08"
      }
    },
    {
      "id": "63430004",
      "lat": 45.801,
      "lon": 3.243,
      "cp": "63430",
      "ville": "PONT-DU-CHâTEAU",
      "prix": {
        "Gazole": 0.002179,
        "SP95": 0.002069,
        "E10": 0.002019
      },
      "maj_gouv": {
        "Gazole": "2026-05-04 08:39:16",
        "SP95": "2026-05-04 08:39:16",
        "E10": "2026-05-04 08:39:17"
      }
    },
    {
      "id": "63550001",
      "lat": 45.889,
      "lon": 3.596,
      "cp": "63550",
      "ville": "Saint-Rémy-sur-Durolle",
      "prix": {
        "Gazole": 0.0022389999999999997,
        "E10": 0.002099,
        "SP98": 0.002199
      },
      "maj_gouv": {
        "Gazole": "2026-05-06 17:27:00",
        "E10": "2026-04-30 14:31:17",
        "SP98": "2026-04-30 14:31:18"
      }
    },
    {
      "id": "63500006",
      "lat": 45.536,
      "lon": 3.252,
      "cp": "63500",
      "ville": "ISSOIRE",
      "prix": {},
      "maj_gouv": {}
    },
    {
      "id": "63450002",
      "lat": 45.669,
      "lon": 3.109,
      "cp": "63450",
      "ville": "TALLENDE",
      "prix": {
        "Gazole": 0.002179,
        "E10": 0.002019,
        "SP98": 0.002159
      },
      "maj_gouv": {
        "Gazole": "2026-05-05 11:26:10",
        "E10": "2026-05-05 11:26:10",
        "SP98": "2026-05-05 11:26:10"
      }
    },
    {
      "id": "63170007",
      "lat": 45.75,
      "lon": 3.133,
      "cp": "63170",
      "ville": "AUBIERE",
      "prix": {
        "Gazole": 0.002199,
        "E10": 0.002099,
        "SP98": 0.002199
      },
      "maj_gouv": {
        "Gazole": "2026-05-06 21:15:00",
        "E10": "2026-05-06 21:15:00",
        "SP98": "2026-05-06 21:15:00"
      }
    },
    {
      "id": "63114003",
      "lat": 45.642,
      "lon": 3.184,
      "cp": "63114",
      "ville": "Authezat",
      "prix": {
        "Gazole": 0.002271,
        "E85": 0.0009429999999999999,
        "GPLc": 0.00113,
        "E10": 0.002118,
        "SP98": 0.002185
      },
      "maj_gouv": {
        "Gazole": "2026-05-05 13:05:39",
        "E85": "2026-05-05 13:05:40",
        "GPLc": "2026-05-05 13:05:40",
        "E10": "2026-05-05 13:05:40",
        "SP98": "2026-05-05 13:05:40"
      }
    },
    {
      "id": "63490002",
      "lat": 45.550330010776,
      "lon": 3.3669437459243,
      "cp": "63490",
      "ville": "Sauxillanges",
      "prix": {
        "Gazole": 0.002254,
        "SP95": 0.0021190000000000002,
        "SP98": 0.002199
      },
      "maj_gouv": {
        "Gazole": "2026-04-28 10:15:33",
        "SP95": "2026-04-28 10:15:33",
        "SP98": "2026-04-28 10:15:33"
      }
    },
    {
      "id": "63201001",
      "lat": 45.888,
      "lon": 3.069,
      "cp": "63530",
      "ville": "ENVAL",
      "prix": {
        "Gazole": 0.002177,
        "SP95": 0.002089,
        "E10": 0.002038,
        "SP98": 0.002169
      },
      "maj_gouv": {
        "Gazole": "2026-05-06 10:19:05",
        "SP95": "2026-05-06 10:19:05",
        "E10": "2026-05-06 10:19:05",
        "SP98": "2026-05-06 10:19:05"
      }
    },
    {
      "id": "63320002",
      "lat": 45.592,
      "lon": 3.139,
      "cp": "63320",
      "ville": "CHAMPEIX",
      "prix": {
        "Gazole": 0.002269,
        "SP95": 0.002109,
        "GPLc": 0.0010400000000000001,
        "SP98": 0.002219
      },
      "maj_gouv": {
        "Gazole": "2026-05-04 08:49:58",
        "SP95": "2026-05-04 08:49:58",
        "GPLc": "2026-05-04 08:49:58",
        "SP98": "2026-05-04 08:49:59"
      }
    },
    {
      "id": "63190001",
      "lat": 45.82699,
      "lon": 3.37353,
      "cp": "63190",
      "ville": "LEZOUX",
      "prix": {
        "Gazole": 0.0021939999999999998,
        "E10": 0.002038,
        "SP98": 0.002178
      },
      "maj_gouv": {
        "Gazole": "2026-04-30 09:18:09",
        "E10": "2026-04-30 09:18:09",
        "SP98": "2026-04-30 09:18:09"
      }
    },
    {
      "id": "63680001",
      "lat": 45.531088809463995,
      "lon": 2.697685652596,
      "cp": "63680",
      "ville": "LA TOUR D'AUVERGNE",
      "prix": {
        "Gazole": 0.0022789999999999998,
        "E85": 0.000879,
        "E10": 0.002069
      },
      "maj_gouv": {
        "Gazole": "2026-04-30 09:25:40",
        "E85": "2026-04-02 10:30:01",
        "E10": "2026-04-20 09:43:36"
      }
    },
    {
      "id": "63350001",
      "lat": 45.916703390938,
      "lon": 3.32989534453,
      "cp": "63350",
      "ville": "Maringues",
      "prix": {
        "Gazole": 0.002235,
        "SP95": 0.002088,
        "E10": 0.00204
      },
      "maj_gouv": {
        "Gazole": "2026-04-24 15:43:18",
        "SP95": "2026-04-28 09:31:09",
        "E10": "2026-05-02 08:53:12"
      }
    },
    {
      "id": "63600001",
      "lat": 45.543,
      "lon": 3.729,
      "cp": "63600",
      "ville": "AMBERT",
      "prix": {
        "Gazole": 0.002199,
        "SP95": 0.002069,
        "SP98": 0.0021190000000000002
      },
      "maj_gouv": {
        "Gazole": "2026-05-05 12:50:02",
        "SP95": "2026-05-05 12:50:02",
        "SP98": "2026-05-05 12:50:02"
      }
    },
    {
      "id": "63600004",
      "lat": 45.551906908551,
      "lon": 3.7395231841156,
      "cp": "63600",
      "ville": "AMBERT",
      "prix": {
        "Gazole": 0.00225,
        "E10": 0.00199
      },
      "maj_gouv": {
        "Gazole": "2026-05-06 09:35:08",
        "E10": "2026-05-06 09:35:08"
      }
    },
    {
      "id": "63790001",
      "lat": 45.576,
      "lon": 2.932,
      "cp": "63790",
      "ville": "MUROL",
      "prix": {
        "Gazole": 0.00225,
        "SP95": 0.00218,
        "SP98": 0.0022
      },
      "maj_gouv": {
        "Gazole": "2026-05-06 08:29:47",
        "SP95": "2026-05-06 08:29:47",
        "SP98": "2026-05-06 08:29:47"
      }
    },
    {
      "id": "63410001",
      "lat": 45.957,
      "lon": 2.989,
      "cp": "63410",
      "ville": "MANZAT",
      "prix": {
        "Gazole": 0.002499,
        "E10": 0.0023290000000000003,
        "SP98": 0.0024289999999999997
      },
      "maj_gouv": {
        "Gazole": "2026-05-06 21:30:00",
        "E10": "2026-05-06 21:30:00",
        "SP98": "2026-05-06 21:30:00"
      }
    },
    {
      "id": "63230002",
      "lat": 45.827,
      "lon": 2.851,
      "cp": "63230",
      "ville": "Pontgibaud",
      "prix": {
        "Gazole": 0.0022789999999999998,
        "E10": 0.002089,
        "SP98": 0.0022389999999999997
      },
      "maj_gouv": {
        "Gazole": "2026-05-04 09:00:51",
        "E10": "2026-05-04 09:00:51",
        "SP98": "2026-05-04 09:00:51"
      }
    },
    {
      "id": "63300004",
      "lat": 45.849,
      "lon": 3.537,
      "cp": "63300",
      "ville": "THIERS",
      "prix": {
        "Gazole": 0.002198,
        "E10": 0.0021160000000000003,
        "SP98": 0.0020800000000000003
      },
      "maj_gouv": {
        "Gazole": "2026-05-04 08:49:45",
        "E10": "2026-05-06 08:32:03",
        "SP98": "2026-05-04 08:49:45"
      }
    },
    {
      "id": "63480001",
      "lat": 45.658844737921,
      "lon": 3.6607632200469,
      "cp": "63480",
      "ville": "Marat",
      "prix": {
        "Gazole": 0.002264,
        "SP95": 0.00216,
        "E85": 0.000869
      },
      "maj_gouv": {
        "Gazole": "2026-05-06 17:13:28",
        "SP95": "2026-05-06 17:13:28",
        "E85": "2026-05-06 17:13:29"
      }
    },
    {
      "id": "63430006",
      "lat": 45.792,
      "lon": 3.262,
      "cp": "63430",
      "ville": "Pont-du-Château",
      "prix": {
        "Gazole": 0.002189,
        "E85": 0.000902,
        "E10": 0.002099,
        "SP98": 0.002129
      },
      "maj_gouv": {
        "Gazole": "2026-04-29 08:58:48",
        "E85": "2026-04-21 08:57:36",
        "E10": "2026-05-05 09:55:06",
        "SP98": "2026-04-28 08:58:50"
      }
    },
    {
      "id": "63650001",
      "lat": 45.868327222146,
      "lon": 3.6328076412604,
      "cp": "63650",
      "ville": "La Monnerie-le-Montel",
      "prix": {
        "Gazole": 0.002198,
        "E85": 0.0008990000000000001,
        "E10": 0.002049,
        "SP98": 0.0020800000000000003
      },
      "maj_gouv": {
        "Gazole": "2026-05-05 17:06:17",
        "E85": "2026-05-05 17:06:17",
        "E10": "2026-05-05 17:06:18",
        "SP98": "2026-05-05 17:06:18"
      }
    },
    {
      "id": "63120002",
      "lat": 45.762,
      "lon": 3.54,
      "cp": "63120",
      "ville": "COURPIERE",
      "prix": {
        "Gazole": 0.002199,
        "E85": 0.000819,
        "E10": 0.002039,
        "SP98": 0.002129
      },
      "maj_gouv": {
        "Gazole": "2026-04-29 08:08:00",
        "E85": "2026-04-15 07:49:54",
        "E10": "2026-05-05 08:13:55",
        "SP98": "2026-04-27 07:30:11"
      }
    },
    {
      "id": "63670002",
      "lat": 45.705,
      "lon": 3.13,
      "cp": "63670",
      "ville": "LA ROCHE-BLANCHE",
      "prix": {
        "Gazole": 0.002494,
        "SP95": 0.00209,
        "SP98": 0.0021520000000000003
      },
      "maj_gouv": {
        "Gazole": "2026-04-27 15:41:59",
        "SP95": "2026-04-27 15:18:14",
        "SP98": "2026-04-27 15:18:15"
      }
    },
    {
      "id": "63160001",
      "lat": 45.725,
      "lon": 3.339,
      "cp": "63160",
      "ville": "BILLOM",
      "prix": {
        "Gazole": 0.002189,
        "E10": 0.002018,
        "SP98": 0.002132
      },
      "maj_gouv": {
        "Gazole": "2026-05-04 15:08:19",
        "E10": "2026-05-05 09:13:38",
        "SP98": "2026-05-05 09:13:38"
      }
    },
    {
      "id": "63760001",
      "lat": 45.648,
      "lon": 2.56,
      "cp": "63760",
      "ville": "BOURG-LASTIC",
      "prix": {
        "Gazole": 0.00218,
        "E85": 0.0008179999999999999,
        "E10": 0.0020099999999999996,
        "SP98": 0.0021219999999999998
      },
      "maj_gouv": {
        "Gazole": "2026-05-05 13:04:33",
        "E85": "2026-04-30 08:20:40",
        "E10": "2026-05-05 13:04:34",
        "SP98": "2026-05-05 13:04:34"
      }
    },
    {
      "id": "63720003",
      "lat": 45.895437699432996,
      "lon": 3.2116479040907997,
      "cp": "63720",
      "ville": "Ennezat",
      "prix": {
        "Gazole": 0.002199,
        "E10": 0.002049,
        "SP98": 0.002164
      },
      "maj_gouv": {
        "Gazole": "2026-05-04 15:58:36",
        "E10": "2026-05-04 15:58:36",
        "SP98": "2026-05-04 15:58:36"
      }
    },
    {
      "id": "63100011",
      "lat": 45.783551082855,
      "lon": 3.12293899901,
      "cp": "63100",
      "ville": "Clermont-Ferrand",
      "prix": {
        "Gazole": 0.0021469999999999996,
        "E85": 0.0008179999999999999,
        "GPLc": 0.000979,
        "E10": 0.002004,
        "SP98": 0.002115
      },
      "maj_gouv": {
        "Gazole": "2026-05-06 11:06:52",
        "E85": "2026-04-29 08:02:18",
        "GPLc": "2026-04-22 07:56:34",
        "E10": "2026-05-06 11:06:52",
        "SP98": "2026-05-06 11:06:52"
      }
    },
    {
      "id": "63800005",
      "lat": 45.72919,
      "lon": 3.22201,
      "cp": "63800",
      "ville": "Pérignat-sur-Allier",
      "prix": {
        "Gazole": 0.002179,
        "E10": 0.002019,
        "SP98": 0.002159
      },
      "maj_gouv": {
        "Gazole": "2026-05-05 11:14:41",
        "E10": "2026-05-05 11:14:41",
        "SP98": "2026-05-05 11:14:41"
      }
    },
    {
      "id": "63450004",
      "lat": 45.685,
      "lon": 3.143,
      "cp": "63450",
      "ville": "LE CREST",
      "prix": {
        "Gazole": 0.002154,
        "E10": 0.00199
      },
      "maj_gouv": {
        "Gazole": "2026-05-07 00:01:00",
        "E10": "2026-05-07 00:01:00"
      }
    },
    {
      "id": "63700004",
      "lat": 46.16,
      "lon": 2.838,
      "cp": "63700",
      "ville": "Saint-Éloy-les-Mines",
      "prix": {
        "Gazole": 0.002179,
        "E10": 0.002029,
        "SP98": 0.002179
      },
      "maj_gouv": {
        "Gazole": "2026-05-05 11:41:37",
        "E10": "2026-05-05 11:41:37",
        "SP98": "2026-05-05 11:41:37"
      }
    },
    {
      "id": "63800004",
      "lat": 45.745,
      "lon": 3.177,
      "cp": "63800",
      "ville": "COURNON-D'AUVERGNE",
      "prix": {
        "Gazole": 0.00225,
        "E10": 0.00199
      },
      "maj_gouv": {
        "Gazole": "2026-05-06 11:22:10",
        "E10": "2026-05-06 11:22:10"
      }
    },
    {
      "id": "63120004",
      "lat": 45.749,
      "lon": 3.545,
      "cp": "63120",
      "ville": "COURPIERE",
      "prix": {
        "Gazole": 0.002209,
        "SP95": 0.002109,
        "SP98": 0.002149
      },
      "maj_gouv": {
        "Gazole": "2026-04-23 06:55:00",
        "SP95": "2026-05-05 06:55:00",
        "SP98": "2026-05-05 06:55:00"
      }
    },
    {
      "id": "63960005",
      "lat": 45.671,
      "lon": 3.172,
      "cp": "63960",
      "ville": "Veyre-Monton",
      "prix": {
        "Gazole": 0.002189,
        "E85": 0.000839,
        "E10": 0.002025
      },
      "maj_gouv": {
        "Gazole": "2026-05-06 09:29:28",
        "E85": "2026-04-29 14:57:42",
        "E10": "2026-05-06 09:29:28"
      }
    },
    {
      "id": "63160002",
      "lat": 45.72408,
      "lon": 3.33296,
      "cp": "63160",
      "ville": "BILLOM",
      "prix": {
        "Gazole": 0.002189,
        "E10": 0.002018,
        "SP98": 0.002132
      },
      "maj_gouv": {
        "Gazole": "2026-05-05 07:26:59",
        "E10": "2026-05-05 07:26:59",
        "SP98": "2026-05-05 07:26:59"
      }
    },
    {
      "id": "63300002",
      "lat": 45.855,
      "lon": 3.508,
      "cp": "63300",
      "ville": "THIERS",
      "prix": {
        "Gazole": 0.00225,
        "E10": 0.00199,
        "SP98": 0.00199
      },
      "maj_gouv": {
        "Gazole": "2026-05-04 07:24:09",
        "E10": "2026-04-22 18:46:54",
        "SP98": "2026-05-05 09:54:01"
      }
    },
    {
      "id": "63000027",
      "lat": 45.779435412664,
      "lon": 3.0718758220901003,
      "cp": "63000",
      "ville": "Clermont-Ferrand",
      "prix": {},
      "maj_gouv": {}
    },
    {
      "id": "63360002",
      "lat": 45.818,
      "lon": 3.154,
      "cp": "63360",
      "ville": "GERZAT",
      "prix": {
        "Gazole": 0.00216,
        "E85": 0.000909,
        "E10": 0.00199
      },
      "maj_gouv": {
        "Gazole": "2026-05-07 05:56:43",
        "E85": "2026-05-07 05:56:43",
        "E10": "2026-05-07 05:56:43"
      }
    },
    {
      "id": "63350003",
      "lat": 45.912,
      "lon": 3.334,
      "cp": "63350",
      "ville": "MARINGUES",
      "prix": {
        "Gazole": 0.0021869999999999997,
        "SP95": 0.002088,
        "E85": 0.0008990000000000001,
        "E10": 0.002039,
        "SP98": 0.002148
      },
      "maj_gouv": {
        "Gazole": "2026-05-05 17:49:23",
        "SP95": "2026-04-27 11:56:24",
        "E85": "2026-04-27 11:56:24",
        "E10": "2026-05-05 17:54:29",
        "SP98": "2026-04-27 11:56:24"
      }
    },
    {
      "id": "63730001",
      "lat": 45.685,
      "lon": 3.195,
      "cp": "63730",
      "ville": "Les Martres-de-Veyre",
      "prix": {
        "Gazole": 0.002178,
        "E85": 0.000819,
        "E10": 0.002019,
        "SP98": 0.002149
      },
      "maj_gouv": {
        "Gazole": "2026-05-05 11:25:07",
        "E85": "2026-04-22 11:57:05",
        "E10": "2026-05-05 11:25:07",
        "SP98": "2026-05-05 11:25:07"
      }
    },
    {
      "id": "63300003",
      "lat": 45.848,
      "lon": 3.53,
      "cp": "63300",
      "ville": "THIERS",
      "prix": {
        "Gazole": 0.00225,
        "E10": 0.00199
      },
      "maj_gouv": {
        "Gazole": "2026-04-15 08:19:09",
        "E10": "2026-05-06 14:03:18"
      }
    },
    {
      "id": "63100007",
      "lat": 45.78,
      "lon": 3.136,
      "cp": "63100",
      "ville": "CLERMONT-FERRAND",
      "prix": {
        "Gazole": 0.002149,
        "SP95": 0.0020819999999999996,
        "E85": 0.0008179999999999999,
        "E10": 0.0020659999999999997,
        "SP98": 0.0021379999999999997
      },
      "maj_gouv": {
        "Gazole": "2026-05-02 09:13:58",
        "SP95": "2026-04-27 07:31:38",
        "E85": "2026-04-24 09:36:30",
        "E10": "2026-05-05 07:01:24",
        "SP98": "2026-05-05 07:01:24"
      }
    },
    {
      "id": "63200001",
      "lat": 45.878,
      "lon": 3.117,
      "cp": "63200",
      "ville": "MENETROL",
      "prix": {
        "Gazole": 0.002177,
        "SP95": 0.002091,
        "E85": 0.000837,
        "GPLc": 0.000999,
        "E10": 0.002036,
        "SP98": 0.002185
      },
      "maj_gouv": {
        "Gazole": "2026-05-06 09:51:47",
        "SP95": "2026-05-06 09:51:47",
        "E85": "2026-05-06 09:51:47",
        "GPLc": "2026-05-05 09:35:29",
        "E10": "2026-05-06 09:51:48",
        "SP98": "2026-05-06 09:51:48"
      }
    },
    {
      "id": "63200006",
      "lat": 45.888,
      "lon": 3.123,
      "cp": "63200",
      "ville": "Riom",
      "prix": {
        "Gazole": 0.002229,
        "E10": 0.00206,
        "SP98": 0.0022
      },
      "maj_gouv": {
        "Gazole": "2026-04-30 12:50:25",
        "E10": "2026-04-30 12:50:25",
        "SP98": "2026-04-30 12:50:25"
      }
    },
    {
      "id": "63300005",
      "lat": 45.843,
      "lon": 3.517,
      "cp": "63300",
      "ville": "Thiers",
      "prix": {
        "Gazole": 0.0021680000000000002,
        "E10": 0.0020139999999999997,
        "SP98": 0.002134
      },
      "maj_gouv": {
        "Gazole": "2026-04-24 15:23:12",
        "E10": "2026-05-06 12:08:52",
        "SP98": "2026-04-04 09:36:07"
      }
    },
    {
      "id": "63100003",
      "lat": 45.813,
      "lon": 3.109,
      "cp": "63100",
      "ville": "CLERMONT-FERRAND",
      "prix": {
        "GPLc": 0.00095
      },
      "maj_gouv": {
        "GPLc": "2025-03-20 15:59:33"
      }
    },
    {
      "id": "63350002",
      "lat": 45.919,
      "lon": 3.33,
      "cp": "63350",
      "ville": "MARINGUES",
      "prix": {
        "Gazole": 0.00225,
        "E10": 0.00199
      },
      "maj_gouv": {
        "Gazole": "2026-05-06 13:39:28",
        "E10": "2026-05-06 13:39:28"
      }
    },
    {
      "id": "63110002",
      "lat": 45.745,
      "lon": 3.09,
      "cp": "63110",
      "ville": "BEAUMONT",
      "prix": {
        "Gazole": 0.002179,
        "E10": 0.001994,
        "SP98": 0.0021070000000000004
      },
      "maj_gouv": {
        "Gazole": "2026-05-04 09:53:52",
        "E10": "2026-05-04 09:53:52",
        "SP98": "2026-05-04 09:53:52"
      }
    },
    {
      "id": "63600002",
      "lat": 45.531,
      "lon": 3.728,
      "cp": "63600",
      "ville": "AMBERT",
      "prix": {
        "Gazole": 0.002169,
        "E10": 0.002029,
        "SP98": 0.002139
      },
      "maj_gouv": {
        "Gazole": "2026-05-02 08:04:57",
        "E10": "2026-05-05 18:51:51",
        "SP98": "2026-05-05 18:51:51"
      }
    },
    {
      "id": "63340001",
      "lat": 45.459,
      "lon": 3.254,
      "cp": "63340",
      "ville": "Saint-Germain-Lembron",
      "prix": {
        "Gazole": 0.002199,
        "E85": 0.000829,
        "E10": 0.002055,
        "SP98": 0.0021349999999999997
      },
      "maj_gouv": {
        "Gazole": "2026-05-02 07:59:35",
        "E85": "2026-04-17 08:40:37",
        "E10": "2026-05-05 08:35:59",
        "SP98": "2026-05-05 08:35:59"
      }
    },
    {
      "id": "63000026",
      "lat": 45.76,
      "lon": 3.094,
      "cp": "63000",
      "ville": "Clermont-Ferrand",
      "prix": {
        "Gazole": 0.0020670000000000003
      },
      "maj_gouv": {
        "Gazole": "2026-05-07 00:01:00"
      }
    },
    {
      "id": "63170001",
      "lat": 45.754,
      "lon": 3.13,
      "cp": "63170",
      "ville": "AUBIèRE",
      "prix": {
        "Gazole": 0.002149,
        "SP95": 0.0020819999999999996,
        "GPLc": 0.0009809999999999999,
        "E10": 0.0020659999999999997,
        "SP98": 0.0021379999999999997
      },
      "maj_gouv": {
        "Gazole": "2026-05-02 09:44:10",
        "SP95": "2026-04-27 09:09:57",
        "GPLc": "2026-04-24 09:43:21",
        "E10": "2026-05-05 09:18:12",
        "SP98": "2026-05-05 09:18:13"
      }
    },
    {
      "id": "63000009",
      "lat": 45.764,
      "lon": 3.127,
      "cp": "63000",
      "ville": "Clermont-Ferrand",
      "prix": {
        "Gazole": 0.0021579999999999998,
        "E10": 0.002075,
        "SP98": 0.0021469999999999996
      },
      "maj_gouv": {
        "Gazole": "2026-05-05 10:55:00",
        "E10": "2026-05-05 10:55:00",
        "SP98": "2026-05-05 10:55:00"
      }
    },
    {
      "id": "63000007",
      "lat": 45.766,
      "lon": 3.105,
      "cp": "63000",
      "ville": "Clermont-Ferrand",
      "prix": {
        "Gazole": 0.0021579999999999998,
        "E10": 0.002075,
        "SP98": 0.0021469999999999996
      },
      "maj_gouv": {
        "Gazole": "2026-05-05 10:55:00",
        "E10": "2026-05-05 10:55:00",
        "SP98": "2026-05-05 10:55:00"
      }
    },
    {
      "id": "63000008",
      "lat": 45.788,
      "lon": 3.058,
      "cp": "63100",
      "ville": "Clermont-Ferrand",
      "prix": {
        "Gazole": 0.0022080000000000003,
        "E85": 0.001019,
        "E10": 0.002028,
        "SP98": 0.002154
      },
      "maj_gouv": {
        "Gazole": "2026-05-01 06:31:00",
        "E85": "2026-05-01 06:31:00",
        "E10": "2026-05-01 06:31:00",
        "SP98": "2026-05-01 06:31:00"
      }
    },
    {
      "id": "63000019",
      "lat": 45.771719000000004,
      "lon": 3.0809979999999997,
      "cp": "63000",
      "ville": "CLERMONT-FERRAND",
      "prix": {
        "Gazole": 0.00226,
        "E10": 0.00216,
        "SP98": 0.00226
      },
      "maj_gouv": {
        "Gazole": "2026-05-06 21:00:00",
        "E10": "2026-05-06 21:00:00",
        "SP98": "2026-05-06 21:00:00"
      }
    },
    {
      "id": "63200004",
      "lat": 45.9,
      "lon": 3.117,
      "cp": "63200",
      "ville": "Riom",
      "prix": {
        "Gazole": 0.002186,
        "E10": 0.002047,
        "SP98": 0.002178
      },
      "maj_gouv": {
        "Gazole": "2026-05-06 17:25:00",
        "E10": "2026-05-06 17:25:00",
        "SP98": "2026-05-06 17:25:00"
      }
    },
    {
      "id": "63000025",
      "lat": 45.782946042176,
      "lon": 3.0738818241095003,
      "cp": "63000",
      "ville": "Clermont-Ferrand",
      "prix": {},
      "maj_gouv": {}
    },
    {
      "id": "63220001",
      "lat": 45.414,
      "lon": 3.725,
      "cp": "63220",
      "ville": "ARLANC",
      "prix": {
        "Gazole": 0.002189,
        "SP95": 0.002069,
        "E85": 0.000819,
        "SP98": 0.002139
      },
      "maj_gouv": {
        "Gazole": "2026-05-06 12:59:12",
        "SP95": "2026-05-06 12:59:12",
        "E85": "2026-05-06 12:59:12",
        "SP98": "2026-05-06 12:59:12"
      }
    },
    {
      "id": "63500007",
      "lat": 45.5537009095,
      "lon": 3.24943759778,
      "cp": "63500",
      "ville": "ISSOIRE",
      "prix": {
        "Gazole": 0.002069,
        "E10": 0.001986
      },
      "maj_gouv": {
        "Gazole": "2026-05-07 00:01:00",
        "E10": "2026-05-07 00:01:00"
      }
    },
    {
      "id": "63190009",
      "lat": 45.826,
      "lon": 3.368,
      "cp": "63190",
      "ville": "LEZOUX",
      "prix": {
        "Gazole": 0.0021939999999999998,
        "SP95": 0.002099,
        "E85": 0.0008990000000000001,
        "E10": 0.002043,
        "SP98": 0.002148
      },
      "maj_gouv": {
        "Gazole": "2026-05-05 18:09:55",
        "SP95": "2026-04-27 12:00:35",
        "E85": "2026-04-27 12:00:35",
        "E10": "2026-04-28 18:31:30",
        "SP98": "2026-04-27 12:00:35"
      }
    },
    {
      "id": "63122002",
      "lat": 45.746,
      "lon": 3.059,
      "cp": "63122",
      "ville": "CEYRAT",
      "prix": {
        "Gazole": 0.002169,
        "E85": 0.0008179999999999999,
        "E10": 0.002007,
        "SP98": 0.0021190000000000002
      },
      "maj_gouv": {
        "Gazole": "2026-05-06 17:09:25",
        "E85": "2026-05-06 17:09:25",
        "E10": "2026-05-06 10:11:58",
        "SP98": "2026-05-06 10:11:58"
      }
    },
    {
      "id": "63960002",
      "lat": 45.661,
      "lon": 3.153,
      "cp": "63960",
      "ville": "Veyre-Monton",
      "prix": {
        "Gazole": 0.002399,
        "E85": 0.001055,
        "GPLc": 0.00113,
        "E10": 0.002219,
        "SP98": 0.002299
      },
      "maj_gouv": {
        "Gazole": "2026-05-05 11:20:44",
        "E85": "2026-05-05 11:20:45",
        "GPLc": "2026-05-05 11:20:45",
        "E10": "2026-05-05 11:20:45",
        "SP98": "2026-05-05 11:20:45"
      }
    },
    {
      "id": "63500008",
      "lat": 45.543752035413,
      "lon": 3.2324909729359996,
      "cp": "63500",
      "ville": "Issoire",
      "prix": {
        "Gazole": 0.002169,
        "SP95": 0.002099,
        "E10": 0.002029,
        "SP98": 0.002149
      },
      "maj_gouv": {
        "Gazole": "2026-05-06 07:32:18",
        "SP95": "2026-04-03 07:18:56",
        "E10": "2026-05-04 07:58:34",
        "SP98": "2026-05-06 07:32:18"
      }
    },
    {
      "id": "63370001",
      "lat": 45.777,
      "lon": 3.197,
      "cp": "63370",
      "ville": "LEMPDES",
      "prix": {
        "Gazole": 0.002157,
        "SP95": 0.00209,
        "E85": 0.0008219999999999999,
        "GPLc": 0.001082,
        "E10": 0.0020670000000000003
      },
      "maj_gouv": {
        "Gazole": "2026-05-06 10:10:17",
        "SP95": "2026-05-04 10:08:03",
        "E85": "2026-05-04 10:08:03",
        "GPLc": "2026-05-04 10:08:03",
        "E10": "2026-05-05 10:45:58"
      }
    },
    {
      "id": "63800002",
      "lat": 45.731430070887,
      "lon": 3.19576411256,
      "cp": "63800",
      "ville": "Cournon-d'Auvergne",
      "prix": {
        "Gazole": 0.002189,
        "E10": 0.002029
      },
      "maj_gouv": {
        "Gazole": "2026-05-05 14:24:50",
        "E10": "2026-05-05 14:24:50"
      }
    },
    {
      "id": "63300007",
      "lat": 45.842,
      "lon": 3.515,
      "cp": "63300",
      "ville": "THIERS",
      "prix": {
        "Gazole": 0.002209,
        "SP95": 0.002109,
        "GPLc": 0.001109,
        "SP98": 0.002149
      },
      "maj_gouv": {
        "Gazole": "2026-04-23 06:55:00",
        "SP95": "2026-05-05 06:55:00",
        "GPLc": "2026-05-05 06:55:00",
        "SP98": "2026-05-05 06:55:00"
      }
    },
    {
      "id": "63440003",
      "lat": 46.058707223,
      "lon": 3.11405330762,
      "cp": "63440",
      "ville": "CHAMPS",
      "prix": {},
      "maj_gouv": {}
    },
    {
      "id": "63570003",
      "lat": 45.414,
      "lon": 3.32,
      "cp": "63570",
      "ville": "Brassac-les-Mines",
      "prix": {
        "Gazole": 0.002179,
        "E10": 0.002029,
        "SP98": 0.002129
      },
      "maj_gouv": {
        "Gazole": "2026-04-30 06:36:09",
        "E10": "2026-05-05 14:55:46",
        "SP98": "2026-05-05 14:55:47"
      }
    },
    {
      "id": "63112001",
      "lat": 45.825,
      "lon": 3.073,
      "cp": "63112",
      "ville": "BLANZAT",
      "prix": {
        "Gazole": 0.002179,
        "E85": 0.000819,
        "E10": 0.002019,
        "SP98": 0.002149
      },
      "maj_gouv": {
        "Gazole": "2026-05-05 09:07:47",
        "E85": "2026-04-17 07:39:33",
        "E10": "2026-05-05 09:07:47",
        "SP98": "2026-05-05 09:07:47"
      }
    },
    {
      "id": "63150002",
      "lat": 45.594,
      "lon": 2.762,
      "cp": "63150",
      "ville": "MURAT-LE-QUAIRE",
      "prix": {
        "Gazole": 0.002199,
        "E85": 0.000819,
        "E10": 0.002029,
        "SP98": 0.002139
      },
      "maj_gouv": {
        "Gazole": "2026-04-29 12:35:37",
        "E85": "2026-04-29 12:35:38",
        "E10": "2026-04-29 12:35:38",
        "SP98": "2026-05-06 09:11:22"
      }
    },
    {
      "id": "63000023",
      "lat": 45.80662,
      "lon": 3.10943,
      "cp": "63000",
      "ville": "Clermont-Ferrand",
      "prix": {
        "Gazole": 0.002157
      },
      "maj_gouv": {
        "Gazole": "2026-05-07 00:01:00"
      }
    },
    {
      "id": "63140002",
      "lat": 45.91853,
      "lon": 3.073,
      "cp": "63140",
      "ville": "Châtel-Guyon",
      "prix": {
        "Gazole": 0.00219,
        "SP95": 0.002079,
        "E85": 0.000843
      },
      "maj_gouv": {
        "Gazole": "2026-05-02 11:38:55",
        "SP95": "2026-05-02 11:38:55",
        "E85": "2026-05-02 11:38:55"
      }
    },
    {
      "id": "63850001",
      "lat": 45.408,
      "lon": 2.827,
      "cp": "63850",
      "ville": "Égliseneuve-d'Entraigues",
      "prix": {
        "Gazole": 0.0022389999999999997,
        "SP95": 0.002099
      },
      "maj_gouv": {
        "Gazole": "2026-04-24 14:46:58",
        "SP95": "2026-04-20 09:03:53"
      }
    },
    {
      "id": "63610001",
      "lat": 45.509795444645,
      "lon": 2.93548599036,
      "cp": "63610",
      "ville": "Besse-et-Saint-Anastaise",
      "prix": {
        "Gazole": 0.002199,
        "E85": 0.000838,
        "E10": 0.002049,
        "SP98": 0.002159
      },
      "maj_gouv": {
        "Gazole": "2026-05-05 14:43:26",
        "E85": "2026-05-05 09:09:35",
        "E10": "2026-05-05 14:43:26",
        "SP98": "2026-05-05 14:43:26"
      }
    },
    {
      "id": "63260003",
      "lat": 46.01,
      "lon": 3.197,
      "cp": "63260",
      "ville": "Aigueperse",
      "prix": {
        "Gazole": 0.002199,
        "E10": 0.0020499999999999997,
        "SP98": 0.00219
      },
      "maj_gouv": {
        "Gazole": "2026-04-27 12:32:52",
        "E10": "2026-05-05 15:34:20",
        "SP98": "2026-05-05 15:34:20"
      }
    },
    {
      "id": "63170008",
      "lat": 45.755,
      "lon": 3.13,
      "cp": "63170",
      "ville": "AUBIERE",
      "prix": {},
      "maj_gouv": {}
    },
    {
      "id": "63300001",
      "lat": 45.839,
      "lon": 3.51,
      "cp": "63300",
      "ville": "Thiers",
      "prix": {
        "Gazole": 0.002169,
        "SP95": 0.0021509999999999997,
        "E10": 0.002048,
        "SP98": 0.002205
      },
      "maj_gouv": {
        "Gazole": "2026-05-07 00:39:00",
        "SP95": "2026-05-07 00:39:00",
        "E10": "2026-05-07 00:39:00",
        "SP98": "2026-05-07 00:39:00"
      }
    },
    {
      "id": "63320001",
      "lat": 45.59,
      "lon": 3.121,
      "cp": "63320",
      "ville": "CHAMPEIX",
      "prix": {
        "Gazole": 0.002189,
        "E10": 0.002039,
        "SP98": 0.002149
      },
      "maj_gouv": {
        "Gazole": "2026-05-05 09:12:46",
        "E10": "2026-05-05 09:12:47",
        "SP98": "2026-05-05 09:12:47"
      }
    },
    {
      "id": "63780001",
      "lat": 45.94,
      "lon": 2.837,
      "cp": "63780",
      "ville": "Saint-Georges-de-Mons",
      "prix": {
        "Gazole": 0.002189,
        "E85": 0.0008179999999999999,
        "E10": 0.002039,
        "SP98": 0.002159
      },
      "maj_gouv": {
        "Gazole": "2026-05-06 18:43:38",
        "E85": "2026-05-06 18:43:39",
        "E10": "2026-05-06 18:43:39",
        "SP98": "2026-05-06 18:43:39"
      }
    },
    {
      "id": "63360001",
      "lat": 45.81675,
      "lon": 3.15286,
      "cp": "63360",
      "ville": "Gerzat",
      "prix": {
        "Gazole": 0.002178,
        "SP95": 0.00209,
        "E10": 0.0020659999999999997,
        "SP98": 0.002166
      },
      "maj_gouv": {
        "Gazole": "2026-05-05 11:34:09",
        "SP95": "2026-05-05 11:34:09",
        "E10": "2026-05-05 11:34:09",
        "SP98": "2026-05-05 11:34:09"
      }
    },
    {
      "id": "63500002",
      "lat": 45.552,
      "lon": 3.268,
      "cp": "63500",
      "ville": "ISSOIRE",
      "prix": {
        "Gazole": 0.002169,
        "E85": 0.000838,
        "E10": 0.002029,
        "SP98": 0.002149
      },
      "maj_gouv": {
        "Gazole": "2026-05-06 08:57:51",
        "E85": "2026-05-04 09:35:12",
        "E10": "2026-05-06 08:57:51",
        "SP98": "2026-05-06 08:57:51"
      }
    },
    {
      "id": "63660001",
      "lat": 45.523,
      "lon": 3.911,
      "cp": "63660",
      "ville": "Saint-Anthème",
      "prix": {
        "Gazole": 0.002258,
        "SP95": 0.002162,
        "E85": 0.0009360000000000001
      },
      "maj_gouv": {
        "Gazole": "2026-05-06 17:56:50",
        "SP95": "2026-05-06 17:56:50",
        "E85": "2026-05-06 17:56:51"
      }
    },
    {
      "id": "63290001",
      "lat": 45.955,
      "lon": 3.478,
      "cp": "63290",
      "ville": "PUY-GUILLAUME",
      "prix": {
        "Gazole": 0.00225,
        "E10": 0.00199,
        "SP98": 0.00199
      },
      "maj_gouv": {
        "Gazole": "2026-05-04 07:35:53",
        "E10": "2026-04-18 08:39:35",
        "SP98": "2026-04-18 08:39:35"
      }
    },
    {
      "id": "63700006",
      "lat": 46.184,
      "lon": 2.802,
      "cp": "63700",
      "ville": "MONTAIGUT EN COMBRAILLES",
      "prix": {
        "E10": 0.00199
      },
      "maj_gouv": {
        "E10": "2026-05-04 06:13:56"
      }
    },
    {
      "id": "63250001",
      "lat": 45.8790132,
      "lon": 3.6923149,
      "cp": "63250",
      "ville": "Chabreloche",
      "prix": {
        "Gazole": 0.002529,
        "E10": 0.002078
      },
      "maj_gouv": {
        "Gazole": "2026-04-08 12:15:16",
        "E10": "2026-04-08 12:15:17"
      }
    },
    {
      "id": "63460003",
      "lat": 45.984,
      "lon": 3.087,
      "cp": "63460",
      "ville": "COMBRONDE",
      "prix": {
        "Gazole": 0.002182,
        "E85": 0.0008179999999999999,
        "E10": 0.0020440000000000002,
        "SP98": 0.002169
      },
      "maj_gouv": {
        "Gazole": "2026-05-05 13:42:21",
        "E85": "2026-04-23 05:54:27",
        "E10": "2026-05-05 13:42:21",
        "SP98": "2026-05-05 13:42:21"
      }
    },
    {
      "id": "63150001",
      "lat": 45.591,
      "lon": 2.758,
      "cp": "63150",
      "ville": "LA BOURBOULE",
      "prix": {
        "Gazole": 0.002209,
        "E85": 0.000819,
        "E10": 0.002039,
        "SP98": 0.002149
      },
      "maj_gouv": {
        "Gazole": "2026-05-06 15:53:46",
        "E85": "2026-05-06 15:53:47",
        "E10": "2026-05-06 15:53:47",
        "SP98": "2026-05-06 15:53:47"
      }
    },
    {
      "id": "63120003",
      "lat": 45.759,
      "lon": 3.542,
      "cp": "63120",
      "ville": "COURPIERE",
      "prix": {
        "Gazole": 0.002199,
        "SP95": 0.002099,
        "E85": 0.000819,
        "SP98": 0.002149
      },
      "maj_gouv": {
        "Gazole": "2026-05-05 17:08:49",
        "SP95": "2026-05-05 17:08:49",
        "E85": "2026-05-05 17:08:49",
        "SP98": "2026-05-05 17:08:49"
      }
    },
    {
      "id": "63210003",
      "lat": 45.685,
      "lon": 2.796,
      "cp": "63210",
      "ville": "Rochefort-Montagne",
      "prix": {
        "Gazole": 0.00225,
        "E85": 0.000869,
        "E10": 0.0020499999999999997
      },
      "maj_gouv": {
        "Gazole": "2026-05-05 10:03:49",
        "E85": "2026-05-05 10:03:49",
        "E10": "2026-05-05 10:03:50"
      }
    },
    {
      "id": "63430002",
      "lat": 45.788,
      "lon": 3.268,
      "cp": "63430",
      "ville": "Pont-du-Château",
      "prix": {
        "Gazole": 0.00225,
        "E85": 0.000919,
        "E10": 0.00199
      },
      "maj_gouv": {
        "Gazole": "2026-05-05 11:51:12",
        "E85": "2026-05-05 11:51:12",
        "E10": "2026-05-05 11:51:12"
      }
    },
    {
      "id": "63000015",
      "lat": 45.76198599999999,
      "lon": 3.12696,
      "cp": "63000",
      "ville": "CLERMONT-FERRAND",
      "prix": {
        "Gazole": 0.002149,
        "SP95": 0.0020819999999999996,
        "E85": 0.0008179999999999999,
        "GPLc": 0.000979,
        "E10": 0.0020659999999999997,
        "SP98": 0.0021379999999999997
      },
      "maj_gouv": {
        "Gazole": "2026-05-02 09:12:52",
        "SP95": "2026-04-27 07:28:01",
        "E85": "2026-04-24 09:35:03",
        "GPLc": "2026-04-22 07:15:18",
        "E10": "2026-05-05 07:02:00",
        "SP98": "2026-05-05 07:02:00"
      }
    },
    {
      "id": "63390001",
      "lat": 46.0307872738,
      "lon": 2.82101927933,
      "cp": "63390",
      "ville": "SAINT-GERVAIS-D'AUVERGNE",
      "prix": {
        "Gazole": 0.002189,
        "SP95": 0.002089,
        "SP98": 0.002179
      },
      "maj_gouv": {
        "Gazole": "2026-04-24 19:30:59",
        "SP95": "2026-04-24 19:30:59",
        "SP98": "2026-04-24 19:30:59"
      }
    },
    {
      "id": "63700007",
      "lat": 46.161214900000004,
      "lon": 2.8351164,
      "cp": "63700",
      "ville": "St Eloy les Mines",
      "prix": {
        "Gazole": 0.00225
      },
      "maj_gouv": {
        "Gazole": "2026-04-23 13:10:37"
      }
    },
    {
      "id": "63620001",
      "lat": 45.80467,
      "lon": 2.47016,
      "cp": "63620",
      "ville": "Giat",
      "prix": {
        "Gazole": 0.002249,
        "E10": 0.002129,
        "SP98": 0.002229
      },
      "maj_gouv": {
        "Gazole": "2026-05-02 18:59:24",
        "E10": "2026-05-02 18:59:24",
        "SP98": "2026-05-02 18:59:24"
      }
    },
    {
      "id": "63000024",
      "lat": 45.788,
      "lon": 3.057,
      "cp": "63000",
      "ville": "Clermont-Ferrand",
      "prix": {
        "Gazole": 0.0020859999999999997,
        "E85": 0.000964,
        "E10": 0.00199
      },
      "maj_gouv": {
        "Gazole": "2026-05-07 00:01:00",
        "E85": "2026-05-07 00:01:00",
        "E10": "2026-05-07 00:01:00"
      }
    },
    {
      "id": "63540002",
      "lat": 45.737,
      "lon": 3.099,
      "cp": "63540",
      "ville": "Romagnat",
      "prix": {
        "Gazole": 0.00225,
        "E10": 0.00199
      },
      "maj_gouv": {
        "Gazole": "2026-05-06 08:06:15",
        "E10": "2026-05-06 08:06:15"
      }
    },
    {
      "id": "63200002",
      "lat": 45.884,
      "lon": 3.115,
      "cp": "63200",
      "ville": "RIOM",
      "prix": {
        "Gazole": 0.00225,
        "E10": 0.00199
      },
      "maj_gouv": {
        "Gazole": "2026-05-04 13:52:32",
        "E10": "2026-05-04 13:52:32"
      }
    },
    {
      "id": "63118001",
      "lat": 45.836,
      "lon": 3.095,
      "cp": "63118",
      "ville": "CéBAZAT",
      "prix": {
        "Gazole": 0.002179,
        "E10": 0.002019,
        "SP98": 0.002149
      },
      "maj_gouv": {
        "Gazole": "2026-05-06 09:04:01",
        "E10": "2026-05-06 09:04:01",
        "SP98": "2026-05-06 09:04:02"
      }
    },
    {
      "id": "63330002",
      "lat": 46.111,
      "lon": 2.698,
      "cp": "63330",
      "ville": "Pionsat",
      "prix": {
        "Gazole": 0.002199,
        "E10": 0.002039,
        "SP98": 0.002149
      },
      "maj_gouv": {
        "Gazole": "2026-05-04 06:51:43",
        "E10": "2026-05-06 07:11:53",
        "SP98": "2026-05-04 06:51:44"
      }
    },
    {
      "id": "63400001",
      "lat": 45.775,
      "lon": 3.064,
      "cp": "63400",
      "ville": "Chamalières",
      "prix": {
        "Gazole": 0.0022080000000000003,
        "E10": 0.002028,
        "SP98": 0.002154
      },
      "maj_gouv": {
        "Gazole": "2026-04-28 17:15:00",
        "E10": "2026-04-28 17:15:00",
        "SP98": "2026-04-28 17:15:00"
      }
    },
    {
      "id": "63940001",
      "lat": 45.48106,
      "lon": 3.72648,
      "cp": "63940",
      "ville": "Marsac-en-Livradois",
      "prix": {
        "Gazole": 0.00225,
        "E10": 0.00199,
        "SP98": 0.00199
      },
      "maj_gouv": {
        "Gazole": "2026-05-04 07:02:03",
        "E10": "2026-05-04 07:02:03",
        "SP98": "2026-05-04 07:02:03"
      }
    },
    {
      "id": "63310002",
      "lat": 46.017,
      "lon": 3.349,
      "cp": "63310",
      "ville": "RANDAN",
      "prix": {
        "Gazole": 0.002179,
        "E85": 0.0008179999999999999,
        "E10": 0.00199,
        "SP98": 0.002148
      },
      "maj_gouv": {
        "Gazole": "2026-05-06 10:53:16",
        "E85": "2026-04-20 09:04:31",
        "E10": "2026-05-06 10:53:16",
        "SP98": "2026-04-30 12:10:41"
      }
    },
    {
      "id": "63190011",
      "lat": 45.851,
      "lon": 3.405,
      "cp": "63190",
      "ville": "ORLEAT",
      "prix": {
        "Gazole": 0.00225,
        "E85": 0.000998,
        "E10": 0.00199,
        "SP98": 0.00199
      },
      "maj_gouv": {
        "Gazole": "2026-05-07 00:01:00",
        "E85": "2026-05-07 00:01:00",
        "E10": "2026-05-07 00:01:00",
        "SP98": "2026-05-07 00:01:00"
      }
    },
    {
      "id": "63230001",
      "lat": 45.841,
      "lon": 2.759,
      "cp": "63230",
      "ville": "LA GOUTELLE",
      "prix": {
        "Gazole": 0.002177,
        "E10": 0.00199
      },
      "maj_gouv": {
        "Gazole": "2026-05-07 05:33:36",
        "E10": "2026-05-05 15:38:38"
      }
    },
    {
      "id": "63210002",
      "lat": 45.687,
      "lon": 2.805,
      "cp": "63210",
      "ville": "Rochefort-Montagne",
      "prix": {
        "Gazole": 0.002285,
        "SP95": 0.002199,
        "SP98": 0.002229
      },
      "maj_gouv": {
        "Gazole": "2026-04-28 10:33:54",
        "SP95": "2026-05-06 09:57:56",
        "SP98": "2026-05-06 09:57:56"
      }
    },
    {
      "id": "63240001",
      "lat": 45.576,
      "lon": 2.804,
      "cp": "63240",
      "ville": "MONT-DORE",
      "prix": {
        "Gazole": 0.00225,
        "E10": 0.00199
      },
      "maj_gouv": {
        "Gazole": "2026-04-29 17:22:25",
        "E10": "2026-05-06 10:07:56"
      }
    },
    {
      "id": "63000001",
      "lat": 45.773,
      "lon": 3.096,
      "cp": "63000",
      "ville": "CLERMONT-FERRAND",
      "prix": {
        "Gazole": 0.002149,
        "E85": 0.000949,
        "E10": 0.00199
      },
      "maj_gouv": {
        "Gazole": "2026-05-07 04:16:04",
        "E85": "2026-05-07 04:16:04",
        "E10": "2026-05-07 04:16:04"
      }
    },
    {
      "id": "63000022",
      "lat": 45.789,
      "lon": 3.118,
      "cp": "63000",
      "ville": "CLERMONT FERRAND",
      "prix": {
        "Gazole": 0.00215,
        "E10": 0.00199
      },
      "maj_gouv": {
        "Gazole": "2026-05-07 00:01:00",
        "E10": "2026-05-07 06:06:15"
      }
    },
    {
      "id": "63410004",
      "lat": 45.9629287,
      "lon": 2.9490673,
      "cp": "63410",
      "ville": "MANZAT",
      "prix": {},
      "maj_gouv": {}
    },
    {
      "id": "63670001",
      "lat": 45.726,
      "lon": 3.188,
      "cp": "63670",
      "ville": "LE CENDRE",
      "prix": {
        "Gazole": 0.002179,
        "E85": 0.000819,
        "E10": 0.002019,
        "SP98": 0.002149
      },
      "maj_gouv": {
        "Gazole": "2026-05-05 07:51:59",
        "E85": "2026-04-16 08:16:24",
        "E10": "2026-05-05 07:51:59",
        "SP98": "2026-05-05 07:52:00"
      }
    },
    {
      "id": "63270002",
      "lat": 45.646215999999995,
      "lon": 3.226488,
      "cp": "63270",
      "ville": "Vic-le-Comte",
      "prix": {
        "Gazole": 0.002169,
        "E85": 0.000789,
        "E10": 0.002059
      },
      "maj_gouv": {
        "Gazole": "2026-05-06 08:15:22",
        "E85": "2026-04-10 08:41:47",
        "E10": "2026-05-04 07:30:42"
      }
    },
    {
      "id": "63000014",
      "lat": 45.781,
      "lon": 3.077,
      "cp": "63000",
      "ville": "CLERMONT-FERRAND",
      "prix": {
        "Gazole": 0.002199,
        "E10": 0.002019,
        "SP98": 0.002145
      },
      "maj_gouv": {
        "Gazole": "2026-04-28 09:18:17",
        "E10": "2026-04-28 09:18:17",
        "SP98": "2026-04-28 09:18:17"
      }
    },
    {
      "id": "63210001",
      "lat": 45.72613,
      "lon": 2.89526,
      "cp": "63210",
      "ville": "Nébouzat",
      "prix": {
        "Gazole": 0.00225,
        "E10": 0.00199
      },
      "maj_gouv": {
        "Gazole": "2026-05-04 09:06:12",
        "E10": "2026-04-21 14:09:41"
      }
    },
    {
      "id": "63160004",
      "lat": 45.728562503968,
      "lon": 3.3395019953926,
      "cp": "63160",
      "ville": "BILLOM",
      "prix": {
        "Gazole": 0.00225,
        "E10": 0.00199
      },
      "maj_gouv": {
        "Gazole": "2026-05-06 10:21:30",
        "E10": "2026-05-06 10:21:30"
      }
    },
    {
      "id": "63119001",
      "lat": 45.849303701836,
      "lon": 3.0827283697238,
      "cp": "63119",
      "ville": "CHATEAUGAY",
      "prix": {
        "SP95": 0.00199
      },
      "maj_gouv": {
        "SP95": "2026-05-04 11:04:47"
      }
    },
    {
      "id": "63380003",
      "lat": 45.87,
      "lon": 2.673,
      "cp": "63380",
      "ville": "Pontaumur",
      "prix": {
        "Gazole": 0.0022010000000000003,
        "E10": 0.002049,
        "SP98": 0.002149
      },
      "maj_gouv": {
        "Gazole": "2026-05-06 18:56:54",
        "E10": "2026-05-06 09:47:50",
        "SP98": "2026-05-06 18:56:54"
      }
    }
  ]
}