{
  "departement": "84",
  "date": "2026-05-28",
  "stations": [
    {
      "id": "84500006",
      "lat": 44.258,
      "lon": 4.65,
      "cp": "84500",
      "ville": "BOLLENE",
      "prix": {
        "Gazole": 0.0020710000000000004,
        "E85": 0.0008349999999999999,
        "E10": 0.00199,
        "SP98": 0.00199
      },
      "maj_gouv": {
        "Gazole": "2026-05-28 00:01:00",
        "E85": "2026-05-28 00:01:00",
        "E10": "2026-05-28 00:01:00",
        "SP98": "2026-05-28 00:01:00"
      }
    },
    {
      "id": "84840003",
      "lat": 44.312,
      "lon": 4.686,
      "cp": "84840",
      "ville": "Lapalud",
      "prix": {
        "Gazole": 0.002108,
        "E85": 0.000829,
        "E10": 0.002099
      },
      "maj_gouv": {
        "Gazole": "2026-05-25 08:22:42",
        "E85": "2026-05-15 07:31:11",
        "E10": "2026-05-15 07:31:12"
      }
    },
    {
      "id": "84200008",
      "lat": 44.08,
      "lon": 5.067,
      "cp": "84200",
      "ville": "Carpentras",
      "prix": {
        "Gazole": 0.0022789999999999998,
        "SP95": 0.002149,
        "E85": 0.000999,
        "SP98": 0.002219
      },
      "maj_gouv": {
        "Gazole": "2026-05-11 14:03:14",
        "SP95": "2026-04-16 10:52:18",
        "E85": "2026-03-04 13:02:48",
        "SP98": "2026-04-16 10:52:18"
      }
    },
    {
      "id": "84220003",
      "lat": 43.864,
      "lon": 5.291,
      "cp": "84220",
      "ville": "ROUSSILLON",
      "prix": {
        "Gazole": 0.002148,
        "E85": 0.0008990000000000001,
        "E10": 0.0021190000000000002
      },
      "maj_gouv": {
        "Gazole": "2026-05-23 04:41:58",
        "E85": "2026-05-23 04:41:58",
        "E10": "2026-05-23 04:41:58"
      }
    },
    {
      "id": "84550004",
      "lat": 44.195,
      "lon": 4.731,
      "cp": "84550",
      "ville": "Mornas",
      "prix": {
        "Gazole": 0.002336,
        "E85": 0.001008,
        "GPLc": 0.001206,
        "E10": 0.0023,
        "SP98": 0.002428
      },
      "maj_gouv": {
        "Gazole": "2026-05-26 11:08:33",
        "E85": "2026-05-26 11:08:33",
        "GPLc": "2026-05-26 11:08:33",
        "E10": "2026-05-26 11:08:33",
        "SP98": "2026-05-26 11:08:33"
      }
    },
    {
      "id": "84170001",
      "lat": 44.033,
      "lon": 4.995,
      "cp": "84170",
      "ville": "Monteux",
      "prix": {
        "Gazole": 0.0021349999999999997,
        "E85": 0.000958,
        "E10": 0.002128,
        "SP98": 0.00222
      },
      "maj_gouv": {
        "Gazole": "2026-05-26 07:22:30",
        "E85": "2026-05-20 05:57:23",
        "E10": "2026-05-20 05:57:24",
        "SP98": "2026-05-20 05:57:24"
      }
    },
    {
      "id": "84000001",
      "lat": 43.93,
      "lon": 4.833,
      "cp": "84000",
      "ville": "Avignon",
      "prix": {
        "Gazole": 0.00206,
        "E85": 0.000782,
        "GPLc": 0.001095,
        "E10": 0.002004,
        "SP98": 0.002129
      },
      "maj_gouv": {
        "Gazole": "2026-05-26 08:15:01",
        "E85": "2026-05-22 10:27:01",
        "GPLc": "2026-05-11 08:13:13",
        "E10": "2026-05-26 08:15:01",
        "SP98": "2026-05-26 08:15:01"
      }
    },
    {
      "id": "84200010",
      "lat": 44.059915395230995,
      "lon": 5.0704285376765,
      "cp": "84200",
      "ville": "CARPENTRAS",
      "prix": {
        "Gazole": 0.002109,
        "E10": 0.002089,
        "SP98": 0.002179
      },
      "maj_gouv": {
        "Gazole": "2026-05-15 16:38:54",
        "E10": "2026-05-15 16:38:54",
        "SP98": "2026-05-15 16:38:55"
      }
    },
    {
      "id": "84330005",
      "lat": 44.1,
      "lon": 5.102,
      "cp": "84330",
      "ville": "CAROMB",
      "prix": {
        "Gazole": 0.002199,
        "E10": 0.002129,
        "SP98": 0.002229
      },
      "maj_gouv": {
        "Gazole": "2026-05-27 09:35:39",
        "E10": "2026-05-27 09:35:39",
        "SP98": "2026-05-27 09:35:39"
      }
    },
    {
      "id": "84700006",
      "lat": 44.023,
      "lon": 4.89,
      "cp": "84700",
      "ville": "Sorgues",
      "prix": {
        "Gazole": 0.002269,
        "E85": 0.001055,
        "GPLc": 0.00116,
        "E10": 0.002219,
        "SP98": 0.002299
      },
      "maj_gouv": {
        "Gazole": "2026-05-28 06:17:42",
        "E85": "2026-05-28 06:17:43",
        "GPLc": "2026-05-28 06:17:43",
        "E10": "2026-05-28 06:17:43",
        "SP98": "2026-05-28 06:17:43"
      }
    },
    {
      "id": "84500003",
      "lat": 44.280839173,
      "lon": 4.8021741693,
      "cp": "84500",
      "ville": "BOLLèNE",
      "prix": {
        "Gazole": 0.00228,
        "SP95": 0.0022
      },
      "maj_gouv": {
        "Gazole": "2026-05-06 08:48:59",
        "SP95": "2026-05-06 08:48:59"
      }
    },
    {
      "id": "84310002",
      "lat": 43.94345,
      "lon": 4.90789,
      "cp": "84310",
      "ville": "Morières-lès-Avignon",
      "prix": {
        "Gazole": 0.002109,
        "E85": 0.0007790000000000001,
        "E10": 0.002069,
        "SP98": 0.002179
      },
      "maj_gouv": {
        "Gazole": "2026-05-27 09:00:00",
        "E85": "2026-05-27 09:00:00",
        "E10": "2026-05-27 09:00:00",
        "SP98": "2026-05-27 09:00:00"
      }
    },
    {
      "id": "84570002",
      "lat": 44.057792672929,
      "lon": 5.2314268211487,
      "cp": "84570",
      "ville": "VILLES-SUR-AUZON",
      "prix": {
        "Gazole": 0.002219,
        "SP95": 0.002209
      },
      "maj_gouv": {
        "Gazole": "2026-05-26 08:15:36",
        "SP95": "2026-05-21 10:01:01"
      }
    },
    {
      "id": "84000023",
      "lat": 43.929473098521,
      "lon": 4.79102455869,
      "cp": "84000",
      "ville": "AVIGNON",
      "prix": {
        "Gazole": 0.0020800000000000003,
        "E10": 0.00199,
        "SP98": 0.002199
      },
      "maj_gouv": {
        "Gazole": "2026-05-23 08:09:46",
        "E10": "2026-05-23 08:09:46",
        "SP98": "2026-05-11 10:19:01"
      }
    },
    {
      "id": "84290001",
      "lat": 44.232,
      "lon": 4.883,
      "cp": "84290",
      "ville": "ste cécile les vignes",
      "prix": {
        "Gazole": 0.002157,
        "E10": 0.002075,
        "SP98": 0.002178
      },
      "maj_gouv": {
        "Gazole": "2026-05-22 10:55:54",
        "E10": "2026-05-22 10:55:54",
        "SP98": "2026-05-22 10:55:54"
      }
    },
    {
      "id": "84270002",
      "lat": 43.97813675,
      "lon": 4.908116067437899,
      "cp": "84270",
      "ville": "Vedène",
      "prix": {
        "Gazole": 0.0021160000000000003,
        "E10": 0.002063,
        "SP98": 0.002198
      },
      "maj_gouv": {
        "Gazole": "2026-05-27 12:53:39",
        "E10": "2026-05-27 12:53:39",
        "SP98": "2026-05-27 12:53:39"
      }
    },
    {
      "id": "84110006",
      "lat": 44.229030660904,
      "lon": 5.0139130168282,
      "cp": "84110",
      "ville": "SEGURET",
      "prix": {
        "Gazole": 0.002229,
        "SP95": 0.002229
      },
      "maj_gouv": {
        "Gazole": "2026-05-18 16:59:25",
        "SP95": "2026-05-18 16:59:26"
      }
    },
    {
      "id": "84600003",
      "lat": 44.394,
      "lon": 4.942,
      "cp": "84600",
      "ville": "Grillon",
      "prix": {
        "Gazole": 0.002089,
        "E85": 0.000862,
        "E10": 0.002049,
        "SP98": 0.002149
      },
      "maj_gouv": {
        "Gazole": "2026-05-27 07:33:59",
        "E85": "2026-04-11 08:44:30",
        "E10": "2026-05-27 07:33:59",
        "SP98": "2026-05-27 07:33:59"
      }
    },
    {
      "id": "84850002",
      "lat": 44.160795619623,
      "lon": 4.8743299834672005,
      "cp": "84850",
      "ville": "Camaret-sur-Aigues",
      "prix": {
        "Gazole": 0.0021000000000000003,
        "E85": 0.000798,
        "E10": 0.002045,
        "SP98": 0.002149
      },
      "maj_gouv": {
        "Gazole": "2026-05-27 10:36:51",
        "E85": "2026-05-18 09:43:56",
        "E10": "2026-05-27 10:36:52",
        "SP98": "2026-05-27 10:36:52"
      }
    },
    {
      "id": "84300013",
      "lat": 43.83519894804,
      "lon": 5.0442203664398,
      "cp": "84300",
      "ville": "CAVAILLON",
      "prix": {
        "Gazole": 0.002149,
        "SP95": 0.002059,
        "E85": 0.000859
      },
      "maj_gouv": {
        "Gazole": "2026-05-18 12:22:37",
        "SP95": "2026-05-15 11:52:25",
        "E85": "2026-04-23 11:32:08"
      }
    },
    {
      "id": "84430005",
      "lat": 44.235,
      "lon": 4.711,
      "cp": "84430",
      "ville": "Mondragon",
      "prix": {
        "Gazole": 0.002109,
        "E10": 0.002089,
        "SP98": 0.002219
      },
      "maj_gouv": {
        "Gazole": "2026-05-23 12:19:56",
        "E10": "2026-05-23 12:19:56",
        "SP98": "2026-05-23 12:19:56"
      }
    },
    {
      "id": "84700007",
      "lat": 44.00503690000001,
      "lon": 4.8747561,
      "cp": "84700",
      "ville": "Sorgues",
      "prix": {
        "Gazole": 0.0021190000000000002,
        "E10": 0.002079
      },
      "maj_gouv": {
        "Gazole": "2026-05-19 13:50:44",
        "E10": "2026-05-19 13:50:45"
      }
    },
    {
      "id": "84600002",
      "lat": 44.373,
      "lon": 4.981,
      "cp": "84600",
      "ville": "Valréas",
      "prix": {
        "Gazole": 0.002169,
        "E85": 0.000798,
        "E10": 0.002099,
        "SP98": 0.002179
      },
      "maj_gouv": {
        "Gazole": "2026-05-19 07:48:00",
        "E85": "2026-05-19 07:48:00",
        "E10": "2026-05-19 07:48:00",
        "SP98": "2026-05-19 07:48:00"
      }
    },
    {
      "id": "84000011",
      "lat": 43.94,
      "lon": 4.83,
      "cp": "84000",
      "ville": "AVIGNON",
      "prix": {
        "Gazole": 0.002161,
        "E85": 0.000798,
        "E10": 0.002117,
        "SP98": 0.002156
      },
      "maj_gouv": {
        "Gazole": "2026-05-18 16:37:46",
        "E85": "2026-05-18 16:37:46",
        "E10": "2026-05-18 16:37:46",
        "SP98": "2026-04-15 14:11:46"
      }
    },
    {
      "id": "84107001",
      "lat": 44.12,
      "lon": 4.84,
      "cp": "84100",
      "ville": "ORANGE",
      "prix": {
        "Gazole": 0.0021000000000000003,
        "E85": 0.000848,
        "E10": 0.00204,
        "SP98": 0.00218
      },
      "maj_gouv": {
        "Gazole": "2026-05-23 10:29:27",
        "E85": "2026-05-23 10:29:27",
        "E10": "2026-05-23 10:29:27",
        "SP98": "2026-05-23 10:29:27"
      }
    },
    {
      "id": "84140006",
      "lat": 43.931,
      "lon": 4.874,
      "cp": "84140",
      "ville": "MONTFAVET",
      "prix": {
        "Gazole": 0.0020710000000000004,
        "E85": 0.0008489999999999999,
        "E10": 0.00199,
        "SP98": 0.00199
      },
      "maj_gouv": {
        "Gazole": "2026-05-28 00:01:00",
        "E85": "2026-05-28 00:01:00",
        "E10": "2026-05-28 00:01:00",
        "SP98": "2026-05-28 00:01:00"
      }
    },
    {
      "id": "84000021",
      "lat": 43.935,
      "lon": 4.848,
      "cp": "84000",
      "ville": "AVIGNON",
      "prix": {
        "Gazole": 0.002007,
        "E10": 0.001971
      },
      "maj_gouv": {
        "Gazole": "2026-05-28 00:01:00",
        "E10": "2026-05-28 00:01:00"
      }
    },
    {
      "id": "84170002",
      "lat": 44.035,
      "lon": 5.003,
      "cp": "84170",
      "ville": "MONTEUX",
      "prix": {
        "Gazole": 0.002149,
        "E85": 0.001099,
        "E10": 0.002099,
        "SP98": 0.002199
      },
      "maj_gouv": {
        "Gazole": "2026-05-27 07:52:25",
        "E85": "2026-03-24 11:31:52",
        "E10": "2026-05-27 07:52:25",
        "SP98": "2026-05-27 07:52:25"
      }
    },
    {
      "id": "84130014",
      "lat": 43.951587862436,
      "lon": 4.858162032207,
      "cp": "84130",
      "ville": "LE PONTET",
      "prix": {
        "Gazole": 0.002149,
        "E10": 0.002099,
        "SP98": 0.002199
      },
      "maj_gouv": {
        "Gazole": "2026-05-25 15:48:27",
        "E10": "2026-05-25 15:48:28",
        "SP98": "2026-05-25 15:48:28"
      }
    },
    {
      "id": "84507001",
      "lat": 44.322,
      "lon": 4.745,
      "cp": "84500",
      "ville": "BOLLèNE",
      "prix": {
        "Gazole": 0.002069,
        "SP95": 0.002099,
        "E85": 0.000789,
        "GPLc": 0.001099,
        "E10": 0.0020150000000000003
      },
      "maj_gouv": {
        "Gazole": "2026-05-27 08:30:00",
        "SP95": "2026-05-22 08:42:28",
        "E85": "2026-04-21 08:30:00",
        "GPLc": "2026-04-15 08:30:00",
        "E10": "2026-05-26 08:47:51"
      }
    },
    {
      "id": "84301001",
      "lat": 43.8365087192,
      "lon": 5.0504459519600005,
      "cp": "84300",
      "ville": "CAVAILLON",
      "prix": {
        "Gazole": 0.002059,
        "E85": 0.000798,
        "E10": 0.002045,
        "SP98": 0.002159
      },
      "maj_gouv": {
        "Gazole": "2026-05-27 08:52:20",
        "E85": "2026-05-27 08:52:20",
        "E10": "2026-05-27 08:52:21",
        "SP98": "2026-05-27 08:52:21"
      }
    },
    {
      "id": "84210001",
      "lat": 44.00918,
      "lon": 5.0511,
      "cp": "84210",
      "ville": "PERNES-LES-FONTAINES",
      "prix": {
        "Gazole": 0.002058,
        "E85": 0.000798,
        "E10": 0.0020139999999999997,
        "SP98": 0.0021309999999999996
      },
      "maj_gouv": {
        "Gazole": "2026-05-27 23:55:00",
        "E85": "2026-05-22 23:55:00",
        "E10": "2026-05-27 23:55:00",
        "SP98": "2026-05-27 23:55:00"
      }
    },
    {
      "id": "84120007",
      "lat": 43.679,
      "lon": 5.497,
      "cp": "84120",
      "ville": "Pertuis",
      "prix": {
        "Gazole": 0.002095,
        "SP95": 0.002121,
        "E85": 0.000737,
        "E10": 0.0020729999999999998,
        "SP98": 0.002159
      },
      "maj_gouv": {
        "Gazole": "2026-05-27 08:42:00",
        "SP95": "2026-05-27 08:42:00",
        "E85": "2026-05-27 08:42:00",
        "E10": "2026-05-27 08:42:00",
        "SP98": "2026-05-27 08:42:00"
      }
    },
    {
      "id": "84340002",
      "lat": 44.176,
      "lon": 5.129,
      "cp": "84340",
      "ville": "MALAUCENE",
      "prix": {
        "Gazole": 0.0022400000000000002,
        "SP95": 0.0022299999999999998,
        "SP98": 0.00226
      },
      "maj_gouv": {
        "Gazole": "2026-05-19 18:29:07",
        "SP95": "2026-05-19 18:29:07",
        "SP98": "2026-05-19 18:29:08"
      }
    },
    {
      "id": "84130010",
      "lat": 43.978,
      "lon": 4.858,
      "cp": "84130",
      "ville": "LE PONTET",
      "prix": {
        "Gazole": 0.0020710000000000004,
        "E85": 0.000879,
        "GPLc": 0.0010789999999999999,
        "E10": 0.00199,
        "SP98": 0.00199
      },
      "maj_gouv": {
        "Gazole": "2026-05-28 00:01:00",
        "E85": "2026-05-28 00:01:00",
        "GPLc": "2026-05-28 00:01:00",
        "E10": "2026-05-28 00:01:00",
        "SP98": "2026-05-28 00:01:00"
      }
    },
    {
      "id": "84300011",
      "lat": 43.831,
      "lon": 5.054,
      "cp": "84300",
      "ville": "CAVAILLON",
      "prix": {
        "Gazole": 0.002007,
        "E85": 0.000819,
        "GPLc": 0.0010789999999999999
      },
      "maj_gouv": {
        "Gazole": "2026-05-28 00:01:00",
        "E85": "2026-05-28 00:01:00",
        "GPLc": "2026-05-28 00:01:00"
      }
    },
    {
      "id": "84800003",
      "lat": 43.931,
      "lon": 5.064,
      "cp": "84800",
      "ville": "L'ISLE-SUR-LA-SORGUE",
      "prix": {
        "Gazole": 0.002089,
        "E85": 0.000799,
        "GPLc": 0.001089,
        "E10": 0.002039,
        "SP98": 0.002159
      },
      "maj_gouv": {
        "Gazole": "2026-05-26 11:54:11",
        "E85": "2026-05-18 14:00:00",
        "GPLc": "2026-04-23 11:37:36",
        "E10": "2026-05-26 11:54:11",
        "SP98": "2026-05-26 11:54:11"
      }
    },
    {
      "id": "84200012",
      "lat": 44.057,
      "lon": 5.058,
      "cp": "84200",
      "ville": "Carpentras",
      "prix": {
        "Gazole": 0.002105,
        "E85": 0.000739,
        "E10": 0.002068
      },
      "maj_gouv": {
        "Gazole": "2026-05-27 09:44:34",
        "E85": "2026-05-09 10:39:44",
        "E10": "2026-05-22 18:40:11"
      }
    },
    {
      "id": "84260001",
      "lat": 44.0812,
      "lon": 4.98365,
      "cp": "84260",
      "ville": "Sarrians",
      "prix": {
        "Gazole": 0.002069,
        "E85": 0.000798,
        "GPLc": 0.0010789999999999999,
        "E10": 0.002039,
        "SP98": 0.002199
      },
      "maj_gouv": {
        "Gazole": "2026-05-27 07:03:32",
        "E85": "2026-05-15 06:57:10",
        "GPLc": "2026-04-14 06:59:45",
        "E10": "2026-05-27 07:03:49",
        "SP98": "2026-05-27 07:04:05"
      }
    },
    {
      "id": "84470001",
      "lat": 43.92849,
      "lon": 4.93805,
      "cp": "84470",
      "ville": "Châteauneuf-de-Gadagne",
      "prix": {
        "Gazole": 0.00218,
        "E10": 0.00209,
        "SP98": 0.00217
      },
      "maj_gouv": {
        "Gazole": "2026-05-21 10:30:14",
        "E10": "2026-05-21 10:30:57",
        "SP98": "2026-05-21 10:31:44"
      }
    },
    {
      "id": "84800004",
      "lat": 43.918,
      "lon": 5.05,
      "cp": "84800",
      "ville": "L'Isle-sur-la-Sorgue",
      "prix": {
        "Gazole": 0.0020710000000000004,
        "E85": 0.000876
      },
      "maj_gouv": {
        "Gazole": "2026-05-28 00:01:00",
        "E85": "2026-05-28 00:01:00"
      }
    },
    {
      "id": "84000009",
      "lat": 43.94,
      "lon": 4.798,
      "cp": "84000",
      "ville": "Avignon",
      "prix": {
        "Gazole": 0.00204,
        "SP95": 0.00212,
        "E10": 0.0020499999999999997
      },
      "maj_gouv": {
        "Gazole": "2026-05-27 08:30:00",
        "SP95": "2026-05-22 08:30:00",
        "E10": "2026-05-27 08:30:00"
      }
    },
    {
      "id": "84310003",
      "lat": 43.941,
      "lon": 4.897,
      "cp": "84310",
      "ville": "MORIèRES-LèS-AVIGNON",
      "prix": {
        "Gazole": 0.00213,
        "E85": 0.00094,
        "E10": 0.00209,
        "SP98": 0.00219
      },
      "maj_gouv": {
        "Gazole": "2026-05-26 07:06:04",
        "E85": "2026-05-07 16:28:08",
        "E10": "2026-05-21 13:31:06",
        "SP98": "2026-05-21 13:31:06"
      }
    },
    {
      "id": "84000017",
      "lat": 43.918929139514,
      "lon": 4.8094160710555,
      "cp": "84000",
      "ville": "AVIGNON",
      "prix": {
        "Gazole": 0.002129,
        "SP95": 0.002159,
        "E85": 0.000937,
        "E10": 0.0020870000000000003,
        "SP98": 0.002199
      },
      "maj_gouv": {
        "Gazole": "2026-05-27 10:00:00",
        "SP95": "2026-05-27 10:00:00",
        "E85": "2026-05-27 10:00:00",
        "E10": "2026-05-27 10:00:00",
        "SP98": "2026-05-27 10:00:00"
      }
    },
    {
      "id": "84200003",
      "lat": 44.05877,
      "lon": 5.11102,
      "cp": "84380",
      "ville": "MAZAN",
      "prix": {
        "Gazole": 0.0022370000000000003,
        "SP95": 0.002206,
        "SP98": 0.002232
      },
      "maj_gouv": {
        "Gazole": "2026-05-13 14:05:36",
        "SP95": "2026-05-26 17:39:21",
        "SP98": "2026-05-26 17:39:37"
      }
    },
    {
      "id": "84220002",
      "lat": 43.88557,
      "lon": 5.16824,
      "cp": "84220",
      "ville": "Gordes",
      "prix": {
        "Gazole": 0.00215,
        "SP95": 0.00217
      },
      "maj_gouv": {
        "Gazole": "2026-05-27 14:52:38",
        "SP95": "2026-05-27 14:53:03"
      }
    },
    {
      "id": "84700002",
      "lat": 44.026,
      "lon": 4.873,
      "cp": "84700",
      "ville": "Sorgues",
      "prix": {
        "Gazole": 0.002049,
        "E10": 0.002049,
        "SP98": 0.002129
      },
      "maj_gouv": {
        "Gazole": "2026-05-28 06:30:00",
        "E10": "2026-05-28 06:30:00",
        "SP98": "2026-05-28 06:30:00"
      }
    },
    {
      "id": "84230001",
      "lat": 44.058,
      "lon": 4.835,
      "cp": "84230",
      "ville": "Châteauneuf-du-Pape",
      "prix": {
        "Gazole": 0.002159,
        "E10": 0.002079,
        "SP98": 0.002179
      },
      "maj_gouv": {
        "Gazole": "2026-05-11 09:34:52",
        "E10": "2026-05-11 09:34:52",
        "SP98": "2026-05-11 09:34:52"
      }
    },
    {
      "id": "84110005",
      "lat": 44.247438008131006,
      "lon": 5.0931422309044,
      "cp": "84110",
      "ville": "SAINT-ROMAIN-EN-VIENNOIS",
      "prix": {
        "Gazole": 0.002089,
        "E85": 0.000819,
        "GPLc": 0.00107,
        "E10": 0.002099,
        "SP98": 0.002169
      },
      "maj_gouv": {
        "Gazole": "2026-05-21 09:30:48",
        "E85": "2026-04-17 09:30:28",
        "GPLc": "2026-04-17 09:30:05",
        "E10": "2026-05-18 11:18:44",
        "SP98": "2026-05-18 11:18:44"
      }
    },
    {
      "id": "84130001",
      "lat": 43.978935085346,
      "lon": 4.87714859945,
      "cp": "84130",
      "ville": "Le Pontet",
      "prix": {
        "Gazole": 0.002099,
        "E85": 0.0007790000000000001,
        "GPLc": 0.001089,
        "E10": 0.002069,
        "SP98": 0.002189
      },
      "maj_gouv": {
        "Gazole": "2026-05-26 09:10:05",
        "E85": "2026-05-20 09:25:23",
        "GPLc": "2026-05-20 09:25:23",
        "E10": "2026-05-26 09:10:05",
        "SP98": "2026-05-21 10:21:25"
      }
    },
    {
      "id": "84100006",
      "lat": 44.118,
      "lon": 4.797,
      "cp": "84100",
      "ville": "ORANGE",
      "prix": {
        "E10": 0.00199,
        "SP98": 0.00199
      },
      "maj_gouv": {
        "E10": "2026-05-26 08:48:47",
        "SP98": "2026-05-26 08:48:47"
      }
    },
    {
      "id": "84120001",
      "lat": 43.695,
      "lon": 5.493,
      "cp": "84120",
      "ville": "PERTUIS",
      "prix": {
        "Gazole": 0.002095,
        "SP95": 0.002121,
        "E85": 0.000737,
        "E10": 0.0020729999999999998,
        "SP98": 0.002159
      },
      "maj_gouv": {
        "Gazole": "2026-05-27 08:40:00",
        "SP95": "2026-05-27 08:40:00",
        "E85": "2026-05-27 08:40:00",
        "E10": "2026-05-27 08:40:00",
        "SP98": "2026-05-27 08:40:00"
      }
    },
    {
      "id": "84200006",
      "lat": 44.034,
      "lon": 5.039,
      "cp": "84200",
      "ville": "Carpentras",
      "prix": {
        "Gazole": 0.002149,
        "SP95": 0.002159,
        "SP98": 0.002189
      },
      "maj_gouv": {
        "Gazole": "2026-05-26 06:30:00",
        "SP95": "2026-05-19 06:30:00",
        "SP98": "2026-05-19 06:30:00"
      }
    },
    {
      "id": "84130012",
      "lat": 43.958,
      "lon": 4.85,
      "cp": "84130",
      "ville": "Le Pontet",
      "prix": {
        "Gazole": 0.002139,
        "E10": 0.002099,
        "SP98": 0.002199
      },
      "maj_gouv": {
        "Gazole": "2026-05-15 09:18:51",
        "E10": "2026-05-03 10:52:36",
        "SP98": "2026-05-03 10:52:36"
      }
    },
    {
      "id": "84400004",
      "lat": 43.875,
      "lon": 5.404,
      "cp": "84400",
      "ville": "Apt",
      "prix": {
        "Gazole": 0.002399,
        "E85": 0.000999,
        "E10": 0.002149,
        "SP98": 0.002249
      },
      "maj_gouv": {
        "Gazole": "2026-04-08 16:02:19",
        "E85": "2026-03-20 07:03:25",
        "E10": "2026-04-16 08:43:24",
        "SP98": "2026-05-06 19:35:59"
      }
    },
    {
      "id": "84000018",
      "lat": 43.94285490520001,
      "lon": 4.81584355961,
      "cp": "84000",
      "ville": "AVIGNON",
      "prix": {
        "Gazole": 0.0020710000000000004,
        "E85": 0.000853,
        "SP98": 0.00199
      },
      "maj_gouv": {
        "Gazole": "2026-05-28 00:01:00",
        "E85": "2026-05-28 00:01:00",
        "SP98": "2026-05-28 00:01:00"
      }
    },
    {
      "id": "84140007",
      "lat": 43.907,
      "lon": 4.89,
      "cp": "84140",
      "ville": "MONTFAVET",
      "prix": {
        "Gazole": 0.002007,
        "E10": 0.001971,
        "SP98": 0.00199
      },
      "maj_gouv": {
        "Gazole": "2026-05-28 00:01:00",
        "E10": "2026-05-28 00:01:00",
        "SP98": "2026-05-28 00:01:00"
      }
    },
    {
      "id": "84700005",
      "lat": 44.027,
      "lon": 4.874,
      "cp": "84700",
      "ville": "SORGUES",
      "prix": {
        "Gazole": 0.002007
      },
      "maj_gouv": {
        "Gazole": "2026-05-28 00:01:00"
      }
    },
    {
      "id": "84320001",
      "lat": 44.005,
      "lon": 4.932,
      "cp": "84320",
      "ville": "ENTRAIGUES-SUR-LA-SORGUE",
      "prix": {
        "Gazole": 0.002079,
        "E85": 0.000839,
        "E10": 0.002029,
        "SP98": 0.002159
      },
      "maj_gouv": {
        "Gazole": "2026-05-27 08:16:18",
        "E85": "2026-05-27 08:16:19",
        "E10": "2026-05-27 08:16:19",
        "SP98": "2026-05-27 08:16:19"
      }
    },
    {
      "id": "84400007",
      "lat": 43.883454,
      "lon": 5.38128,
      "cp": "84400",
      "ville": "APT",
      "prix": {
        "Gazole": 0.002007,
        "E85": 0.000843,
        "GPLc": 0.001099,
        "E10": 0.001971,
        "SP98": 0.00199
      },
      "maj_gouv": {
        "Gazole": "2026-05-28 00:01:00",
        "E85": "2026-05-28 00:01:00",
        "GPLc": "2026-05-28 00:01:00",
        "E10": "2026-05-28 00:01:00",
        "SP98": "2026-05-28 00:01:00"
      }
    },
    {
      "id": "84350002",
      "lat": 44.0797107,
      "lon": 4.8788574,
      "cp": "84350",
      "ville": "COURTHEZON",
      "prix": {
        "Gazole": 0.002149,
        "E10": 0.002089,
        "SP98": 0.002169
      },
      "maj_gouv": {
        "Gazole": "2026-05-13 07:15:53",
        "E10": "2026-05-13 07:15:53",
        "SP98": "2026-05-13 07:15:54"
      }
    },
    {
      "id": "84390001",
      "lat": 44.1015,
      "lon": 5.41452,
      "cp": "84390",
      "ville": "Sault",
      "prix": {
        "Gazole": 0.002139,
        "E85": 0.000798,
        "E10": 0.002099,
        "SP98": 0.002199
      },
      "maj_gouv": {
        "Gazole": "2026-05-26 08:00:00",
        "E85": "2026-05-26 08:00:00",
        "E10": "2026-05-26 08:00:00",
        "SP98": "2026-05-26 08:00:00"
      }
    },
    {
      "id": "84660002",
      "lat": 43.86696,
      "lon": 5.1488199999999,
      "cp": "84660",
      "ville": "Maubec",
      "prix": {
        "Gazole": 0.002079,
        "E85": 0.000799,
        "E10": 0.002049,
        "SP98": 0.002169
      },
      "maj_gouv": {
        "Gazole": "2026-05-26 09:24:29",
        "E85": "2026-05-22 16:54:51",
        "E10": "2026-05-27 16:35:15",
        "SP98": "2026-05-21 13:31:26"
      }
    },
    {
      "id": "84850001",
      "lat": 44.162822050066005,
      "lon": 4.8767082703502,
      "cp": "84850",
      "ville": "Camaret-sur-Aigues",
      "prix": {
        "Gazole": 0.0021000000000000003,
        "SP95": 0.002129,
        "E10": 0.002045,
        "SP98": 0.002149
      },
      "maj_gouv": {
        "Gazole": "2026-05-27 10:36:15",
        "SP95": "2026-05-20 11:53:53",
        "E10": "2026-05-27 10:36:15",
        "SP98": "2026-05-27 10:36:15"
      }
    },
    {
      "id": "84550003",
      "lat": 44.197,
      "lon": 4.737,
      "cp": "84550",
      "ville": "Mornas",
      "prix": {
        "Gazole": 0.002109,
        "E10": 0.002089
      },
      "maj_gouv": {
        "Gazole": "2026-05-25 09:47:34",
        "E10": "2026-05-19 06:08:48"
      }
    },
    {
      "id": "84660001",
      "lat": 43.86584,
      "lon": 5.14004,
      "cp": "84660",
      "ville": "MAUBEC",
      "prix": {
        "Gazole": 0.0022,
        "SP95": 0.00217,
        "SP98": 0.00222
      },
      "maj_gouv": {
        "Gazole": "2026-05-07 17:05:09",
        "SP95": "2026-05-19 08:31:35",
        "SP98": "2026-05-19 08:31:35"
      }
    },
    {
      "id": "84190001",
      "lat": 44.116,
      "lon": 5.016,
      "cp": "84190",
      "ville": "BEAUMES-DE-VENISE",
      "prix": {
        "Gazole": 0.002299,
        "E85": 0.0010789999999999999,
        "E10": 0.00217,
        "SP98": 0.0023090000000000003
      },
      "maj_gouv": {
        "Gazole": "2026-05-19 10:34:30",
        "E85": "2026-05-19 10:34:30",
        "E10": "2026-05-19 10:34:30",
        "SP98": "2026-05-19 10:34:30"
      }
    },
    {
      "id": "84500007",
      "lat": 44.286892034091,
      "lon": 4.7506355196328,
      "cp": "84500",
      "ville": "Bollène",
      "prix": {
        "Gazole": 0.00216,
        "E85": 0.000798,
        "E10": 0.00204,
        "SP98": 0.002165
      },
      "maj_gouv": {
        "Gazole": "2026-05-27 09:49:38",
        "E85": "2026-05-27 09:49:38",
        "E10": "2026-05-27 09:49:38",
        "SP98": "2026-05-27 09:49:38"
      }
    },
    {
      "id": "84120008",
      "lat": 43.697,
      "lon": 5.505,
      "cp": "84120",
      "ville": "Pertuis",
      "prix": {
        "Gazole": 0.00209,
        "E85": 0.000725,
        "E10": 0.00207,
        "SP98": 0.0021579999999999998
      },
      "maj_gouv": {
        "Gazole": "2026-05-27 09:47:56",
        "E85": "2026-05-20 15:55:46",
        "E10": "2026-05-27 09:47:56",
        "SP98": "2026-05-27 09:47:56"
      }
    },
    {
      "id": "84550005",
      "lat": 44.216,
      "lon": 4.723,
      "cp": "84550",
      "ville": "Mornas",
      "prix": {
        "Gazole": 0.002218,
        "E85": 0.0009429999999999999,
        "GPLc": 0.0011279999999999999,
        "E10": 0.002134,
        "SP98": 0.0022010000000000003
      },
      "maj_gouv": {
        "Gazole": "2026-05-22 14:57:14",
        "E85": "2026-05-20 10:28:34",
        "GPLc": "2026-05-09 10:22:33",
        "E10": "2026-05-22 14:57:14",
        "SP98": "2026-05-22 14:57:14"
      }
    },
    {
      "id": "84250001",
      "lat": 43.925,
      "lon": 4.978,
      "cp": "84250",
      "ville": "Le Thor",
      "prix": {
        "Gazole": 0.002099,
        "E85": 0.000798,
        "E10": 0.002089,
        "SP98": 0.002179
      },
      "maj_gouv": {
        "Gazole": "2026-05-22 06:11:00",
        "E85": "2026-05-21 17:12:47",
        "E10": "2026-05-21 17:12:47",
        "SP98": "2026-05-21 17:12:47"
      }
    },
    {
      "id": "84150001",
      "lat": 44.11569,
      "lon": 4.89531,
      "cp": "84150",
      "ville": "JONQUIERES",
      "prix": {
        "Gazole": 0.002149,
        "E10": 0.002079,
        "SP98": 0.002189
      },
      "maj_gouv": {
        "Gazole": "2026-05-27 16:07:16",
        "E10": "2026-05-27 16:07:16",
        "SP98": "2026-05-27 16:07:16"
      }
    },
    {
      "id": "84100004",
      "lat": 44.153,
      "lon": 4.803,
      "cp": "84100",
      "ville": "ORANGE",
      "prix": {
        "Gazole": 0.002099,
        "E10": 0.002039,
        "SP98": 0.002149
      },
      "maj_gouv": {
        "Gazole": "2026-05-27 12:15:19",
        "E10": "2026-05-27 12:15:20",
        "SP98": "2026-05-22 11:32:37"
      }
    },
    {
      "id": "84330004",
      "lat": 44.096798967498,
      "lon": 5.1409751479881,
      "cp": "84330",
      "ville": "Saint-Pierre-de-Vassols",
      "prix": {
        "Gazole": 0.002095,
        "E10": 0.002065,
        "SP98": 0.002179
      },
      "maj_gouv": {
        "Gazole": "2026-05-27 10:46:52",
        "E10": "2026-05-27 10:46:52",
        "SP98": "2026-05-27 10:46:52"
      }
    },
    {
      "id": "84110001",
      "lat": 44.242,
      "lon": 5.079,
      "cp": "84110",
      "ville": "Vaison-la-Romaine",
      "prix": {
        "Gazole": 0.00204,
        "E85": 0.0008489999999999999,
        "GPLc": 0.00107
      },
      "maj_gouv": {
        "Gazole": "2026-05-27 00:01:00",
        "E85": "2026-05-11 08:10:53",
        "GPLc": "2026-05-11 08:10:53"
      }
    },
    {
      "id": "84601001",
      "lat": 44.386,
      "lon": 5.007,
      "cp": "84600",
      "ville": "Valréas",
      "prix": {
        "Gazole": 0.002068,
        "E85": 0.000769,
        "GPLc": 0.0010409999999999998,
        "E10": 0.002079,
        "SP98": 0.002148
      },
      "maj_gouv": {
        "Gazole": "2026-05-27 09:00:24",
        "E85": "2026-05-27 09:00:24",
        "GPLc": "2026-05-27 09:00:24",
        "E10": "2026-05-27 09:00:24",
        "SP98": "2026-05-27 09:01:04"
      }
    },
    {
      "id": "84400001",
      "lat": 43.88436599999999,
      "lon": 5.3795969999999995,
      "cp": "84400",
      "ville": "Apt",
      "prix": {
        "Gazole": 0.002089,
        "E10": 0.002049,
        "SP98": 0.002139
      },
      "maj_gouv": {
        "Gazole": "2026-05-22 09:43:48",
        "E10": "2026-05-20 09:23:33",
        "SP98": "2026-05-20 09:23:33"
      }
    },
    {
      "id": "84810002",
      "lat": 44.0920453,
      "lon": 5.0296613,
      "cp": "84810",
      "ville": "aubignan",
      "prix": {
        "Gazole": 0.002179,
        "SP95": 0.002149,
        "E10": 0.002099
      },
      "maj_gouv": {
        "Gazole": "2026-05-12 18:38:50",
        "SP95": "2026-05-19 11:36:01",
        "E10": "2026-05-19 11:36:01"
      }
    },
    {
      "id": "84000007",
      "lat": 43.943,
      "lon": 4.811,
      "cp": "84000",
      "ville": "AVIGNON",
      "prix": {
        "Gazole": 0.002149,
        "E85": 0.000999,
        "E10": 0.0021190000000000002
      },
      "maj_gouv": {
        "Gazole": "2026-05-27 11:38:44",
        "E85": "2026-05-27 11:38:44",
        "E10": "2026-05-27 11:38:44"
      }
    },
    {
      "id": "84500001",
      "lat": 44.288678396899996,
      "lon": 4.74894670835,
      "cp": "84500",
      "ville": "BOLLèNE",
      "prix": {
        "Gazole": 0.002104,
        "E85": 0.000869,
        "E10": 0.00199
      },
      "maj_gouv": {
        "Gazole": "2026-05-26 11:11:19",
        "E85": "2026-04-20 08:37:53",
        "E10": "2026-05-23 00:01:00"
      }
    },
    {
      "id": "84013001",
      "lat": 43.921259562009,
      "lon": 4.8670176328638,
      "cp": "84140",
      "ville": "AVIGNON",
      "prix": {
        "Gazole": 0.00206,
        "E85": 0.000782,
        "GPLc": 0.001095,
        "E10": 0.002004,
        "SP98": 0.002128
      },
      "maj_gouv": {
        "Gazole": "2026-05-27 09:00:37",
        "E85": "2026-05-05 09:31:46",
        "GPLc": "2026-05-12 09:48:37",
        "E10": "2026-05-27 09:00:37",
        "SP98": "2026-05-19 09:16:17"
      }
    },
    {
      "id": "84400003",
      "lat": 43.883,
      "lon": 5.381,
      "cp": "84400",
      "ville": "APT",
      "prix": {
        "Gazole": 0.002059,
        "SP95": 0.002089,
        "E85": 0.000799,
        "E10": 0.002039,
        "SP98": 0.002129
      },
      "maj_gouv": {
        "Gazole": "2026-05-27 09:41:25",
        "SP95": "2026-05-27 09:41:25",
        "E85": "2026-04-15 10:14:00",
        "E10": "2026-05-27 09:41:25",
        "SP98": "2026-05-27 09:41:25"
      }
    },
    {
      "id": "84110004",
      "lat": 44.243,
      "lon": 5.082,
      "cp": "84110",
      "ville": "VAISON-LA-ROMAINE",
      "prix": {
        "Gazole": 0.002089,
        "E85": 0.000799,
        "E10": 0.002099,
        "SP98": 0.002169
      },
      "maj_gouv": {
        "Gazole": "2026-05-21 06:33:13",
        "E85": "2026-05-15 06:52:16",
        "E10": "2026-05-15 06:52:16",
        "SP98": "2026-05-15 06:52:16"
      }
    },
    {
      "id": "84250002",
      "lat": 43.9274359,
      "lon": 4.9987912,
      "cp": "84250",
      "ville": "Le Thor",
      "prix": {
        "Gazole": 0.00222,
        "SP95": 0.00212,
        "SP98": 0.00217
      },
      "maj_gouv": {
        "Gazole": "2026-05-20 09:36:14",
        "SP95": "2026-05-20 09:36:14",
        "SP98": "2026-05-20 09:36:14"
      }
    },
    {
      "id": "84120006",
      "lat": 43.681,
      "lon": 5.501,
      "cp": "84120",
      "ville": "Pertuis",
      "prix": {
        "Gazole": 0.002099,
        "E85": 0.000727,
        "E10": 0.002085
      },
      "maj_gouv": {
        "Gazole": "2026-05-27 13:36:10",
        "E85": "2026-05-27 13:36:10",
        "E10": "2026-05-27 13:36:10"
      }
    },
    {
      "id": "84160003",
      "lat": 43.728,
      "lon": 5.368,
      "cp": "84160",
      "ville": "Cadenet",
      "prix": {
        "Gazole": 0.002079,
        "SP95": 0.002099,
        "E85": 0.000799,
        "SP98": 0.002139
      },
      "maj_gouv": {
        "Gazole": "2026-05-27 08:49:50",
        "SP95": "2026-05-27 08:49:50",
        "E85": "2026-05-27 08:49:50",
        "SP98": "2026-05-27 08:49:50"
      }
    },
    {
      "id": "84976001",
      "lat": 44.05145,
      "lon": 5.04122,
      "cp": "84200",
      "ville": "Carpentras",
      "prix": {
        "Gazole": 0.002129,
        "SP95": 0.0021190000000000002,
        "E85": 0.000749,
        "E10": 0.002079
      },
      "maj_gouv": {
        "Gazole": "2026-05-22 06:56:55",
        "SP95": "2026-05-23 06:46:41",
        "E85": "2026-04-28 09:33:52",
        "E10": "2026-05-27 07:00:00"
      }
    },
    {
      "id": "84510001",
      "lat": 43.906,
      "lon": 4.948,
      "cp": "84510",
      "ville": "Caumont-sur-Durance",
      "prix": {
        "Gazole": 0.002115,
        "E10": 0.002089
      },
      "maj_gouv": {
        "Gazole": "2026-05-27 06:56:22",
        "E10": "2026-05-20 09:18:29"
      }
    },
    {
      "id": "84360004",
      "lat": 43.749371592296,
      "lon": 5.309787745529699,
      "cp": "84360",
      "ville": "LAURIS",
      "prix": {
        "Gazole": 0.002189,
        "SP95": 0.002199,
        "E85": 0.0011200000000000001,
        "SP98": 0.002229
      },
      "maj_gouv": {
        "Gazole": "2026-05-24 10:58:46",
        "SP95": "2026-05-22 18:13:50",
        "E85": "2026-03-13 09:26:23",
        "SP98": "2026-05-22 18:13:50"
      }
    },
    {
      "id": "84310004",
      "lat": 43.925,
      "lon": 4.913,
      "cp": "84310",
      "ville": "Morières-lès-Avignon",
      "prix": {
        "Gazole": 0.0022719999999999997,
        "GPLc": 0.0011279999999999999,
        "E10": 0.002179,
        "SP98": 0.002287
      },
      "maj_gouv": {
        "Gazole": "2026-05-27 07:51:00",
        "GPLc": "2026-05-27 07:51:00",
        "E10": "2026-05-27 07:51:00",
        "SP98": "2026-05-27 07:51:00"
      }
    },
    {
      "id": "84000008",
      "lat": 43.951,
      "lon": 4.825,
      "cp": "84000",
      "ville": "Avignon",
      "prix": {
        "Gazole": 0.00204,
        "E85": 0.000969,
        "E10": 0.00204,
        "SP98": 0.00212
      },
      "maj_gouv": {
        "Gazole": "2026-05-27 07:50:00",
        "E85": "2026-05-27 07:50:00",
        "E10": "2026-05-27 07:50:00",
        "SP98": "2026-05-27 07:50:00"
      }
    },
    {
      "id": "84700004",
      "lat": 44.009,
      "lon": 4.873,
      "cp": "84700",
      "ville": "Sorgues",
      "prix": {
        "Gazole": 0.0021309999999999996,
        "E85": 0.0008179999999999999,
        "E10": 0.002057,
        "SP98": 0.002139
      },
      "maj_gouv": {
        "Gazole": "2026-05-20 07:52:18",
        "E85": "2026-05-13 08:44:50",
        "E10": "2026-05-23 08:02:18",
        "SP98": "2026-05-13 08:44:50"
      }
    },
    {
      "id": "84210003",
      "lat": 44.005,
      "lon": 5.051,
      "cp": "84210",
      "ville": "Pernes-les-Fontaines",
      "prix": {
        "Gazole": 0.0022299999999999998,
        "E85": 0.0008990000000000001,
        "E10": 0.0021190000000000002
      },
      "maj_gouv": {
        "Gazole": "2026-05-20 12:08:32",
        "E85": "2026-05-11 11:20:49",
        "E10": "2026-05-20 12:08:32"
      }
    },
    {
      "id": "84300003",
      "lat": 43.856,
      "lon": 5.018,
      "cp": "84300",
      "ville": "Cavaillon",
      "prix": {},
      "maj_gouv": {}
    },
    {
      "id": "84160001",
      "lat": 43.747,
      "lon": 5.337,
      "cp": "84160",
      "ville": "PUYVERT",
      "prix": {
        "Gazole": 0.002079,
        "E85": 0.000739,
        "E10": 0.002059,
        "SP98": 0.002149
      },
      "maj_gouv": {
        "Gazole": "2026-05-19 10:34:02",
        "E85": "2026-05-19 10:34:02",
        "E10": "2026-05-19 10:34:02",
        "SP98": "2026-05-19 10:34:02"
      }
    },
    {
      "id": "84240001",
      "lat": 43.721,
      "lon": 5.542,
      "cp": "84240",
      "ville": "LA TOUR-D'AIGUES",
      "prix": {
        "Gazole": 0.002091
      },
      "maj_gouv": {
        "Gazole": "2026-05-27 11:24:55"
      }
    },
    {
      "id": "84100011",
      "lat": 44.134,
      "lon": 4.817,
      "cp": "84100",
      "ville": "ORANGE",
      "prix": {
        "Gazole": 0.002145,
        "E85": 0.000819,
        "E10": 0.002049
      },
      "maj_gouv": {
        "Gazole": "2026-05-26 08:50:23",
        "E85": "2026-04-20 09:47:41",
        "E10": "2026-05-26 08:50:23"
      }
    },
    {
      "id": "84800001",
      "lat": 43.925,
      "lon": 5.063,
      "cp": "84800",
      "ville": "L'Isle-sur-la-Sorgue",
      "prix": {
        "Gazole": 0.002089,
        "E85": 0.000799,
        "E10": 0.002039,
        "SP98": 0.002159
      },
      "maj_gouv": {
        "Gazole": "2026-05-26 14:32:02",
        "E85": "2026-05-18 14:34:41",
        "E10": "2026-05-26 14:32:02",
        "SP98": "2026-05-26 14:32:02"
      }
    },
    {
      "id": "84100005",
      "lat": 44.136,
      "lon": 4.801,
      "cp": "84100",
      "ville": "ORANGE",
      "prix": {
        "Gazole": 0.002099,
        "E85": 0.000819,
        "GPLc": 0.001089,
        "E10": 0.002039,
        "SP98": 0.002149
      },
      "maj_gouv": {
        "Gazole": "2026-05-27 12:14:05",
        "E85": "2026-04-16 08:37:20",
        "GPLc": "2026-04-16 08:37:20",
        "E10": "2026-05-27 12:14:06",
        "SP98": "2026-05-22 11:33:07"
      }
    },
    {
      "id": "84300006",
      "lat": 43.829,
      "lon": 5.035,
      "cp": "84300",
      "ville": "CAVAILLON",
      "prix": {
        "Gazole": 0.002059,
        "E85": 0.000798,
        "E10": 0.002045,
        "SP98": 0.002159
      },
      "maj_gouv": {
        "Gazole": "2026-05-27 08:40:08",
        "E85": "2026-05-20 07:58:25",
        "E10": "2026-05-23 08:40:50",
        "SP98": "2026-05-23 08:40:50"
      }
    },
    {
      "id": "84000020",
      "lat": 43.932,
      "lon": 4.783,
      "cp": "84000",
      "ville": "AVIGNON",
      "prix": {
        "Gazole": 0.002007,
        "E85": 0.0008489999999999999,
        "E10": 0.001971,
        "SP98": 0.00199
      },
      "maj_gouv": {
        "Gazole": "2026-05-28 00:01:00",
        "E85": "2026-05-28 00:01:00",
        "E10": "2026-05-28 00:01:00",
        "SP98": "2026-05-28 00:01:00"
      }
    },
    {
      "id": "84200011",
      "lat": 44.055,
      "lon": 5.054,
      "cp": "84200",
      "ville": "Carpentras",
      "prix": {
        "Gazole": 0.002129,
        "E85": 0.000798,
        "E10": 0.002069,
        "SP98": 0.002179
      },
      "maj_gouv": {
        "Gazole": "2026-05-22 19:01:51",
        "E85": "2026-05-20 10:31:48",
        "E10": "2026-05-20 10:31:48",
        "SP98": "2026-05-19 09:44:36"
      }
    },
    {
      "id": "84440001",
      "lat": 43.847268,
      "lon": 5.105559,
      "cp": "84440",
      "ville": "Robion",
      "prix": {
        "Gazole": 0.0022280000000000004,
        "E10": 0.002218,
        "SP98": 0.002269
      },
      "maj_gouv": {
        "Gazole": "2026-05-26 08:52:37",
        "E10": "2026-05-26 08:52:37",
        "SP98": "2026-05-26 08:52:37"
      }
    },
    {
      "id": "84130011",
      "lat": 43.963,
      "lon": 4.853,
      "cp": "84130",
      "ville": "LE PONTET",
      "prix": {
        "Gazole": 0.002007
      },
      "maj_gouv": {
        "Gazole": "2026-05-28 00:01:00"
      }
    },
    {
      "id": "84120009",
      "lat": 43.68672,
      "lon": 5.502143,
      "cp": "84120",
      "ville": "PERTUIS",
      "prix": {
        "Gazole": 0.0022400000000000002,
        "SP95": 0.00215,
        "SP98": 0.00219
      },
      "maj_gouv": {
        "Gazole": "2026-05-20 11:38:42",
        "SP95": "2026-04-08 10:53:16",
        "SP98": "2026-04-08 10:54:05"
      }
    },
    {
      "id": "84740002",
      "lat": 43.957,
      "lon": 5.029,
      "cp": "84740",
      "ville": "VELLERON",
      "prix": {
        "Gazole": 0.002091,
        "E85": 0.000876,
        "E10": 0.00199,
        "SP98": 0.00199
      },
      "maj_gouv": {
        "Gazole": "2026-05-27 15:29:30",
        "E85": "2026-05-22 09:19:40",
        "E10": "2026-05-27 15:29:30",
        "SP98": "2026-05-27 15:29:30"
      }
    },
    {
      "id": "84100009",
      "lat": 44.13559,
      "lon": 4.81309,
      "cp": "84100",
      "ville": "ORANGE",
      "prix": {
        "Gazole": 0.0020710000000000004,
        "E85": 0.0008489999999999999,
        "E10": 0.00199
      },
      "maj_gouv": {
        "Gazole": "2026-05-28 00:01:00",
        "E85": "2026-05-28 00:01:00",
        "E10": "2026-05-28 00:01:00"
      }
    }
  ]
}