{
  "departement": "93",
  "date": "2026-05-28",
  "stations": [
    {
      "id": "93380009",
      "lat": 48.9660970452,
      "lon": 2.36413094302,
      "cp": "93380",
      "ville": "Pierrefitte-sur-Seine",
      "prix": {
        "Gazole": 0.002007,
        "E85": 0.000839,
        "E10": 0.00199,
        "SP98": 0.00199
      },
      "maj_gouv": {
        "Gazole": "2026-05-28 00:01:00",
        "E85": "2026-05-28 00:01:00",
        "E10": "2026-05-28 00:01:00",
        "SP98": "2026-05-28 00:01:00"
      }
    },
    {
      "id": "93150009",
      "lat": 48.935,
      "lon": 2.473,
      "cp": "93150",
      "ville": "Le Blanc-Mesnil",
      "prix": {
        "Gazole": 0.0020710000000000004,
        "E85": 0.000884,
        "E10": 0.00199,
        "SP98": 0.00199
      },
      "maj_gouv": {
        "Gazole": "2026-05-28 00:01:00",
        "E85": "2026-05-28 00:01:00",
        "E10": "2026-05-28 00:01:00",
        "SP98": "2026-05-28 00:01:00"
      }
    },
    {
      "id": "93160006",
      "lat": 48.845,
      "lon": 2.528,
      "cp": "93160",
      "ville": "Noisy-le-Grand",
      "prix": {
        "Gazole": 0.002099,
        "SP95": 0.002129,
        "E10": 0.002099,
        "SP98": 0.002169
      },
      "maj_gouv": {
        "Gazole": "2026-05-26 08:37:35",
        "SP95": "2026-05-26 08:37:36",
        "E10": "2026-05-26 08:37:36",
        "SP98": "2026-05-26 08:37:36"
      }
    },
    {
      "id": "93160004",
      "lat": 48.843,
      "lon": 2.577,
      "cp": "93160",
      "ville": "Noisy-le-Grand",
      "prix": {
        "Gazole": 0.00225,
        "E10": 0.002027,
        "SP98": 0.0021070000000000004
      },
      "maj_gouv": {
        "Gazole": "2026-05-28 06:31:00",
        "E10": "2026-05-28 06:31:00",
        "SP98": "2026-05-28 06:31:00"
      }
    },
    {
      "id": "93140003",
      "lat": 48.907,
      "lon": 2.489,
      "cp": "93140",
      "ville": "Bondy",
      "prix": {
        "Gazole": 0.002099,
        "E10": 0.0020099999999999996,
        "SP98": 0.00209
      },
      "maj_gouv": {
        "Gazole": "2026-05-28 06:31:00",
        "E10": "2026-05-28 06:31:00",
        "SP98": "2026-05-28 06:31:00"
      }
    },
    {
      "id": "93160005",
      "lat": 48.851,
      "lon": 2.535,
      "cp": "93160",
      "ville": "Noisy-le-Grand",
      "prix": {
        "Gazole": 0.00204,
        "E10": 0.002024,
        "SP98": 0.002104
      },
      "maj_gouv": {
        "Gazole": "2026-05-28 06:31:00",
        "E10": "2026-05-28 06:31:00",
        "SP98": "2026-05-28 06:31:00"
      }
    },
    {
      "id": "93800003",
      "lat": 48.96,
      "lon": 2.304,
      "cp": "93800",
      "ville": "Épinay-sur-Seine",
      "prix": {
        "Gazole": 0.00204,
        "E10": 0.0020440000000000002,
        "SP98": 0.002124
      },
      "maj_gouv": {
        "Gazole": "2026-05-27 07:51:00",
        "E10": "2026-05-27 07:51:00",
        "SP98": "2026-05-27 07:51:00"
      }
    },
    {
      "id": "93410002",
      "lat": 48.935,
      "lon": 2.567,
      "cp": "93410",
      "ville": "Vaujours",
      "prix": {
        "Gazole": 0.002099,
        "GPLc": 0.0012490000000000001,
        "E10": 0.002029,
        "SP98": 0.002179
      },
      "maj_gouv": {
        "Gazole": "2026-05-27 12:17:55",
        "GPLc": "2026-05-27 12:17:54",
        "E10": "2026-05-27 12:17:54",
        "SP98": "2026-05-27 12:17:55"
      }
    },
    {
      "id": "93300001",
      "lat": 48.918,
      "lon": 2.379,
      "cp": "93300",
      "ville": "Aubervilliers",
      "prix": {
        "Gazole": 0.002049,
        "E10": 0.002019,
        "SP98": 0.002169
      },
      "maj_gouv": {
        "Gazole": "2026-05-28 06:23:34",
        "E10": "2026-05-28 06:23:35",
        "SP98": "2026-05-28 06:23:35"
      }
    },
    {
      "id": "93140002",
      "lat": 48.905736767977004,
      "lon": 2.4814502497433,
      "cp": "93140",
      "ville": "Bondy",
      "prix": {
        "Gazole": 0.002099,
        "E10": 0.002042,
        "SP98": 0.0021219999999999998
      },
      "maj_gouv": {
        "Gazole": "2026-05-28 06:31:00",
        "E10": "2026-05-28 06:31:00",
        "SP98": "2026-05-28 06:31:00"
      }
    },
    {
      "id": "93290003",
      "lat": 48.9467460327,
      "lon": 2.57048818541,
      "cp": "93290",
      "ville": "TREMBLAY-EN-FRANCE",
      "prix": {
        "Gazole": 0.002065,
        "SP95": 0.002079,
        "E10": 0.002047
      },
      "maj_gouv": {
        "Gazole": "2026-05-27 11:35:51",
        "SP95": "2026-05-27 11:35:52",
        "E10": "2026-05-27 11:35:52"
      }
    },
    {
      "id": "93210003",
      "lat": 48.912,
      "lon": 2.358,
      "cp": "93210",
      "ville": "La plaine-saint-denis",
      "prix": {
        "Gazole": 0.0020710000000000004,
        "E85": 0.00199,
        "E10": 0.00199,
        "SP98": 0.00199
      },
      "maj_gouv": {
        "Gazole": "2026-05-28 00:01:00",
        "E85": "2026-05-13 16:46:13",
        "E10": "2026-05-28 00:01:00",
        "SP98": "2026-05-28 00:01:00"
      }
    },
    {
      "id": "93150012",
      "lat": 48.928,
      "lon": 2.474,
      "cp": "93150",
      "ville": "Le Blanc-Mesnil",
      "prix": {
        "Gazole": 0.002109,
        "GPLc": 0.0011690000000000001,
        "E10": 0.002079,
        "SP98": 0.002229
      },
      "maj_gouv": {
        "Gazole": "2026-05-27 12:18:17",
        "GPLc": "2026-05-27 12:18:17",
        "E10": "2026-05-27 12:18:17",
        "SP98": "2026-05-27 12:18:17"
      }
    },
    {
      "id": "93110005",
      "lat": 48.878,
      "lon": 2.482,
      "cp": "93110",
      "ville": "Rosny-sous-Bois",
      "prix": {
        "Gazole": 0.0020710000000000004,
        "E85": 0.000929,
        "GPLc": 0.001089,
        "E10": 0.00199,
        "SP98": 0.00199
      },
      "maj_gouv": {
        "Gazole": "2026-05-28 00:01:00",
        "E85": "2026-05-28 00:01:00",
        "GPLc": "2026-05-28 00:01:00",
        "E10": "2026-05-28 00:01:00",
        "SP98": "2026-05-28 00:01:00"
      }
    },
    {
      "id": "93290005",
      "lat": 48.984,
      "lon": 2.55,
      "cp": "93290",
      "ville": "Tremblay-en-France",
      "prix": {
        "Gazole": 0.0020710000000000004,
        "SP98": 0.00199
      },
      "maj_gouv": {
        "Gazole": "2026-05-28 06:00:00",
        "SP98": "2026-05-28 06:00:00"
      }
    },
    {
      "id": "93360002",
      "lat": 48.862,
      "lon": 2.51,
      "cp": "93360",
      "ville": "Neuilly-Plaisance",
      "prix": {
        "Gazole": 0.00219,
        "SP98": 0.00199
      },
      "maj_gouv": {
        "Gazole": "2026-05-28 06:30:00",
        "SP98": "2026-04-23 17:44:52"
      }
    },
    {
      "id": "93190006",
      "lat": 48.912,
      "lon": 2.519,
      "cp": "93190",
      "ville": "LIVRY GARGAN",
      "prix": {
        "Gazole": 0.002069,
        "GPLc": 0.0011690000000000001
      },
      "maj_gouv": {
        "Gazole": "2026-05-27 12:16:55",
        "GPLc": "2026-05-27 12:16:55"
      }
    },
    {
      "id": "93300003",
      "lat": 48.919,
      "lon": 2.394,
      "cp": "93300",
      "ville": "AUBERVILLIERS",
      "prix": {
        "Gazole": 0.002099,
        "E10": 0.002059,
        "SP98": 0.0022589999999999997
      },
      "maj_gouv": {
        "Gazole": "2026-05-27 12:19:35",
        "E10": "2026-05-27 12:19:35",
        "SP98": "2026-05-27 12:19:34"
      }
    },
    {
      "id": "93140004",
      "lat": 48.907,
      "lon": 2.485,
      "cp": "93140",
      "ville": "BONDY",
      "prix": {
        "Gazole": 0.002099,
        "E10": 0.002009,
        "SP98": 0.002159
      },
      "maj_gouv": {
        "Gazole": "2026-05-28 06:25:56",
        "E10": "2026-05-28 06:25:57",
        "SP98": "2026-05-28 06:25:56"
      }
    },
    {
      "id": "93800005",
      "lat": 48.954,
      "lon": 2.335,
      "cp": "93800",
      "ville": "EPINAY SUR SEINE",
      "prix": {
        "Gazole": 0.002074,
        "E85": 0.000748,
        "E10": 0.002064,
        "SP98": 0.0021379999999999997
      },
      "maj_gouv": {
        "Gazole": "2026-05-28 01:15:00",
        "E85": "2026-05-28 01:15:00",
        "E10": "2026-05-28 01:15:00",
        "SP98": "2026-05-28 01:15:00"
      }
    },
    {
      "id": "93120004",
      "lat": 48.934,
      "lon": 2.39,
      "cp": "93120",
      "ville": "LA COURNEUVE",
      "prix": {
        "Gazole": 0.002091,
        "E85": 0.000969,
        "GPLc": 0.0010789999999999999,
        "E10": 0.00199,
        "SP98": 0.00199
      },
      "maj_gouv": {
        "Gazole": "2026-05-28 00:01:00",
        "E85": "2026-05-28 00:01:00",
        "GPLc": "2026-05-28 00:01:00",
        "E10": "2026-05-28 00:01:00",
        "SP98": "2026-05-28 00:01:00"
      }
    },
    {
      "id": "93200008",
      "lat": 48.935,
      "lon": 2.368,
      "cp": "93200",
      "ville": "Saint-Denis",
      "prix": {
        "Gazole": 0.002189,
        "E85": 0.001039,
        "E10": 0.0021190000000000002,
        "SP98": 0.0022890000000000002
      },
      "maj_gouv": {
        "Gazole": "2026-05-28 06:24:43",
        "E85": "2026-05-28 06:24:42",
        "E10": "2026-05-28 06:24:43",
        "SP98": "2026-05-28 06:24:43"
      }
    },
    {
      "id": "93420004",
      "lat": 48.975,
      "lon": 2.496,
      "cp": "93420",
      "ville": "Villepinte",
      "prix": {
        "Gazole": 0.002049,
        "E10": 0.002009,
        "SP98": 0.002179
      },
      "maj_gouv": {
        "Gazole": "2026-05-28 06:27:13",
        "E10": "2026-05-28 06:27:13",
        "SP98": "2026-05-28 06:27:13"
      }
    },
    {
      "id": "93600016",
      "lat": 48.951444,
      "lon": 2.48951,
      "cp": "93600",
      "ville": "Aulnay-sous-Bois",
      "prix": {
        "Gazole": 0.0020710000000000004,
        "E10": 0.00199,
        "SP98": 0.00199
      },
      "maj_gouv": {
        "Gazole": "2026-05-28 00:01:00",
        "E10": "2026-05-28 00:01:00",
        "SP98": "2026-05-28 00:01:00"
      }
    },
    {
      "id": "93260007",
      "lat": 48.88021,
      "lon": 2.41759,
      "cp": "93260",
      "ville": "LES LILAS",
      "prix": {
        "Gazole": 0.002007,
        "E85": 0.0008990000000000001,
        "E10": 0.00199,
        "SP98": 0.00199
      },
      "maj_gouv": {
        "Gazole": "2026-05-28 00:01:00",
        "E85": "2026-05-28 00:01:00",
        "E10": "2026-05-28 00:01:00",
        "SP98": "2026-05-28 00:01:00"
      }
    },
    {
      "id": "93270006",
      "lat": 48.939,
      "lon": 2.527,
      "cp": "93270",
      "ville": "SEVRAN",
      "prix": {
        "Gazole": 0.002139,
        "E10": 0.002109,
        "SP98": 0.0022589999999999997
      },
      "maj_gouv": {
        "Gazole": "2026-05-27 12:16:13",
        "E10": "2026-05-27 12:16:13",
        "SP98": "2026-05-27 12:16:13"
      }
    },
    {
      "id": "93800006",
      "lat": 48.949,
      "lon": 2.343,
      "cp": "93800",
      "ville": "Épinay-sur-Seine",
      "prix": {
        "Gazole": 0.0020710000000000004,
        "E85": 0.0008539999999999999,
        "GPLc": 0.0010689999999999999,
        "E10": 0.00199
      },
      "maj_gouv": {
        "Gazole": "2026-05-28 00:01:00",
        "E85": "2026-05-28 00:01:00",
        "GPLc": "2026-05-28 00:01:00",
        "E10": "2026-05-28 00:01:00"
      }
    },
    {
      "id": "93290006",
      "lat": 48.964,
      "lon": 2.564,
      "cp": "93290",
      "ville": "Tremblay-en-France",
      "prix": {
        "Gazole": 0.002007,
        "E85": 0.000879,
        "E10": 0.00199,
        "SP98": 0.00199
      },
      "maj_gouv": {
        "Gazole": "2026-05-28 00:01:00",
        "E85": "2026-05-28 00:01:00",
        "E10": "2026-05-28 00:01:00",
        "SP98": "2026-05-28 00:01:00"
      }
    },
    {
      "id": "93000011",
      "lat": 48.906,
      "lon": 2.445,
      "cp": "93000",
      "ville": "BOBIGNY",
      "prix": {
        "Gazole": 0.002109,
        "E85": 0.001029,
        "E10": 0.002049,
        "SP98": 0.002199
      },
      "maj_gouv": {
        "Gazole": "2026-05-28 06:22:57",
        "E85": "2026-05-28 06:22:57",
        "E10": "2026-05-28 06:22:56",
        "SP98": "2026-05-28 06:22:57"
      }
    },
    {
      "id": "93130011",
      "lat": 48.888,
      "lon": 2.46,
      "cp": "93130",
      "ville": "Noisy-le-Sec",
      "prix": {
        "Gazole": 0.002099,
        "E85": 0.001029,
        "E10": 0.002029,
        "SP98": 0.002179
      },
      "maj_gouv": {
        "Gazole": "2026-05-27 12:15:13",
        "E85": "2026-05-27 12:15:13",
        "E10": "2026-05-27 12:15:13",
        "SP98": "2026-05-27 12:15:13"
      }
    },
    {
      "id": "93190004",
      "lat": 48.914,
      "lon": 2.526,
      "cp": "93190",
      "ville": "LIVRY-GARGAN",
      "prix": {
        "Gazole": 0.002089,
        "E85": 0.001019,
        "E10": 0.002009,
        "SP98": 0.002179
      },
      "maj_gouv": {
        "Gazole": "2026-05-28 06:25:55",
        "E85": "2026-05-28 06:25:55",
        "E10": "2026-05-28 06:25:55",
        "SP98": "2026-05-28 06:25:55"
      }
    },
    {
      "id": "93130007",
      "lat": 48.88,
      "lon": 2.457,
      "cp": "93130",
      "ville": "Noisy-le-Sec",
      "prix": {
        "Gazole": 0.002139,
        "SP95": 0.001849,
        "GPLc": 0.001349,
        "E10": 0.002059,
        "SP98": 0.002209
      },
      "maj_gouv": {
        "Gazole": "2026-05-28 06:24:55",
        "SP95": "2025-07-28 16:12:00",
        "GPLc": "2026-05-28 06:24:55",
        "E10": "2026-05-28 06:24:55",
        "SP98": "2026-05-28 06:24:55"
      }
    },
    {
      "id": "93600018",
      "lat": 48.953,
      "lon": 2.486,
      "cp": "93600",
      "ville": "Aulnay-sous-Bois",
      "prix": {
        "Gazole": 0.002089,
        "GPLc": 0.0011690000000000001,
        "E10": 0.002029,
        "SP98": 0.002229
      },
      "maj_gouv": {
        "Gazole": "2026-05-28 06:24:15",
        "GPLc": "2026-05-28 06:24:15",
        "E10": "2026-05-28 06:24:15",
        "SP98": "2026-05-28 06:24:14"
      }
    },
    {
      "id": "93270008",
      "lat": 48.936,
      "lon": 2.515,
      "cp": "93270",
      "ville": "SEVRAN",
      "prix": {
        "Gazole": 0.002269,
        "SP95": 0.002219,
        "E10": 0.002219,
        "SP98": 0.002369
      },
      "maj_gouv": {
        "Gazole": "2026-05-18 20:15:16",
        "SP95": "2026-05-18 20:15:16",
        "E10": "2026-05-18 20:15:16",
        "SP98": "2026-05-18 20:15:16"
      }
    },
    {
      "id": "93500008",
      "lat": 48.9,
      "lon": 2.411,
      "cp": "93500",
      "ville": "PANTIN",
      "prix": {
        "Gazole": 0.002007,
        "E10": 0.00199,
        "SP98": 0.00199
      },
      "maj_gouv": {
        "Gazole": "2026-05-28 00:01:00",
        "E10": "2026-05-28 00:01:00",
        "SP98": "2026-05-28 00:01:00"
      }
    },
    {
      "id": "93390001",
      "lat": 48.907,
      "lon": 2.532,
      "cp": "93390",
      "ville": "CLICHY-SOUS-BOIS",
      "prix": {
        "Gazole": 0.0020859999999999997,
        "SP95": 0.002092,
        "E10": 0.002052,
        "SP98": 0.002126
      },
      "maj_gouv": {
        "Gazole": "2026-05-28 01:15:00",
        "SP95": "2026-05-28 01:15:00",
        "E10": "2026-05-28 01:15:00",
        "SP98": "2026-05-28 01:15:00"
      }
    },
    {
      "id": "93420008",
      "lat": 48.957,
      "lon": 2.56,
      "cp": "93420",
      "ville": "VILLEPINTE",
      "prix": {
        "Gazole": 0.002049,
        "GPLc": 0.0011790000000000001,
        "E10": 0.001999,
        "SP98": 0.002149
      },
      "maj_gouv": {
        "Gazole": "2026-05-28 06:23:39",
        "GPLc": "2026-05-28 06:23:39",
        "E10": "2026-05-28 06:23:39",
        "SP98": "2026-05-28 06:23:39"
      }
    },
    {
      "id": "93160008",
      "lat": 48.838125330120995,
      "lon": 2.547563329687,
      "cp": "93160",
      "ville": "Noisy-le-Grand",
      "prix": {
        "Gazole": 0.0020710000000000004,
        "E85": 0.000884,
        "E10": 0.00199,
        "SP98": 0.00199
      },
      "maj_gouv": {
        "Gazole": "2026-05-28 00:01:00",
        "E85": "2026-05-28 00:01:00",
        "E10": "2026-05-28 00:01:00",
        "SP98": "2026-05-28 00:01:00"
      }
    },
    {
      "id": "93320002",
      "lat": 48.91,
      "lon": 2.51,
      "cp": "93320",
      "ville": "Les Pavillons-sous-Bois",
      "prix": {
        "Gazole": 0.0020710000000000004,
        "E85": 0.000879,
        "E10": 0.00199
      },
      "maj_gouv": {
        "Gazole": "2026-05-28 00:01:00",
        "E85": "2026-05-28 00:01:00",
        "E10": "2026-05-28 00:01:00"
      }
    },
    {
      "id": "93170002",
      "lat": 48.86205,
      "lon": 2.4165,
      "cp": "93170",
      "ville": "BAGNOLET",
      "prix": {},
      "maj_gouv": {}
    },
    {
      "id": "93350003",
      "lat": 48.942,
      "lon": 2.432,
      "cp": "93350",
      "ville": "LE BOURGET",
      "prix": {
        "Gazole": 0.002007,
        "E85": 0.0008990000000000001,
        "E10": 0.00199,
        "SP98": 0.00199
      },
      "maj_gouv": {
        "Gazole": "2026-05-28 00:01:00",
        "E85": "2026-05-28 00:01:00",
        "E10": "2026-05-28 00:01:00",
        "SP98": "2026-05-28 00:01:00"
      }
    },
    {
      "id": "93380010",
      "lat": 48.973,
      "lon": 2.366,
      "cp": "93380",
      "ville": "Pierrefitte-sur-Seine",
      "prix": {
        "Gazole": 0.002007,
        "E85": 0.000839,
        "GPLc": 0.001049,
        "E10": 0.00199,
        "SP98": 0.00199
      },
      "maj_gouv": {
        "Gazole": "2026-05-28 00:01:00",
        "E85": "2026-05-28 00:01:00",
        "GPLc": "2026-05-28 00:01:00",
        "E10": "2026-05-28 00:01:00",
        "SP98": "2026-05-28 00:01:00"
      }
    },
    {
      "id": "93400010",
      "lat": 48.908,
      "lon": 2.344,
      "cp": "93400",
      "ville": "Saint-Ouen",
      "prix": {
        "Gazole": 0.0020710000000000004,
        "E10": 0.00199,
        "SP98": 0.00199
      },
      "maj_gouv": {
        "Gazole": "2026-05-28 00:01:00",
        "E10": "2026-05-28 00:01:00",
        "SP98": "2026-05-28 00:01:00"
      }
    },
    {
      "id": "93100015",
      "lat": 48.857,
      "lon": 2.43,
      "cp": "93100",
      "ville": "MONTREUIL",
      "prix": {
        "Gazole": 0.0020710000000000004,
        "E85": 0.000929,
        "E10": 0.00199,
        "SP98": 0.00199
      },
      "maj_gouv": {
        "Gazole": "2026-05-28 00:01:00",
        "E85": "2026-05-28 00:01:00",
        "E10": "2026-05-28 00:01:00",
        "SP98": "2026-05-28 00:01:00"
      }
    },
    {
      "id": "93160001",
      "lat": 48.83,
      "lon": 2.561,
      "cp": "93160",
      "ville": "Noisy-le-Grand",
      "prix": {
        "Gazole": 0.002091,
        "E10": 0.00199
      },
      "maj_gouv": {
        "Gazole": "2026-05-27 08:05:55",
        "E10": "2026-05-27 08:05:55"
      }
    },
    {
      "id": "93000010",
      "lat": 48.914,
      "lon": 2.441,
      "cp": "93000",
      "ville": "BOBIGNY",
      "prix": {
        "E10": 0.00199,
        "SP98": 0.00199
      },
      "maj_gouv": {
        "E10": "2026-05-28 00:01:00",
        "SP98": "2026-05-28 00:01:00"
      }
    },
    {
      "id": "93250009",
      "lat": 48.885,
      "lon": 2.505,
      "cp": "93250",
      "ville": "VILLEMOMBLE",
      "prix": {
        "Gazole": 0.002159,
        "E85": 0.001059,
        "GPLc": 0.0011690000000000001,
        "E10": 0.002059,
        "SP98": 0.002229
      },
      "maj_gouv": {
        "Gazole": "2026-05-28 06:27:33",
        "E85": "2026-05-28 06:27:33",
        "GPLc": "2026-05-28 06:27:33",
        "E10": "2026-05-28 06:27:33",
        "SP98": "2026-05-28 06:27:33"
      }
    },
    {
      "id": "93300010",
      "lat": 48.912,
      "lon": 2.38,
      "cp": "93300",
      "ville": "Aubervilliers",
      "prix": {
        "Gazole": 0.002099,
        "E10": 0.002059,
        "SP98": 0.0022589999999999997
      },
      "maj_gouv": {
        "Gazole": "2026-05-27 12:17:14",
        "E10": "2026-05-27 12:17:15",
        "SP98": "2026-05-27 12:17:14"
      }
    },
    {
      "id": "93330005",
      "lat": 48.85427,
      "lon": 2.52019,
      "cp": "93330",
      "ville": "Neuilly-sur-Marne",
      "prix": {
        "Gazole": 0.0020710000000000004,
        "E85": 0.000909,
        "E10": 0.00199,
        "SP98": 0.00199
      },
      "maj_gouv": {
        "Gazole": "2026-05-28 00:01:00",
        "E85": "2026-05-28 00:01:00",
        "E10": "2026-05-28 00:01:00",
        "SP98": "2026-05-28 00:01:00"
      }
    },
    {
      "id": "93330004",
      "lat": 48.865836168664,
      "lon": 2.56269534165,
      "cp": "93330",
      "ville": "Neuilly-sur-Marne",
      "prix": {
        "Gazole": 0.002088,
        "SP95": 0.002093,
        "E10": 0.002053,
        "SP98": 0.002199
      },
      "maj_gouv": {
        "Gazole": "2026-05-27 08:20:49",
        "SP95": "2026-05-27 08:20:49",
        "E10": "2026-05-27 08:20:49",
        "SP98": "2026-05-27 08:20:49"
      }
    },
    {
      "id": "93420007",
      "lat": 48.953965389285,
      "lon": 2.533686306402,
      "cp": "93420",
      "ville": "VILLEPINTE",
      "prix": {
        "Gazole": 0.002007,
        "GPLc": 0.001049,
        "E10": 0.00199,
        "SP98": 0.00199
      },
      "maj_gouv": {
        "Gazole": "2026-05-28 00:01:00",
        "GPLc": "2026-05-28 00:01:00",
        "E10": "2026-05-28 00:01:00",
        "SP98": "2026-05-28 00:01:00"
      }
    },
    {
      "id": "93700004",
      "lat": 48.91625,
      "lon": 2.44355,
      "cp": "93700",
      "ville": "DRANCY",
      "prix": {
        "Gazole": 0.0020710000000000004,
        "E85": 0.000909,
        "SP98": 0.00199
      },
      "maj_gouv": {
        "Gazole": "2026-05-28 00:01:00",
        "E85": "2026-05-28 00:01:00",
        "SP98": "2026-05-28 00:01:00"
      }
    },
    {
      "id": "93300009",
      "lat": 48.909,
      "lon": 2.386,
      "cp": "93300",
      "ville": "AUBERVILLIERS",
      "prix": {
        "Gazole": 0.0020710000000000004,
        "E85": 0.0009040000000000001,
        "E10": 0.00199,
        "SP98": 0.00199
      },
      "maj_gouv": {
        "Gazole": "2026-05-28 00:01:00",
        "E85": "2026-05-28 00:01:00",
        "E10": "2026-05-28 00:01:00",
        "SP98": "2026-05-28 00:01:00"
      }
    },
    {
      "id": "93100017",
      "lat": 48.863,
      "lon": 2.464,
      "cp": "93100",
      "ville": "MONTREUIL",
      "prix": {
        "Gazole": 0.002059,
        "E10": 0.002009,
        "SP98": 0.002159
      },
      "maj_gouv": {
        "Gazole": "2026-05-27 12:10:39",
        "E10": "2026-05-27 12:10:39",
        "SP98": "2026-05-27 12:10:39"
      }
    },
    {
      "id": "93240007",
      "lat": 48.9487499536,
      "lon": 2.3798807028,
      "cp": "93240",
      "ville": "STAINS",
      "prix": {
        "Gazole": 0.0020710000000000004,
        "E10": 0.00199,
        "SP98": 0.00199
      },
      "maj_gouv": {
        "Gazole": "2026-05-28 00:01:00",
        "E10": "2026-05-28 00:01:00",
        "SP98": "2026-05-28 00:01:00"
      }
    },
    {
      "id": "93270001",
      "lat": 48.951,
      "lon": 2.528,
      "cp": "93270",
      "ville": "Sevran",
      "prix": {
        "Gazole": 0.0020870000000000003,
        "SP95": 0.002114,
        "E10": 0.002053,
        "SP98": 0.002185
      },
      "maj_gouv": {
        "Gazole": "2026-05-27 22:44:00",
        "SP95": "2026-05-27 22:44:00",
        "E10": "2026-05-27 22:44:00",
        "SP98": "2026-05-27 22:44:00"
      }
    },
    {
      "id": "93300008",
      "lat": 48.91,
      "lon": 2.38,
      "cp": "93300",
      "ville": "AUBERVILLIERS",
      "prix": {
        "Gazole": 0.002177,
        "SP95": 0.0021669999999999997,
        "E10": 0.002106,
        "SP98": 0.002263
      },
      "maj_gouv": {
        "Gazole": "2026-05-21 09:32:21",
        "SP95": "2026-05-21 09:32:21",
        "E10": "2026-05-21 09:32:22",
        "SP98": "2026-05-21 09:32:22"
      }
    },
    {
      "id": "93700003",
      "lat": 48.918,
      "lon": 2.418,
      "cp": "93700",
      "ville": "DRANCY",
      "prix": {
        "Gazole": 0.002088,
        "SP95": 0.002096,
        "E85": 0.000928,
        "GPLc": 0.000949,
        "E10": 0.0020499999999999997,
        "SP98": 0.002162
      },
      "maj_gouv": {
        "Gazole": "2026-05-27 22:44:00",
        "SP95": "2026-05-27 22:44:00",
        "E85": "2026-05-27 22:44:00",
        "GPLc": "2026-05-27 22:44:00",
        "E10": "2026-05-27 22:44:00",
        "SP98": "2026-05-27 22:44:00"
      }
    },
    {
      "id": "93190002",
      "lat": 48.9055105953,
      "lon": 2.52200168155,
      "cp": "93190",
      "ville": "LIVRY-GARGAN",
      "prix": {
        "Gazole": 0.002159,
        "SP95": 0.002149,
        "E10": 0.002099
      },
      "maj_gouv": {
        "Gazole": "2026-05-12 09:54:11",
        "SP95": "2026-05-21 13:28:59",
        "E10": "2026-05-21 13:28:59"
      }
    },
    {
      "id": "93130009",
      "lat": 48.888,
      "lon": 2.455,
      "cp": "93130",
      "ville": "Noisy-le-Sec",
      "prix": {
        "Gazole": 0.002007,
        "E10": 0.00199,
        "SP98": 0.00199
      },
      "maj_gouv": {
        "Gazole": "2026-05-28 00:01:00",
        "E10": "2026-05-28 00:01:00",
        "SP98": "2026-05-28 00:01:00"
      }
    },
    {
      "id": "93150011",
      "lat": 48.940912442423006,
      "lon": 2.4458337339048,
      "cp": "93150",
      "ville": "Le Blanc-Mesnil",
      "prix": {
        "Gazole": 0.002096,
        "SP95": 0.002137,
        "E10": 0.002096,
        "SP98": 0.002184
      },
      "maj_gouv": {
        "Gazole": "2026-05-26 08:21:16",
        "SP95": "2026-05-26 08:21:16",
        "E10": "2026-05-26 08:21:16",
        "SP98": "2026-05-26 08:21:16"
      }
    },
    {
      "id": "93420001",
      "lat": 48.96009900000001,
      "lon": 2.553483,
      "cp": "93420",
      "ville": "VILLEPINTE",
      "prix": {
        "Gazole": 0.0020870000000000003,
        "E85": 0.000879,
        "E10": 0.002059,
        "SP98": 0.002185
      },
      "maj_gouv": {
        "Gazole": "2026-05-27 09:30:00",
        "E85": "2026-05-27 09:30:00",
        "E10": "2026-05-27 09:30:00",
        "SP98": "2026-05-27 09:30:00"
      }
    },
    {
      "id": "93600006",
      "lat": 48.93022,
      "lon": 2.51132,
      "cp": "93600",
      "ville": "Aulnay-sous-Bois",
      "prix": {
        "Gazole": 0.002109,
        "E85": 0.000798,
        "E10": 0.002069,
        "SP98": 0.002189
      },
      "maj_gouv": {
        "Gazole": "2026-05-26 09:51:44",
        "E85": "2026-05-19 09:10:16",
        "E10": "2026-05-26 09:51:45",
        "SP98": "2026-05-26 09:51:45"
      }
    },
    {
      "id": "93190001",
      "lat": 48.929,
      "lon": 2.555,
      "cp": "93190",
      "ville": "LIVRY-GARGAN",
      "prix": {
        "Gazole": 0.0020870000000000003,
        "E85": 0.000799,
        "GPLc": 0.000999,
        "E10": 0.002059,
        "SP98": 0.002127
      },
      "maj_gouv": {
        "Gazole": "2026-05-27 12:43:19",
        "E85": "2026-05-27 12:43:19",
        "GPLc": "2026-05-27 12:43:19",
        "E10": "2026-05-27 12:43:19",
        "SP98": "2026-05-27 12:43:19"
      }
    },
    {
      "id": "93190007",
      "lat": 48.928,
      "lon": 2.549,
      "cp": "93190",
      "ville": "Livry-Gargan",
      "prix": {
        "Gazole": 0.0021190000000000002,
        "E85": 0.000798,
        "E10": 0.002059,
        "SP98": 0.002169
      },
      "maj_gouv": {
        "Gazole": "2026-05-21 09:24:35",
        "E85": "2026-05-18 10:22:47",
        "E10": "2026-05-18 10:22:47",
        "SP98": "2026-05-21 09:24:35"
      }
    },
    {
      "id": "93160009",
      "lat": 48.829,
      "lon": 2.569,
      "cp": "93160",
      "ville": "Noisy-le-Grand",
      "prix": {
        "Gazole": 0.0020710000000000004,
        "E85": 0.000884,
        "E10": 0.00199
      },
      "maj_gouv": {
        "Gazole": "2026-05-28 00:01:00",
        "E85": "2026-05-28 00:01:00",
        "E10": "2026-05-28 00:01:00"
      }
    },
    {
      "id": "93606001",
      "lat": 48.955,
      "lon": 2.476,
      "cp": "93600",
      "ville": "Aulnay-sous-Bois",
      "prix": {
        "Gazole": 0.002095,
        "SP95": 0.002109,
        "E85": 0.000867,
        "GPLc": 0.00098,
        "E10": 0.002059,
        "SP98": 0.002183
      },
      "maj_gouv": {
        "Gazole": "2026-05-26 12:27:26",
        "SP95": "2026-05-26 12:27:26",
        "E85": "2026-05-26 12:27:27",
        "GPLc": "2026-05-26 12:27:27",
        "E10": "2026-05-26 12:27:27",
        "SP98": "2026-05-26 12:27:27"
      }
    },
    {
      "id": "93150008",
      "lat": 48.948,
      "lon": 2.467,
      "cp": "93150",
      "ville": "LE BLANC-MESNIL",
      "prix": {
        "Gazole": 0.002162,
        "SP95": 0.0021680000000000002,
        "E10": 0.002125,
        "SP98": 0.002205
      },
      "maj_gouv": {
        "Gazole": "2026-05-21 09:20:46",
        "SP95": "2026-05-21 09:20:46",
        "E10": "2026-05-21 09:20:46",
        "SP98": "2026-05-21 09:20:46"
      }
    },
    {
      "id": "93240001",
      "lat": 48.949,
      "lon": 2.385,
      "cp": "93240",
      "ville": "STAINS",
      "prix": {
        "Gazole": 0.00204,
        "SP95": 0.002039,
        "E85": 0.000839,
        "E10": 0.00199,
        "SP98": 0.00211
      },
      "maj_gouv": {
        "Gazole": "2026-05-27 08:18:12",
        "SP95": "2026-05-27 08:18:13",
        "E85": "2026-05-27 08:18:13",
        "E10": "2026-05-27 08:18:13",
        "SP98": "2026-05-27 08:18:13"
      }
    },
    {
      "id": "93150007",
      "lat": 48.948,
      "lon": 2.438,
      "cp": "93150",
      "ville": "Le Blanc-Mesnil",
      "prix": {
        "Gazole": 0.00204,
        "E85": 0.00095,
        "E10": 0.002053,
        "SP98": 0.00212
      },
      "maj_gouv": {
        "Gazole": "2026-05-28 06:31:00",
        "E85": "2026-05-28 06:31:00",
        "E10": "2026-05-28 06:31:00",
        "SP98": "2026-05-28 06:31:00"
      }
    },
    {
      "id": "93100011",
      "lat": 48.869,
      "lon": 2.448,
      "cp": "93100",
      "ville": "Montreuil",
      "prix": {
        "Gazole": 0.002059,
        "E10": 0.002009,
        "SP98": 0.002159
      },
      "maj_gouv": {
        "Gazole": "2026-05-27 12:11:23",
        "E10": "2026-05-27 12:11:23",
        "SP98": "2026-05-27 12:11:23"
      }
    },
    {
      "id": "93240009",
      "lat": 48.959,
      "lon": 2.398,
      "cp": "93240",
      "ville": "Stains",
      "prix": {
        "Gazole": 0.002109,
        "E10": 0.002061,
        "SP98": 0.00219
      },
      "maj_gouv": {
        "Gazole": "2026-05-27 19:52:00",
        "E10": "2026-05-27 19:52:00",
        "SP98": "2026-05-27 19:52:00"
      }
    },
    {
      "id": "93120005",
      "lat": 48.935,
      "lon": 2.394,
      "cp": "93120",
      "ville": "LA COURNEUVE",
      "prix": {
        "Gazole": 0.0020710000000000004,
        "E85": 0.000958,
        "E10": 0.00199,
        "SP98": 0.00199
      },
      "maj_gouv": {
        "Gazole": "2026-05-28 00:01:00",
        "E85": "2026-05-28 00:01:00",
        "E10": "2026-05-28 00:01:00",
        "SP98": "2026-05-28 00:01:00"
      }
    },
    {
      "id": "93330006",
      "lat": 48.855,
      "lon": 2.525,
      "cp": "93330",
      "ville": "Neuilly-sur-Marne",
      "prix": {
        "Gazole": 0.002007
      },
      "maj_gouv": {
        "Gazole": "2026-05-28 00:01:00"
      }
    },
    {
      "id": "93600019",
      "lat": 48.94482,
      "lon": 2.49526,
      "cp": "93600",
      "ville": "Aulnay-sous-Bois",
      "prix": {
        "Gazole": 0.002079,
        "E10": 0.002039,
        "SP98": 0.002139
      },
      "maj_gouv": {
        "Gazole": "2026-05-28 06:26:53",
        "E10": "2026-05-28 06:26:53",
        "SP98": "2026-05-28 06:26:53"
      }
    },
    {
      "id": "93240008",
      "lat": 48.95763,
      "lon": 2.38253,
      "cp": "93240",
      "ville": "STAINS",
      "prix": {
        "Gazole": 0.002007,
        "E10": 0.00199
      },
      "maj_gouv": {
        "Gazole": "2026-05-28 00:01:00",
        "E10": "2026-05-28 00:01:00"
      }
    },
    {
      "id": "93230005",
      "lat": 48.884,
      "lon": 2.43,
      "cp": "93230",
      "ville": "ROMAINVILLE",
      "prix": {
        "Gazole": 0.0020710000000000004,
        "E10": 0.00199,
        "SP98": 0.00199
      },
      "maj_gouv": {
        "Gazole": "2026-05-28 00:01:00",
        "E10": "2026-05-28 00:01:00",
        "SP98": "2026-05-28 00:01:00"
      }
    },
    {
      "id": "93130006",
      "lat": 48.902,
      "lon": 2.462,
      "cp": "93130",
      "ville": "NOISY-LE-SEC",
      "prix": {},
      "maj_gouv": {}
    },
    {
      "id": "93600020",
      "lat": 48.924,
      "lon": 2.486,
      "cp": "93600",
      "ville": "Aulnay-sous-Bois",
      "prix": {
        "Gazole": 0.00239,
        "E10": 0.00215,
        "SP98": 0.00219
      },
      "maj_gouv": {
        "Gazole": "2026-05-16 14:02:15",
        "E10": "2026-05-16 14:02:15",
        "SP98": "2026-05-16 14:02:15"
      }
    },
    {
      "id": "93370001",
      "lat": 48.899,
      "lon": 2.549,
      "cp": "93370",
      "ville": "MONTFERMEIL",
      "prix": {
        "Gazole": 0.0020859999999999997,
        "SP95": 0.0021070000000000004,
        "E10": 0.002058,
        "SP98": 0.002134
      },
      "maj_gouv": {
        "Gazole": "2026-05-27 09:17:30",
        "SP95": "2026-05-27 09:17:30",
        "E10": "2026-05-27 09:17:30",
        "SP98": "2026-05-27 09:17:30"
      }
    },
    {
      "id": "93100014",
      "lat": 48.86885,
      "lon": 2.47055,
      "cp": "93100",
      "ville": "MONTREUIL",
      "prix": {
        "Gazole": 0.002007,
        "E85": 0.0009040000000000001,
        "E10": 0.00199,
        "SP98": 0.00199
      },
      "maj_gouv": {
        "Gazole": "2026-05-28 00:01:00",
        "E85": "2026-05-28 00:01:00",
        "E10": "2026-05-28 00:01:00",
        "SP98": "2026-05-28 00:01:00"
      }
    },
    {
      "id": "93470002",
      "lat": 48.915,
      "lon": 2.589,
      "cp": "93470",
      "ville": "COUBRON",
      "prix": {
        "Gazole": 0.002099,
        "E85": 0.000798,
        "E10": 0.002049,
        "SP98": 0.002169
      },
      "maj_gouv": {
        "Gazole": "2026-05-27 07:33:35",
        "E85": "2026-05-18 09:49:46",
        "E10": "2026-05-27 07:33:35",
        "SP98": "2026-05-27 07:33:35"
      }
    }
  ]
}