{
  "departement": "25",
  "date": "2026-05-13",
  "stations": [
    {
      "id": "25115001",
      "lat": 47.257413021458,
      "lon": 5.9240872885659,
      "cp": "25115",
      "ville": "Pouilley-les-Vignes",
      "prix": {
        "Gazole": 0.002129,
        "SP95": 0.002099,
        "E85": 0.000739,
        "GPLc": 0.000999,
        "SP98": 0.002129
      },
      "maj_gouv": {
        "Gazole": "2026-05-12 10:38:17",
        "SP95": "2026-05-04 11:43:11",
        "E85": "2026-04-14 17:04:20",
        "GPLc": "2026-04-24 14:56:58",
        "SP98": "2026-05-04 11:43:11"
      }
    },
    {
      "id": "25310001",
      "lat": 47.391114566038,
      "lon": 6.847145236797699,
      "cp": "25310",
      "ville": "BLAMONT",
      "prix": {
        "Gazole": 0.002139,
        "E85": 0.000859,
        "SP98": 0.002139
      },
      "maj_gouv": {
        "Gazole": "2026-05-11 11:41:28",
        "E85": "2026-04-22 06:00:00",
        "SP98": "2026-05-04 09:43:03"
      }
    },
    {
      "id": "25110001",
      "lat": 47.352,
      "lon": 6.358,
      "cp": "25110",
      "ville": "BAUME-LES-DAMES",
      "prix": {
        "Gazole": 0.00225,
        "SP95": 0.00199
      },
      "maj_gouv": {
        "Gazole": "2026-05-07 09:48:32",
        "SP95": "2026-04-14 14:58:02"
      }
    },
    {
      "id": "25500007",
      "lat": 47.057508463211,
      "lon": 6.6110181743167,
      "cp": "25500",
      "ville": "Morteau",
      "prix": {
        "Gazole": 0.002219,
        "E10": 0.001999,
        "SP98": 0.002099
      },
      "maj_gouv": {
        "Gazole": "2026-05-09 20:00:00",
        "E10": "2026-05-09 20:00:00",
        "SP98": "2026-05-09 20:00:00"
      }
    },
    {
      "id": "25220003",
      "lat": 47.273,
      "lon": 6.102,
      "cp": "25220",
      "ville": "Roche-lez-Beaupré",
      "prix": {
        "Gazole": 0.002199,
        "SP95": 0.002099,
        "E10": 0.002059,
        "SP98": 0.002129
      },
      "maj_gouv": {
        "Gazole": "2026-05-05 10:17:53",
        "SP95": "2026-05-05 10:17:54",
        "E10": "2026-05-05 10:17:54",
        "SP98": "2026-05-05 10:17:54"
      }
    },
    {
      "id": "25300005",
      "lat": 46.922,
      "lon": 6.343,
      "cp": "25300",
      "ville": "Doubs",
      "prix": {
        "Gazole": 0.002189,
        "E85": 0.0008900000000000001,
        "E10": 0.001999,
        "SP98": 0.002099
      },
      "maj_gouv": {
        "Gazole": "2026-05-09 20:01:00",
        "E85": "2026-04-17 08:26:17",
        "E10": "2026-05-09 20:01:00",
        "SP98": "2026-04-30 19:01:00"
      }
    },
    {
      "id": "25300013",
      "lat": 46.908957037731994,
      "lon": 6.3387840348482,
      "cp": "25300",
      "ville": "PONTARLIER",
      "prix": {
        "Gazole": 0.002199,
        "E10": 0.002029,
        "SP98": 0.002149
      },
      "maj_gouv": {
        "Gazole": "2026-05-09 20:00:00",
        "E10": "2026-05-09 20:00:00",
        "SP98": "2026-05-09 20:00:00"
      }
    },
    {
      "id": "25290001",
      "lat": 47.11,
      "lon": 6.126,
      "cp": "25290",
      "ville": "ORNANS",
      "prix": {
        "Gazole": 0.0022890000000000002,
        "SP95": 0.002099,
        "SP98": 0.002199
      },
      "maj_gouv": {
        "Gazole": "2026-04-24 00:01:00",
        "SP95": "2026-04-15 00:01:00",
        "SP98": "2026-04-03 00:00:00"
      }
    },
    {
      "id": "25000027",
      "lat": 47.216167028634,
      "lon": 5.944745862890599,
      "cp": "25000",
      "ville": "BESANCON",
      "prix": {
        "Gazole": 0.002093,
        "GPLc": 0.0010969999999999999,
        "E10": 0.0020009999999999997,
        "SP98": 0.002178
      },
      "maj_gouv": {
        "Gazole": "2026-05-11 09:47:40",
        "GPLc": "2026-05-11 09:47:40",
        "E10": "2026-05-11 09:47:40",
        "SP98": "2026-05-11 09:47:40"
      }
    },
    {
      "id": "25430003",
      "lat": 47.301796258093,
      "lon": 6.569972688391,
      "cp": "25430",
      "ville": "Sancey",
      "prix": {
        "Gazole": 0.0022890000000000002,
        "E10": 0.002099
      },
      "maj_gouv": {
        "Gazole": "2026-04-24 00:01:00",
        "E10": "2026-04-15 00:01:00"
      }
    },
    {
      "id": "25640007",
      "lat": 47.32512,
      "lon": 6.11672,
      "cp": "25640",
      "ville": "MARCHAUX",
      "prix": {
        "Gazole": 0.0022440000000000003,
        "E85": 0.000998,
        "GPLc": 0.0011279999999999999,
        "E10": 0.00199,
        "SP98": 0.00199
      },
      "maj_gouv": {
        "Gazole": "2026-05-13 00:01:00",
        "E85": "2026-05-13 00:01:00",
        "GPLc": "2026-05-13 00:01:00",
        "E10": "2026-05-13 00:01:00",
        "SP98": "2026-05-13 00:01:00"
      }
    },
    {
      "id": "25800003",
      "lat": 47.148,
      "lon": 6.331,
      "cp": "25800",
      "ville": "VALDAHON",
      "prix": {
        "Gazole": 0.002078,
        "E10": 0.001999,
        "SP98": 0.002099
      },
      "maj_gouv": {
        "Gazole": "2026-05-12 11:41:12",
        "E10": "2026-05-12 11:41:12",
        "SP98": "2026-05-12 11:41:13"
      }
    },
    {
      "id": "25000011",
      "lat": 47.218,
      "lon": 5.97,
      "cp": "25000",
      "ville": "Besançon",
      "prix": {
        "Gazole": 0.002198,
        "E85": 0.000819,
        "E10": 0.002056,
        "SP98": 0.002164
      },
      "maj_gouv": {
        "Gazole": "2026-05-07 08:43:52",
        "E85": "2026-04-24 08:17:19",
        "E10": "2026-05-04 17:36:45",
        "SP98": "2026-05-07 08:43:52"
      }
    },
    {
      "id": "25490001",
      "lat": 47.519,
      "lon": 6.916,
      "cp": "25490",
      "ville": "DAMPIERRE-LES-BOIS",
      "prix": {
        "Gazole": 0.002176,
        "E85": 0.0008179999999999999,
        "E10": 0.002012,
        "SP98": 0.0021219999999999998
      },
      "maj_gouv": {
        "Gazole": "2026-05-07 10:58:50",
        "E85": "2026-04-28 09:36:30",
        "E10": "2026-05-07 10:58:50",
        "SP98": "2026-05-07 10:58:50"
      }
    },
    {
      "id": "25150006",
      "lat": 47.441,
      "lon": 6.729,
      "cp": "25150",
      "ville": "Écot",
      "prix": {
        "Gazole": 0.0021880000000000003,
        "E85": 0.0012250000000000002,
        "E10": 0.002193,
        "SP98": 0.002222
      },
      "maj_gouv": {
        "Gazole": "2026-05-12 12:44:06",
        "E85": "2026-05-12 12:44:06",
        "E10": "2026-05-12 12:44:06",
        "SP98": "2026-05-12 12:44:06"
      }
    },
    {
      "id": "25480004",
      "lat": 47.277,
      "lon": 5.994,
      "cp": "25480",
      "ville": "École-Valentin",
      "prix": {
        "Gazole": 0.002269,
        "E85": 0.0008990000000000001,
        "GPLc": 0.001049,
        "E10": 0.002099,
        "SP98": 0.002199
      },
      "maj_gouv": {
        "Gazole": "2026-04-28 09:45:16",
        "E85": "2026-04-24 07:03:00",
        "GPLc": "2026-04-03 07:03:00",
        "E10": "2026-04-15 11:43:55",
        "SP98": "2026-04-03 07:03:00"
      }
    },
    {
      "id": "25110003",
      "lat": 47.352,
      "lon": 6.35,
      "cp": "25110",
      "ville": "Baume-les-Dames",
      "prix": {
        "Gazole": 0.002189,
        "E85": 0.0008489999999999999,
        "E10": 0.002019,
        "SP98": 0.002099
      },
      "maj_gouv": {
        "Gazole": "2026-04-30 13:52:16",
        "E85": "2026-05-12 10:54:35",
        "E10": "2026-05-07 17:00:38",
        "SP98": "2026-05-07 17:00:39"
      }
    },
    {
      "id": "25660004",
      "lat": 47.228241575399004,
      "lon": 6.1139711838531,
      "cp": "25660",
      "ville": "SAONE",
      "prix": {
        "Gazole": 0.0021349999999999997,
        "SP95": 0.002075,
        "E85": 0.0008179999999999999,
        "E10": 0.0020150000000000003
      },
      "maj_gouv": {
        "Gazole": "2026-05-12 10:48:31",
        "SP95": "2026-05-12 10:48:31",
        "E85": "2026-05-12 10:48:31",
        "E10": "2026-05-12 10:48:31"
      }
    },
    {
      "id": "25210002",
      "lat": 47.162,
      "lon": 6.728,
      "cp": "25210",
      "ville": "LE RUSSEY",
      "prix": {
        "Gazole": 0.002249,
        "E10": 0.002139
      },
      "maj_gouv": {
        "Gazole": "2026-04-28 11:54:16",
        "E10": "2026-05-03 19:21:17"
      }
    },
    {
      "id": "25300007",
      "lat": 46.902,
      "lon": 6.334,
      "cp": "25300",
      "ville": "PONTARLIER",
      "prix": {
        "Gazole": 0.0021869999999999997
      },
      "maj_gouv": {
        "Gazole": "2026-05-12 11:46:29"
      }
    },
    {
      "id": "25120001",
      "lat": 47.253,
      "lon": 6.801,
      "cp": "25120",
      "ville": "Maîche",
      "prix": {
        "Gazole": 0.002169,
        "SP95": 0.002069,
        "E10": 0.001999
      },
      "maj_gouv": {
        "Gazole": "2026-05-11 09:33:46",
        "SP95": "2026-05-11 09:33:46",
        "E10": "2026-05-11 09:33:46"
      }
    },
    {
      "id": "25240001",
      "lat": 46.716,
      "lon": 6.196,
      "cp": "25240",
      "ville": "MOUTHE",
      "prix": {
        "Gazole": 0.0022890000000000002,
        "SP95": 0.002099,
        "SP98": 0.002199
      },
      "maj_gouv": {
        "Gazole": "2026-04-24 00:01:00",
        "SP95": "2026-04-14 18:36:28",
        "SP98": "2026-04-03 00:00:00"
      }
    },
    {
      "id": "25680001",
      "lat": 47.481,
      "lon": 6.381,
      "cp": "25680",
      "ville": "Cuse-et-Adrisans",
      "prix": {
        "Gazole": 0.002176,
        "E10": 0.00199,
        "SP98": 0.00199
      },
      "maj_gouv": {
        "Gazole": "2026-05-12 11:24:56",
        "E10": "2026-05-12 11:24:56",
        "SP98": "2026-05-12 11:24:56"
      }
    },
    {
      "id": "25130002",
      "lat": 47.05327983580101,
      "lon": 6.6647492079041,
      "cp": "25130",
      "ville": "Villers-le-Lac",
      "prix": {
        "Gazole": 0.002199,
        "E85": 0.000819,
        "E10": 0.002049,
        "SP98": 0.002149
      },
      "maj_gouv": {
        "Gazole": "2026-05-11 11:45:29",
        "E85": "2026-04-25 09:26:28",
        "E10": "2026-05-11 11:45:30",
        "SP98": "2026-05-11 11:45:30"
      }
    },
    {
      "id": "25000028",
      "lat": 47.231,
      "lon": 5.994,
      "cp": "25000",
      "ville": "Besançon",
      "prix": {
        "Gazole": 0.002089,
        "E85": 0.000819,
        "E10": 0.001999
      },
      "maj_gouv": {
        "Gazole": "2026-05-12 11:36:38",
        "E85": "2026-04-22 08:34:06",
        "E10": "2026-05-12 11:36:38"
      }
    },
    {
      "id": "25130001",
      "lat": 47.057787912386004,
      "lon": 6.670182578827999,
      "cp": "25130",
      "ville": "VILLERS-LE-LAC",
      "prix": {
        "Gazole": 0.002269,
        "SP95": 0.002099,
        "SP98": 0.002199
      },
      "maj_gouv": {
        "Gazole": "2026-04-24 00:01:00",
        "SP95": "2026-04-15 00:01:00",
        "SP98": "2026-04-03 00:00:00"
      }
    },
    {
      "id": "25640008",
      "lat": 47.320765279211,
      "lon": 6.1283716323715,
      "cp": "25640",
      "ville": "Marchaux",
      "prix": {
        "Gazole": 0.002249,
        "SP95": 0.002099,
        "E85": 0.000819,
        "E10": 0.002059
      },
      "maj_gouv": {
        "Gazole": "2026-05-05 14:23:10",
        "SP95": "2026-05-05 14:24:19",
        "E85": "2026-04-17 09:17:46",
        "E10": "2026-05-05 14:24:19"
      }
    },
    {
      "id": "25200003",
      "lat": 47.509,
      "lon": 6.779,
      "cp": "25200",
      "ville": "MONTBéLIARD",
      "prix": {
        "Gazole": 0.002219,
        "E85": 0.000739,
        "E10": 0.002079,
        "SP98": 0.002159
      },
      "maj_gouv": {
        "Gazole": "2026-05-09 04:45:35",
        "E85": "2026-03-04 12:16:43",
        "E10": "2026-05-08 08:07:07",
        "SP98": "2026-05-08 08:07:07"
      }
    },
    {
      "id": "25500005",
      "lat": 47.056,
      "lon": 6.617,
      "cp": "25500",
      "ville": "MORTEAU",
      "prix": {
        "Gazole": 0.002199,
        "SP95": 0.002099,
        "E85": 0.000819,
        "E10": 0.002049
      },
      "maj_gouv": {
        "Gazole": "2026-05-12 08:45:00",
        "SP95": "2026-05-09 19:00:00",
        "E85": "2026-05-05 08:30:00",
        "E10": "2026-05-11 14:00:00"
      }
    },
    {
      "id": "25660002",
      "lat": 47.20848000534,
      "lon": 6.103166560979401,
      "cp": "25660",
      "ville": "Saône",
      "prix": {
        "Gazole": 0.002169,
        "SP95": 0.002099,
        "E10": 0.002054,
        "SP98": 0.002181
      },
      "maj_gouv": {
        "Gazole": "2026-05-12 18:52:21",
        "SP95": "2026-05-12 18:52:21",
        "E10": "2026-05-12 18:52:21",
        "SP98": "2026-05-12 18:52:21"
      }
    },
    {
      "id": "25000026",
      "lat": 47.244,
      "lon": 5.984,
      "cp": "25000",
      "ville": "Besançon",
      "prix": {
        "Gazole": 0.002159,
        "E85": 0.0008489999999999999,
        "E10": 0.002019,
        "SP98": 0.0021349999999999997
      },
      "maj_gouv": {
        "Gazole": "2026-05-12 10:45:21",
        "E85": "2026-05-07 16:36:35",
        "E10": "2026-05-12 10:45:22",
        "SP98": "2026-05-11 10:41:14"
      }
    },
    {
      "id": "25400005",
      "lat": 47.495224450569005,
      "lon": 6.837939848159301,
      "cp": "25400",
      "ville": "EXINCOURT",
      "prix": {
        "Gazole": 0.0021579999999999998,
        "SP95": 0.002065,
        "GPLc": 0.001106,
        "E10": 0.0020259999999999996
      },
      "maj_gouv": {
        "Gazole": "2026-05-11 09:35:47",
        "SP95": "2026-05-11 09:35:47",
        "GPLc": "2026-05-04 11:30:02",
        "E10": "2026-05-11 09:35:47"
      }
    },
    {
      "id": "25620001",
      "lat": 47.201,
      "lon": 6.14,
      "cp": "25620",
      "ville": "MAMIROLLE",
      "prix": {
        "E85": 0.000829
      },
      "maj_gouv": {
        "E85": "2026-05-13 00:01:00"
      }
    },
    {
      "id": "25480001",
      "lat": 47.284,
      "lon": 5.993,
      "cp": "25480",
      "ville": "ÉCOLE-VALENTIN",
      "prix": {
        "Gazole": 0.002129,
        "SP95": 0.002069,
        "E85": 0.00074,
        "E10": 0.002019,
        "SP98": 0.002195
      },
      "maj_gouv": {
        "Gazole": "2026-05-12 22:43:00",
        "SP95": "2026-05-12 22:43:00",
        "E85": "2026-05-12 22:43:00",
        "E10": "2026-05-12 22:43:00",
        "SP98": "2026-05-12 22:43:00"
      }
    },
    {
      "id": "25500002",
      "lat": 47.06295999304,
      "lon": 6.6061820549367996,
      "cp": "25500",
      "ville": "Morteau",
      "prix": {
        "Gazole": 0.002205,
        "E10": 0.00199,
        "SP98": 0.00199
      },
      "maj_gouv": {
        "Gazole": "2026-05-12 15:34:44",
        "E10": "2026-05-12 15:34:44",
        "SP98": "2026-05-12 15:34:45"
      }
    },
    {
      "id": "25480003",
      "lat": 47.251,
      "lon": 5.968,
      "cp": "25480",
      "ville": "PIREY",
      "prix": {
        "Gazole": 0.0022010000000000003
      },
      "maj_gouv": {
        "Gazole": "2026-05-12 17:52:14"
      }
    },
    {
      "id": "25610001",
      "lat": 47.035,
      "lon": 5.785,
      "cp": "25610",
      "ville": "Arc-et-Senans",
      "prix": {
        "Gazole": 0.0022890000000000002,
        "SP95": 0.002099,
        "SP98": 0.002199
      },
      "maj_gouv": {
        "Gazole": "2026-04-24 00:01:00",
        "SP95": "2026-04-15 00:01:00",
        "SP98": "2026-04-03 00:00:00"
      }
    },
    {
      "id": "25400003",
      "lat": 47.48631,
      "lon": 6.84373,
      "cp": "25400",
      "ville": "Audincourt",
      "prix": {
        "Gazole": 0.00214,
        "SP95": 0.002036,
        "E10": 0.002,
        "SP98": 0.002085
      },
      "maj_gouv": {
        "Gazole": "2026-05-12 13:14:08",
        "SP95": "2026-05-12 13:14:08",
        "E10": "2026-05-12 13:14:08",
        "SP98": "2026-05-12 13:14:08"
      }
    },
    {
      "id": "25000023",
      "lat": 47.247,
      "lon": 6.02,
      "cp": "25000",
      "ville": "BESANCON",
      "prix": {
        "Gazole": 0.002242,
        "E10": 0.00199
      },
      "maj_gouv": {
        "Gazole": "2026-05-13 00:01:00",
        "E10": "2026-05-13 00:01:00"
      }
    },
    {
      "id": "25000007",
      "lat": 47.23329,
      "lon": 5.98521,
      "cp": "25000",
      "ville": "Besançon",
      "prix": {
        "Gazole": 0.002129,
        "SP95": 0.002069,
        "E85": 0.000739,
        "E10": 0.002019
      },
      "maj_gouv": {
        "Gazole": "2026-05-12 08:35:56",
        "SP95": "2026-05-12 12:21:03",
        "E85": "2026-01-19 13:02:42",
        "E10": "2026-05-12 12:21:03"
      }
    },
    {
      "id": "25250002",
      "lat": 47.446720633199995,
      "lon": 6.57943380782,
      "cp": "25250",
      "ville": "L'ISLE-SUR-LE-DOUBS",
      "prix": {
        "Gazole": 0.00216,
        "E85": 0.0008179999999999999,
        "E10": 0.002005,
        "SP98": 0.00212
      },
      "maj_gouv": {
        "Gazole": "2026-05-07 09:21:06",
        "E85": "2026-04-17 19:30:00",
        "E10": "2026-05-07 09:21:06",
        "SP98": "2026-05-07 09:21:06"
      }
    },
    {
      "id": "25800002",
      "lat": 47.148,
      "lon": 6.335,
      "cp": "25800",
      "ville": "VALDAHON",
      "prix": {
        "Gazole": 0.002077,
        "E85": 0.000734,
        "E10": 0.001998,
        "SP98": 0.002098
      },
      "maj_gouv": {
        "Gazole": "2026-05-12 12:11:48",
        "E85": "2026-05-12 08:43:23",
        "E10": "2026-05-12 12:11:48",
        "SP98": "2026-05-12 12:11:48"
      }
    },
    {
      "id": "25530001",
      "lat": 47.18,
      "lon": 6.39,
      "cp": "25530",
      "ville": "VERCEL-VILLEDIEU-LE-CAMP",
      "prix": {
        "Gazole": 0.002229,
        "SP95": 0.002085,
        "SP98": 0.002129
      },
      "maj_gouv": {
        "Gazole": "2026-05-04 18:51:37",
        "SP95": "2026-05-04 09:47:57",
        "SP98": "2026-05-05 12:32:05"
      }
    },
    {
      "id": "25390001",
      "lat": 47.129,
      "lon": 6.522,
      "cp": "25390",
      "ville": "ORCHAMPS-VENNES",
      "prix": {
        "Gazole": 0.002146,
        "SP95": 0.002099,
        "SP98": 0.002169
      },
      "maj_gouv": {
        "Gazole": "2026-05-12 05:37:41",
        "SP95": "2026-05-10 09:56:10",
        "SP98": "2026-05-11 10:47:24"
      }
    },
    {
      "id": "25370002",
      "lat": 46.77182,
      "lon": 6.37855,
      "cp": "25370",
      "ville": "Les Hôpitaux-Neufs",
      "prix": {
        "Gazole": 0.002081,
        "SP95": 0.002043,
        "E85": 0.0008179999999999999,
        "SP98": 0.002095
      },
      "maj_gouv": {
        "Gazole": "2026-05-12 07:22:37",
        "SP95": "2026-05-12 07:22:37",
        "E85": "2026-04-16 09:44:56",
        "SP98": "2026-05-12 07:22:37"
      }
    },
    {
      "id": "25150005",
      "lat": 47.389,
      "lon": 6.772,
      "cp": "25150",
      "ville": "PONT-DE-ROIDE",
      "prix": {
        "Gazole": 0.00217,
        "SP95": 0.00199
      },
      "maj_gouv": {
        "Gazole": "2026-05-11 18:11:41",
        "SP95": "2026-04-13 13:31:09"
      }
    },
    {
      "id": "25200001",
      "lat": 47.527,
      "lon": 6.81,
      "cp": "25200",
      "ville": "Montbéliard",
      "prix": {
        "Gazole": 0.00215,
        "SP95": 0.00204,
        "GPLc": 0.000999,
        "E10": 0.002011,
        "SP98": 0.002091
      },
      "maj_gouv": {
        "Gazole": "2026-05-12 10:12:46",
        "SP95": "2026-05-12 10:12:46",
        "GPLc": "2026-05-12 10:12:46",
        "E10": "2026-05-12 10:12:46",
        "SP98": "2026-05-12 10:12:46"
      }
    },
    {
      "id": "25420006",
      "lat": 47.474537741827,
      "lon": 6.7295497381,
      "cp": "25420",
      "ville": "Dampierre-sur-le-Doubs",
      "prix": {
        "Gazole": 0.002222,
        "E10": 0.002023,
        "SP98": 0.00215
      },
      "maj_gouv": {
        "Gazole": "2026-05-06 09:42:50",
        "E10": "2026-05-06 09:42:51",
        "SP98": "2026-05-06 09:42:51"
      }
    },
    {
      "id": "25350001",
      "lat": 47.448,
      "lon": 6.813,
      "cp": "25350",
      "ville": "MANDEURE",
      "prix": {
        "Gazole": 0.002199,
        "SP95": 0.002069,
        "SP98": 0.002189
      },
      "maj_gouv": {
        "Gazole": "2026-04-18 08:28:01",
        "SP95": "2026-04-30 07:45:02",
        "SP98": "2026-04-30 07:45:03"
      }
    },
    {
      "id": "25220002",
      "lat": 47.264,
      "lon": 6.058,
      "cp": "25220",
      "ville": "CHALEZEULE",
      "prix": {
        "Gazole": 0.0022890000000000002,
        "GPLc": 0.001149,
        "E10": 0.002099,
        "SP98": 0.002199
      },
      "maj_gouv": {
        "Gazole": "2026-04-24 07:17:17",
        "GPLc": "2026-04-23 10:26:44",
        "E10": "2026-04-23 10:28:29",
        "SP98": "2026-04-23 10:28:29"
      }
    },
    {
      "id": "25440001",
      "lat": 47.102,
      "lon": 5.886,
      "cp": "25440",
      "ville": "QUINGEY",
      "prix": {
        "Gazole": 0.002114,
        "E85": 0.000819,
        "E10": 0.002055,
        "SP98": 0.002125
      },
      "maj_gouv": {
        "Gazole": "2026-05-12 09:35:25",
        "E85": "2026-04-21 10:07:09",
        "E10": "2026-05-05 09:49:23",
        "SP98": "2026-05-07 09:59:00"
      }
    },
    {
      "id": "25430001",
      "lat": 47.306,
      "lon": 6.595,
      "cp": "25430",
      "ville": "Sancey-le-Long",
      "prix": {
        "Gazole": 0.0022890000000000002,
        "SP95": 0.002139,
        "E10": 0.002099,
        "SP98": 0.002199
      },
      "maj_gouv": {
        "Gazole": "2026-04-24 00:01:00",
        "SP95": "2026-04-15 00:01:00",
        "E10": "2026-04-15 00:01:00",
        "SP98": "2026-04-03 00:00:00"
      }
    },
    {
      "id": "25000024",
      "lat": 47.222,
      "lon": 5.963,
      "cp": "25000",
      "ville": "BESANCON",
      "prix": {
        "Gazole": 0.002231,
        "E85": 0.0008259999999999999
      },
      "maj_gouv": {
        "Gazole": "2026-05-13 00:01:00",
        "E85": "2026-05-13 00:01:00"
      }
    },
    {
      "id": "25650002",
      "lat": 47.047390073703,
      "lon": 6.4975326782419,
      "cp": "25650",
      "ville": "Gilley",
      "prix": {
        "Gazole": 0.002169,
        "E10": 0.002069
      },
      "maj_gouv": {
        "Gazole": "2026-05-12 11:17:17",
        "E10": "2026-05-05 10:11:29"
      }
    },
    {
      "id": "25800001",
      "lat": 47.15,
      "lon": 6.337,
      "cp": "25800",
      "ville": "Valdahon",
      "prix": {
        "Gazole": 0.00221,
        "E85": 0.000735,
        "E10": 0.0020499999999999997,
        "SP98": 0.00217
      },
      "maj_gouv": {
        "Gazole": "2026-05-07 09:13:38",
        "E85": "2026-05-04 10:38:05",
        "E10": "2026-05-07 09:13:38",
        "SP98": "2026-05-07 09:13:39"
      }
    },
    {
      "id": "25700003",
      "lat": 47.484,
      "lon": 6.834,
      "cp": "25700",
      "ville": "VALENTIGNEY",
      "prix": {},
      "maj_gouv": {}
    },
    {
      "id": "25410002",
      "lat": 47.186,
      "lon": 5.828,
      "cp": "25410",
      "ville": "SAINT-VIT",
      "prix": {
        "Gazole": 0.002129,
        "E85": 0.000739,
        "E10": 0.002059,
        "SP98": 0.002129
      },
      "maj_gouv": {
        "Gazole": "2026-05-12 09:35:16",
        "E85": "2026-04-20 09:53:30",
        "E10": "2026-05-05 09:24:30",
        "SP98": "2026-05-05 09:24:30"
      }
    },
    {
      "id": "25120004",
      "lat": 47.246,
      "lon": 6.811,
      "cp": "25120",
      "ville": "MAICHE",
      "prix": {
        "Gazole": 0.002169,
        "SP95": 0.002069,
        "E10": 0.001999
      },
      "maj_gouv": {
        "Gazole": "2026-05-11 09:04:35",
        "SP95": "2026-05-11 09:04:35",
        "E10": "2026-05-11 09:04:35"
      }
    },
    {
      "id": "25110004",
      "lat": 47.3499088497,
      "lon": 6.34694382569,
      "cp": "25110",
      "ville": "BAUME-LES-DAMES",
      "prix": {
        "Gazole": 0.002185,
        "SP95": 0.002057,
        "E85": 0.000819,
        "E10": 0.002019
      },
      "maj_gouv": {
        "Gazole": "2026-05-04 15:48:23",
        "SP95": "2026-05-04 15:48:23",
        "E85": "2026-04-21 09:51:16",
        "E10": "2026-05-08 14:22:46"
      }
    },
    {
      "id": "25440002",
      "lat": 47.08,
      "lon": 5.885,
      "cp": "25440",
      "ville": "LAVANS LES QUINGEY",
      "prix": {
        "Gazole": 0.002114,
        "E85": 0.000819,
        "E10": 0.002055,
        "SP98": 0.002125
      },
      "maj_gouv": {
        "Gazole": "2026-05-12 09:36:10",
        "E85": "2026-04-21 10:04:55",
        "E10": "2026-05-05 09:49:53",
        "SP98": "2026-05-07 09:58:28"
      }
    },
    {
      "id": "25510002",
      "lat": 47.218,
      "lon": 6.542,
      "cp": "25510",
      "ville": "Pierrefontaine-les-Varans",
      "prix": {
        "Gazole": 0.002196,
        "E10": 0.002041,
        "SP98": 0.0021509999999999997
      },
      "maj_gouv": {
        "Gazole": "2026-04-30 14:50:04",
        "E10": "2026-05-11 09:25:37",
        "SP98": "2026-05-11 09:25:16"
      }
    },
    {
      "id": "25410007",
      "lat": 47.186,
      "lon": 5.822,
      "cp": "25410",
      "ville": "Saint-Vit",
      "prix": {
        "Gazole": 0.002115,
        "SP95": 0.002109,
        "E10": 0.002049
      },
      "maj_gouv": {
        "Gazole": "2026-05-11 12:14:17",
        "SP95": "2026-05-11 12:14:17",
        "E10": "2026-05-11 12:14:18"
      }
    },
    {
      "id": "25200005",
      "lat": 47.499,
      "lon": 6.814,
      "cp": "25200",
      "ville": "MONTBELIARD",
      "prix": {
        "Gazole": 0.002149,
        "SP95": 0.002039,
        "E85": 0.000739,
        "E10": 0.0020099999999999996,
        "SP98": 0.00209
      },
      "maj_gouv": {
        "Gazole": "2026-05-13 01:15:00",
        "SP95": "2026-05-13 01:15:00",
        "E85": "2026-05-13 01:15:00",
        "E10": "2026-05-13 01:15:00",
        "SP98": "2026-05-13 01:15:00"
      }
    },
    {
      "id": "25420005",
      "lat": 47.487,
      "lon": 6.77,
      "cp": "25420",
      "ville": "Bart",
      "prix": {
        "Gazole": 0.0022890000000000002,
        "SP95": 0.002099,
        "SP98": 0.002199
      },
      "maj_gouv": {
        "Gazole": "2026-04-23 18:18:51",
        "SP95": "2026-04-23 18:18:51",
        "SP98": "2026-04-23 18:18:51"
      }
    },
    {
      "id": "25560001",
      "lat": 46.852,
      "lon": 6.152,
      "cp": "25560",
      "ville": "Frasne",
      "prix": {
        "Gazole": 0.002299,
        "E10": 0.002079,
        "SP98": 0.002175
      },
      "maj_gouv": {
        "Gazole": "2026-04-22 11:03:28",
        "E10": "2026-05-05 16:09:55",
        "SP98": "2026-05-05 16:09:55"
      }
    },
    {
      "id": "25270001",
      "lat": 46.954,
      "lon": 6.128,
      "cp": "25270",
      "ville": "LEVIER",
      "prix": {
        "Gazole": 0.0022789999999999998,
        "SP95": 0.002099,
        "SP98": 0.002199
      },
      "maj_gouv": {
        "Gazole": "2026-04-24 00:01:00",
        "SP95": "2026-04-15 00:01:00",
        "SP98": "2026-04-03 00:00:00"
      }
    },
    {
      "id": "25420001",
      "lat": 47.482,
      "lon": 6.78,
      "cp": "25420",
      "ville": "VOUJEAUCOURT",
      "prix": {
        "Gazole": 0.0022890000000000002,
        "SP95": 0.002099,
        "SP98": 0.002199
      },
      "maj_gouv": {
        "Gazole": "2026-04-24 00:01:00",
        "SP95": "2026-04-15 00:01:00",
        "SP98": "2026-04-03 00:00:00"
      }
    },
    {
      "id": "25320001",
      "lat": 47.188,
      "lon": 5.912,
      "cp": "25320",
      "ville": "MONTFERRAND-LE-CHâTEAU",
      "prix": {
        "Gazole": 0.002197,
        "E10": 0.002054,
        "SP98": 0.0021739999999999997
      },
      "maj_gouv": {
        "Gazole": "2026-05-07 11:22:00",
        "E10": "2026-05-07 11:22:00",
        "SP98": "2026-05-07 11:22:01"
      }
    },
    {
      "id": "25600004",
      "lat": 47.528267585632996,
      "lon": 6.8410493843045,
      "cp": "25600",
      "ville": "VIEUX CHARMONT",
      "prix": {
        "Gazole": 0.0022589999999999997,
        "SP95": 0.002154,
        "SP98": 0.002199
      },
      "maj_gouv": {
        "Gazole": "2026-05-08 00:10:33",
        "SP95": "2026-05-08 00:10:34",
        "SP98": "2026-05-08 00:10:34"
      }
    },
    {
      "id": "25870002",
      "lat": 47.32724,
      "lon": 6.01064,
      "cp": "25870",
      "ville": "DEVECEY",
      "prix": {
        "Gazole": 0.0021190000000000002,
        "SP95": 0.002099,
        "E85": 0.000739,
        "SP98": 0.002129
      },
      "maj_gouv": {
        "Gazole": "2026-05-12 09:31:00",
        "SP95": "2026-05-04 17:33:56",
        "E85": "2026-03-05 08:27:25",
        "SP98": "2026-05-04 17:33:56"
      }
    },
    {
      "id": "25110002",
      "lat": 47.345,
      "lon": 6.361,
      "cp": "25110",
      "ville": "BAUME-LES-DAMES",
      "prix": {
        "Gazole": 0.002185,
        "SP95": 0.002055,
        "E85": 0.000749,
        "GPLc": 0.000999,
        "E10": 0.002019,
        "SP98": 0.002099
      },
      "maj_gouv": {
        "Gazole": "2026-05-06 07:16:35",
        "SP95": "2026-05-06 07:16:35",
        "E85": "2026-05-06 07:16:35",
        "GPLc": "2026-05-06 07:16:35",
        "E10": "2026-05-06 07:16:35",
        "SP98": "2026-05-06 07:16:35"
      }
    },
    {
      "id": "25640009",
      "lat": 47.3255547,
      "lon": 6.133140600000001,
      "cp": "25640",
      "ville": "MARCHAUX",
      "prix": {
        "Gazole": 0.002236,
        "E10": 0.002176,
        "SP98": 0.002267
      },
      "maj_gouv": {
        "Gazole": "2026-05-12 09:30:00",
        "E10": "2026-05-12 09:30:00",
        "SP98": "2026-05-12 09:30:00"
      }
    },
    {
      "id": "25330001",
      "lat": 47.038,
      "lon": 6.07,
      "cp": "25330",
      "ville": "AMANCEY",
      "prix": {
        "Gazole": 0.0022789999999999998,
        "SP95": 0.002099,
        "SP98": 0.002199
      },
      "maj_gouv": {
        "Gazole": "2026-04-24 00:01:00",
        "SP95": "2026-04-15 00:01:00",
        "SP98": "2026-04-03 00:00:00"
      }
    },
    {
      "id": "25300012",
      "lat": 46.842,
      "lon": 6.395,
      "cp": "25300",
      "ville": "Les Fourgs",
      "prix": {
        "Gazole": 0.002209,
        "E10": 0.002069
      },
      "maj_gouv": {
        "Gazole": "2026-05-12 08:59:19",
        "E10": "2026-04-27 08:45:39"
      }
    },
    {
      "id": "25410004",
      "lat": 47.184,
      "lon": 5.815,
      "cp": "25410",
      "ville": "Saint-Vit",
      "prix": {
        "Gazole": 0.002115,
        "SP95": 0.002109,
        "GPLc": 0.001099
      },
      "maj_gouv": {
        "Gazole": "2026-05-12 09:14:57",
        "SP95": "2026-05-07 07:55:06",
        "GPLc": "2026-04-15 07:40:31"
      }
    },
    {
      "id": "25000016",
      "lat": 47.23686,
      "lon": 5.98434,
      "cp": "25000",
      "ville": "BESANçON",
      "prix": {
        "Gazole": 0.002179
      },
      "maj_gouv": {
        "Gazole": "2026-05-07 16:09:05"
      }
    },
    {
      "id": "25650003",
      "lat": 47.048,
      "lon": 6.486,
      "cp": "25650",
      "ville": "Gilley",
      "prix": {
        "Gazole": 0.002299,
        "SP95": 0.002099
      },
      "maj_gouv": {
        "Gazole": "2026-04-24 08:41:09",
        "SP95": "2026-04-17 10:15:16"
      }
    },
    {
      "id": "25110005",
      "lat": 47.3777875,
      "lon": 6.3776164115731,
      "cp": "25110",
      "ville": "Autechaux",
      "prix": {
        "Gazole": 0.0022890000000000002,
        "E85": 0.000959,
        "E10": 0.002099,
        "SP98": 0.002199
      },
      "maj_gouv": {
        "Gazole": "2026-04-24 00:01:00",
        "E85": "2026-04-24 00:01:00",
        "E10": "2026-04-15 00:01:00",
        "SP98": "2026-04-03 00:00:00"
      }
    },
    {
      "id": "25000020",
      "lat": 47.257,
      "lon": 6.012,
      "cp": "25000",
      "ville": "BESANçON",
      "prix": {
        "Gazole": 0.002269,
        "E85": 0.0008990000000000001,
        "E10": 0.002099,
        "SP98": 0.002199
      },
      "maj_gouv": {
        "Gazole": "2026-04-28 09:47:50",
        "E85": "2026-04-24 07:03:00",
        "E10": "2026-04-15 11:42:59",
        "SP98": "2026-04-03 07:03:00"
      }
    },
    {
      "id": "25230002",
      "lat": 47.459,
      "lon": 6.867,
      "cp": "25230",
      "ville": "Seloncourt",
      "prix": {
        "Gazole": 0.002155,
        "E10": 0.002008,
        "SP98": 0.002121
      },
      "maj_gouv": {
        "Gazole": "2026-05-06 09:33:57",
        "E10": "2026-05-05 09:25:38",
        "SP98": "2026-05-05 09:25:38"
      }
    },
    {
      "id": "25720002",
      "lat": 47.207,
      "lon": 5.999,
      "cp": "25720",
      "ville": "Beure",
      "prix": {
        "Gazole": 0.002199,
        "E10": 0.002099,
        "SP98": 0.002199
      },
      "maj_gouv": {
        "Gazole": "2026-05-09 09:35:14",
        "E10": "2026-05-09 09:35:14",
        "SP98": "2026-05-09 09:35:14"
      }
    },
    {
      "id": "25400004",
      "lat": 47.475,
      "lon": 6.847,
      "cp": "25400",
      "ville": "AUDINCOURT",
      "prix": {
        "Gazole": 0.00218,
        "SP95": 0.002089,
        "E10": 0.002062,
        "SP98": 0.002129
      },
      "maj_gouv": {
        "Gazole": "2026-05-12 10:48:11",
        "SP95": "2026-05-12 10:48:11",
        "E10": "2026-05-12 10:48:11",
        "SP98": "2026-05-12 10:48:11"
      }
    },
    {
      "id": "25300009",
      "lat": 46.893,
      "lon": 6.365,
      "cp": "25300",
      "ville": "Pontarlier",
      "prix": {
        "Gazole": 0.0022890000000000002,
        "E85": 0.000959,
        "E10": 0.002099,
        "SP98": 0.002199
      },
      "maj_gouv": {
        "Gazole": "2026-04-24 05:41:38",
        "E85": "2026-04-10 12:53:53",
        "E10": "2026-04-15 16:48:27",
        "SP98": "2026-04-10 12:53:53"
      }
    },
    {
      "id": "25500001",
      "lat": 47.056,
      "lon": 6.609,
      "cp": "25500",
      "ville": "MORTEAU",
      "prix": {
        "Gazole": 0.002249,
        "SP95": 0.002169,
        "E85": 0.000799,
        "E10": 0.002149,
        "SP98": 0.002199
      },
      "maj_gouv": {
        "Gazole": "2026-05-10 17:55:27",
        "SP95": "2026-05-09 19:00:00",
        "E85": "2026-05-09 19:00:00",
        "E10": "2026-05-09 19:00:00",
        "SP98": "2026-05-09 19:00:00"
      }
    },
    {
      "id": "25550003",
      "lat": 47.480025,
      "lon": 6.739071999999999,
      "cp": "25550",
      "ville": "BAVANS",
      "prix": {
        "Gazole": 0.00217,
        "E10": 0.002019,
        "SP98": 0.002142
      },
      "maj_gouv": {
        "Gazole": "2026-05-06 16:11:11",
        "E10": "2026-05-06 16:11:12",
        "SP98": "2026-05-06 16:11:12"
      }
    },
    {
      "id": "25420002",
      "lat": 47.482,
      "lon": 6.78,
      "cp": "25420",
      "ville": "VOUJEAUCOURT",
      "prix": {
        "Gazole": 0.002181,
        "SP98": 0.00199
      },
      "maj_gouv": {
        "Gazole": "2026-05-07 13:49:28",
        "SP98": "2026-05-07 13:49:28"
      }
    },
    {
      "id": "25750003",
      "lat": 47.518627,
      "lon": 6.652959,
      "cp": "25750",
      "ville": "ARCEY",
      "prix": {
        "Gazole": 0.00216,
        "E85": 0.0008179999999999999,
        "E10": 0.002005
      },
      "maj_gouv": {
        "Gazole": "2026-05-07 09:21:45",
        "E85": "2026-04-18 08:30:00",
        "E10": "2026-05-07 09:21:45"
      }
    },
    {
      "id": "25000021",
      "lat": 47.205,
      "lon": 5.887,
      "cp": "25320",
      "ville": "CHEMAUDIN",
      "prix": {
        "Gazole": 0.002189
      },
      "maj_gouv": {
        "Gazole": "2026-05-12 08:37:07"
      }
    },
    {
      "id": "25450001",
      "lat": 47.247493,
      "lon": 6.87872,
      "cp": "25450",
      "ville": "DAMPRICHARD",
      "prix": {
        "Gazole": 0.00232,
        "SP95": 0.00225
      },
      "maj_gouv": {
        "Gazole": "2026-04-28 10:30:27",
        "SP95": "2026-04-28 10:30:27"
      }
    },
    {
      "id": "25300006",
      "lat": 46.914,
      "lon": 6.319,
      "cp": "25300",
      "ville": "HOUTAUD",
      "prix": {
        "Gazole": 0.0021869999999999997,
        "SP95": 0.00206,
        "E10": 0.001999,
        "SP98": 0.002097
      },
      "maj_gouv": {
        "Gazole": "2026-05-09 20:38:48",
        "SP95": "2026-05-11 06:55:07",
        "E10": "2026-05-11 06:55:07",
        "SP98": "2026-05-09 09:02:04"
      }
    },
    {
      "id": "25150002",
      "lat": 47.391,
      "lon": 6.77,
      "cp": "25150",
      "ville": "Pont-de-Roide",
      "prix": {
        "Gazole": 0.0021190000000000002,
        "SP95": 0.002023,
        "E10": 0.0019890000000000003,
        "SP98": 0.00209
      },
      "maj_gouv": {
        "Gazole": "2026-05-11 10:18:19",
        "SP95": "2026-05-11 10:18:19",
        "E10": "2026-05-11 10:18:19",
        "SP98": "2026-05-11 10:18:19"
      }
    },
    {
      "id": "25290005",
      "lat": 47.105,
      "lon": 6.131,
      "cp": "25290",
      "ville": "ORNANS",
      "prix": {
        "Gazole": 0.0022890000000000002,
        "SP95": 0.002139,
        "SP98": 0.002199
      },
      "maj_gouv": {
        "Gazole": "2026-04-27 08:12:43",
        "SP95": "2026-05-05 08:02:56",
        "SP98": "2026-04-03 08:16:06"
      }
    },
    {
      "id": "25210004",
      "lat": 47.1548494,
      "lon": 6.719996,
      "cp": "25210",
      "ville": "LE RUSSEY",
      "prix": {
        "Gazole": 0.002249,
        "SP95": 0.002169,
        "E85": 0.000799,
        "E10": 0.002149,
        "SP98": 0.002199
      },
      "maj_gouv": {
        "Gazole": "2026-05-09 19:00:00",
        "SP95": "2026-05-09 19:00:00",
        "E85": "2026-05-09 19:00:00",
        "E10": "2026-05-09 19:00:00",
        "SP98": "2026-05-09 19:00:00"
      }
    },
    {
      "id": "25022001",
      "lat": 47.264,
      "lon": 6.067,
      "cp": "25220",
      "ville": "Chalezeule",
      "prix": {
        "Gazole": 0.00214,
        "E10": 0.002009,
        "SP98": 0.0021720000000000003
      },
      "maj_gouv": {
        "Gazole": "2026-05-12 08:53:16",
        "E10": "2026-05-12 08:53:17",
        "SP98": "2026-05-12 08:53:17"
      }
    },
    {
      "id": "25300002",
      "lat": 46.909,
      "lon": 6.335,
      "cp": "25300",
      "ville": "Pontarlier",
      "prix": {
        "Gazole": 0.002169
      },
      "maj_gouv": {
        "Gazole": "2026-05-12 06:23:12"
      }
    },
    {
      "id": "25200007",
      "lat": 47.508,
      "lon": 6.808,
      "cp": "25200",
      "ville": "MONTBELIARD",
      "prix": {},
      "maj_gouv": {}
    },
    {
      "id": "25340001",
      "lat": 47.394,
      "lon": 6.498,
      "cp": "25340",
      "ville": "PAYS DE CLERVAL",
      "prix": {
        "Gazole": 0.0022890000000000002,
        "SP95": 0.002129,
        "SP98": 0.002199
      },
      "maj_gouv": {
        "Gazole": "2026-04-23 23:59:00",
        "SP95": "2026-05-04 23:59:00",
        "SP98": "2026-04-02 23:59:00"
      }
    },
    {
      "id": "25720013",
      "lat": 47.20723099999999,
      "lon": 5.999076,
      "cp": "25720",
      "ville": "BEURE",
      "prix": {
        "Gazole": 0.002199,
        "GPLc": 0.001099,
        "E10": 0.002099,
        "SP98": 0.002199
      },
      "maj_gouv": {
        "Gazole": "2026-05-12 08:00:00",
        "GPLc": "2026-05-12 08:00:00",
        "E10": "2026-05-12 08:00:00",
        "SP98": "2026-05-12 08:00:00"
      }
    },
    {
      "id": "25000008",
      "lat": 47.259,
      "lon": 6.029,
      "cp": "25000",
      "ville": "Besançon",
      "prix": {
        "Gazole": 0.00214,
        "E10": 0.002009,
        "SP98": 0.002096
      },
      "maj_gouv": {
        "Gazole": "2026-05-12 11:50:00",
        "E10": "2026-05-12 11:50:00",
        "SP98": "2026-05-12 11:50:00"
      }
    },
    {
      "id": "25750002",
      "lat": 47.549073899999996,
      "lon": 6.6960372,
      "cp": "25750",
      "ville": "Aibre",
      "prix": {},
      "maj_gouv": {}
    },
    {
      "id": "25160001",
      "lat": 46.782737000000004,
      "lon": 6.283436999999999,
      "cp": "25160",
      "ville": "Labergement-Sainte-Marie",
      "prix": {
        "Gazole": 0.00228,
        "SP95": 0.00212
      },
      "maj_gouv": {
        "Gazole": "2026-04-22 18:04:48",
        "SP95": "2026-04-22 18:04:48"
      }
    },
    {
      "id": "25700004",
      "lat": 47.438205,
      "lon": 6.780888,
      "cp": "25700",
      "ville": "MATHAY",
      "prix": {
        "Gazole": 0.00219,
        "E85": 0.0008179999999999999,
        "E10": 0.00204
      },
      "maj_gouv": {
        "Gazole": "2026-05-05 11:02:28",
        "E85": "2026-05-05 11:02:28",
        "E10": "2026-05-05 11:02:28"
      }
    }
  ]
}