{
  "departement": "22",
  "date": "2026-05-13",
  "stations": [
    {
      "id": "22250001",
      "lat": 48.315,
      "lon": -2.25,
      "cp": "22250",
      "ville": "BROONS",
      "prix": {
        "Gazole": 0.002089,
        "SP95": 0.002069,
        "SP98": 0.002099
      },
      "maj_gouv": {
        "Gazole": "2026-05-12 12:08:57",
        "SP95": "2026-05-12 12:08:57",
        "SP98": "2026-05-12 12:08:57"
      }
    },
    {
      "id": "22120005",
      "lat": 48.422,
      "lon": -2.656,
      "cp": "22120",
      "ville": "Quessoy",
      "prix": {
        "Gazole": 0.002189,
        "E10": 0.002009,
        "SP98": 0.0021190000000000002
      },
      "maj_gouv": {
        "Gazole": "2026-05-12 06:00:58",
        "E10": "2026-05-12 06:00:58",
        "SP98": "2026-05-12 06:00:58"
      }
    },
    {
      "id": "22500003",
      "lat": 48.771071642219,
      "lon": -3.0400148040401,
      "cp": "22500",
      "ville": "Paimpol",
      "prix": {
        "Gazole": 0.002091,
        "E10": 0.00199,
        "SP98": 0.00199
      },
      "maj_gouv": {
        "Gazole": "2026-05-12 08:52:58",
        "E10": "2026-05-12 08:52:58",
        "SP98": "2026-05-12 08:52:58"
      }
    },
    {
      "id": "22130001",
      "lat": 48.525,
      "lon": -2.241,
      "cp": "22130",
      "ville": "PLANCOET",
      "prix": {
        "Gazole": 0.002106,
        "E85": 0.000828,
        "E10": 0.002002,
        "SP98": 0.002079
      },
      "maj_gouv": {
        "Gazole": "2026-05-11 08:47:52",
        "E85": "2026-05-05 10:59:17",
        "E10": "2026-05-11 08:47:53",
        "SP98": "2026-05-11 08:47:53"
      }
    },
    {
      "id": "22500001",
      "lat": 48.773,
      "lon": -3.039,
      "cp": "22500",
      "ville": "PAIMPOL",
      "prix": {
        "Gazole": 0.002068,
        "E10": 0.001958,
        "SP98": 0.002068
      },
      "maj_gouv": {
        "Gazole": "2026-05-12 09:05:36",
        "E10": "2026-05-11 09:51:14",
        "SP98": "2026-05-11 09:51:14"
      }
    },
    {
      "id": "22440002",
      "lat": 48.52276,
      "lon": -2.85671,
      "cp": "22440",
      "ville": "TRéMUSON",
      "prix": {
        "Gazole": 0.002099,
        "E10": 0.00199
      },
      "maj_gouv": {
        "Gazole": "2026-05-12 12:30:47",
        "E10": "2026-05-12 12:30:47"
      }
    },
    {
      "id": "22600004",
      "lat": 48.191,
      "lon": -2.756,
      "cp": "22600",
      "ville": "LOUDEAC",
      "prix": {
        "Gazole": 0.0020499999999999997,
        "SP95": 0.002,
        "E10": 0.002
      },
      "maj_gouv": {
        "Gazole": "2026-05-11 09:29:16",
        "SP95": "2026-05-12 09:35:58",
        "E10": "2026-05-11 09:29:16"
      }
    },
    {
      "id": "22260001",
      "lat": 48.69621,
      "lon": -3.16593,
      "cp": "22260",
      "ville": "Pontrieux",
      "prix": {
        "Gazole": 0.0021920000000000004,
        "SP95": 0.0020870000000000003,
        "E10": 0.002059
      },
      "maj_gouv": {
        "Gazole": "2026-05-07 19:00:00",
        "SP95": "2026-05-07 19:00:00",
        "E10": "2026-05-07 19:00:00"
      }
    },
    {
      "id": "22210001",
      "lat": 48.17281,
      "lon": -2.5987,
      "cp": "22210",
      "ville": "Plémet",
      "prix": {
        "Gazole": 0.0020499999999999997,
        "E10": 0.0019399999999999999,
        "SP98": 0.00211
      },
      "maj_gouv": {
        "Gazole": "2026-05-12 18:41:09",
        "E10": "2026-05-12 18:41:10",
        "SP98": "2026-05-12 18:41:10"
      }
    },
    {
      "id": "22960001",
      "lat": 48.445538320000004,
      "lon": -2.7512954499999998,
      "cp": "22960",
      "ville": "PLEDRAN",
      "prix": {
        "Gazole": 0.002149,
        "E10": 0.002049,
        "SP98": 0.002139
      },
      "maj_gouv": {
        "Gazole": "2026-05-12 15:43:05",
        "E10": "2026-05-12 15:43:06",
        "SP98": "2026-05-12 15:43:06"
      }
    },
    {
      "id": "22240001",
      "lat": 48.627,
      "lon": -2.405,
      "cp": "22240",
      "ville": "Plurien",
      "prix": {
        "Gazole": 0.002143,
        "E10": 0.00199,
        "SP98": 0.00199
      },
      "maj_gouv": {
        "Gazole": "2026-05-12 14:58:47",
        "E10": "2026-05-12 14:58:47",
        "SP98": "2026-05-12 14:58:47"
      }
    },
    {
      "id": "22400005",
      "lat": 48.462,
      "lon": -2.504,
      "cp": "22400",
      "ville": "LAMBALLE",
      "prix": {
        "Gazole": 0.002095,
        "E85": 0.000819,
        "E10": 0.001981,
        "SP98": 0.002089
      },
      "maj_gouv": {
        "Gazole": "2026-05-12 09:51:36",
        "E85": "2026-04-16 13:02:34",
        "E10": "2026-05-12 09:51:36",
        "SP98": "2026-05-11 10:22:30"
      }
    },
    {
      "id": "22300003",
      "lat": 48.75,
      "lon": -3.458,
      "cp": "22300",
      "ville": "Lannion",
      "prix": {
        "Gazole": 0.002079,
        "SP95": 0.002029,
        "E85": 0.000815,
        "GPLc": 0.0011790000000000001,
        "E10": 0.0019890000000000003,
        "SP98": 0.002059
      },
      "maj_gouv": {
        "Gazole": "2026-05-11 09:16:27",
        "SP95": "2026-05-12 08:57:27",
        "E85": "2026-05-12 08:57:27",
        "GPLc": "2026-04-30 09:19:48",
        "E10": "2026-05-12 08:57:27",
        "SP98": "2026-05-11 09:16:28"
      }
    },
    {
      "id": "22500004",
      "lat": 48.778,
      "lon": -3.057,
      "cp": "22500",
      "ville": "Paimpol",
      "prix": {
        "Gazole": 0.002068,
        "SP95": 0.002048,
        "E10": 0.001998,
        "SP98": 0.002068
      },
      "maj_gouv": {
        "Gazole": "2026-05-12 10:42:15",
        "SP95": "2026-05-11 02:00:00",
        "E10": "2026-05-11 02:00:00",
        "SP98": "2026-05-11 21:07:33"
      }
    },
    {
      "id": "22140002",
      "lat": 48.623,
      "lon": -3.296,
      "cp": "22140",
      "ville": "Bégard",
      "prix": {
        "Gazole": 0.002055,
        "E10": 0.0019590000000000002,
        "SP98": 0.002099
      },
      "maj_gouv": {
        "Gazole": "2026-05-12 09:11:38",
        "E10": "2026-05-12 09:11:38",
        "SP98": "2026-05-11 09:09:44"
      }
    },
    {
      "id": "22200006",
      "lat": 48.557,
      "lon": -3.129,
      "cp": "22970",
      "ville": "PLOUMAGOAR",
      "prix": {
        "Gazole": 0.002095,
        "E85": 0.000847,
        "E10": 0.00199,
        "SP98": 0.00199
      },
      "maj_gouv": {
        "Gazole": "2026-05-13 00:01:00",
        "E85": "2026-05-13 00:01:00",
        "E10": "2026-05-13 00:01:00",
        "SP98": "2026-05-13 00:01:00"
      }
    },
    {
      "id": "22650001",
      "lat": 48.577,
      "lon": -2.152,
      "cp": "22650",
      "ville": "PLOUBALAY",
      "prix": {
        "Gazole": 0.002155,
        "E10": 0.00199
      },
      "maj_gouv": {
        "Gazole": "2026-05-12 08:46:22",
        "E10": "2026-05-07 11:19:33"
      }
    },
    {
      "id": "22240003",
      "lat": 48.628,
      "lon": -2.362,
      "cp": "22240",
      "ville": "FREHEL",
      "prix": {
        "Gazole": 0.002195,
        "SP95": 0.002011
      },
      "maj_gouv": {
        "Gazole": "2026-04-27 10:00:01",
        "SP95": "2026-04-27 10:00:01"
      }
    },
    {
      "id": "22350006",
      "lat": 48.27402585,
      "lon": -2.1864875602089,
      "cp": "22350",
      "ville": "SAINT JOUAN DE L'ISLE",
      "prix": {
        "Gazole": 0.002179,
        "E10": 0.002029,
        "SP98": 0.002159
      },
      "maj_gouv": {
        "Gazole": "2026-04-30 23:59:00",
        "E10": "2026-04-30 23:59:00",
        "SP98": "2026-04-30 23:59:00"
      }
    },
    {
      "id": "22390001",
      "lat": 48.478,
      "lon": -3.186,
      "cp": "22390",
      "ville": "Bourbriac",
      "prix": {
        "Gazole": 0.002235,
        "SP95": 0.002109,
        "SP98": 0.002199
      },
      "maj_gouv": {
        "Gazole": "2026-05-05 12:50:39",
        "SP95": "2026-05-05 12:50:39",
        "SP98": "2026-05-05 12:50:39"
      }
    },
    {
      "id": "22810002",
      "lat": 48.54944,
      "lon": -3.45286,
      "cp": "22810",
      "ville": "PLOUNEVEZ MOEDEC",
      "prix": {
        "Gazole": 0.002176,
        "E85": 0.000856,
        "E10": 0.00199,
        "SP98": 0.00199
      },
      "maj_gouv": {
        "Gazole": "2026-05-13 00:01:00",
        "E85": "2026-05-13 00:01:00",
        "E10": "2026-05-13 00:01:00",
        "SP98": "2026-05-13 00:01:00"
      }
    },
    {
      "id": "22230003",
      "lat": 48.19538,
      "lon": -2.41743,
      "cp": "22230",
      "ville": "MERDRIGNAC",
      "prix": {
        "Gazole": 0.002118,
        "SP95": 0.002063,
        "E10": 0.002024,
        "SP98": 0.002099
      },
      "maj_gouv": {
        "Gazole": "2026-05-12 13:24:59",
        "SP95": "2026-05-05 13:01:18",
        "E10": "2026-05-12 13:24:59",
        "SP98": "2026-05-05 13:01:19"
      }
    },
    {
      "id": "22270001",
      "lat": 48.409,
      "lon": -2.324,
      "cp": "22270",
      "ville": "Jugon-les-Lacs",
      "prix": {
        "Gazole": 0.002214,
        "SP95": 0.002083,
        "SP98": 0.002141
      },
      "maj_gouv": {
        "Gazole": "2026-04-27 13:31:09",
        "SP95": "2026-05-01 16:56:40",
        "SP98": "2026-04-28 09:38:30"
      }
    },
    {
      "id": "22300002",
      "lat": 48.72639682,
      "lon": -3.4460882,
      "cp": "22300",
      "ville": "LANNION",
      "prix": {
        "Gazole": 0.002079,
        "E10": 0.0019890000000000003,
        "SP98": 0.002059
      },
      "maj_gouv": {
        "Gazole": "2026-05-11 09:21:15",
        "E10": "2026-05-12 08:58:44",
        "SP98": "2026-05-12 08:58:44"
      }
    },
    {
      "id": "22200005",
      "lat": 48.558,
      "lon": -3.141,
      "cp": "22200",
      "ville": "GUINGAMP",
      "prix": {
        "E10": 0.00199,
        "SP98": 0.00199
      },
      "maj_gouv": {
        "E10": "2026-04-23 12:53:17",
        "SP98": "2026-04-23 12:53:17"
      }
    },
    {
      "id": "22580001",
      "lat": 48.691,
      "lon": -2.933,
      "cp": "22580",
      "ville": "PLOUHA",
      "prix": {
        "Gazole": 0.002199,
        "SP95": 0.002095,
        "SP98": 0.002179
      },
      "maj_gouv": {
        "Gazole": "2026-04-18 09:44:03",
        "SP95": "2026-05-02 11:49:13",
        "SP98": "2026-05-02 11:49:13"
      }
    },
    {
      "id": "22560001",
      "lat": 48.77,
      "lon": -3.571,
      "cp": "22560",
      "ville": "TRéBEURDEN",
      "prix": {
        "Gazole": 0.002057,
        "E85": 0.0008179999999999999,
        "E10": 0.0019470000000000002,
        "SP98": 0.002049
      },
      "maj_gouv": {
        "Gazole": "2026-05-11 09:14:34",
        "E85": "2026-05-05 08:15:49",
        "E10": "2026-05-11 09:14:35",
        "SP98": "2026-05-11 09:14:35"
      }
    },
    {
      "id": "22190001",
      "lat": 48.534,
      "lon": -2.76,
      "cp": "22190",
      "ville": "PLERIN",
      "prix": {
        "Gazole": 0.002091,
        "E85": 0.0008139999999999999,
        "E10": 0.00199,
        "SP98": 0.002089
      },
      "maj_gouv": {
        "Gazole": "2026-05-13 01:17:00",
        "E85": "2026-05-13 01:17:00",
        "E10": "2026-05-13 01:17:00",
        "SP98": "2026-05-13 01:17:00"
      }
    },
    {
      "id": "22220001",
      "lat": 48.778,
      "lon": -3.232,
      "cp": "22220",
      "ville": "TREGUIER",
      "prix": {
        "Gazole": 0.002095,
        "SP95": 0.002048,
        "E85": 0.0007379999999999999,
        "SP98": 0.0020870000000000003
      },
      "maj_gouv": {
        "Gazole": "2026-05-11 08:32:48",
        "SP95": "2026-05-11 08:32:48",
        "E85": "2026-04-17 18:32:48",
        "SP98": "2026-05-04 11:06:14"
      }
    },
    {
      "id": "22610001",
      "lat": 48.844,
      "lon": -3.137,
      "cp": "22610",
      "ville": "PLEUBIAN",
      "prix": {
        "Gazole": 0.0021869999999999997,
        "SP95": 0.002068,
        "SP98": 0.0020870000000000003
      },
      "maj_gouv": {
        "Gazole": "2026-05-06 11:36:42",
        "SP95": "2026-05-06 11:36:42",
        "SP98": "2026-05-06 11:36:42"
      }
    },
    {
      "id": "22120001",
      "lat": 48.481,
      "lon": -2.67378,
      "cp": "22120",
      "ville": "Yffiniac",
      "prix": {
        "Gazole": 0.002088,
        "E85": 0.000828,
        "GPLc": 0.001119,
        "E10": 0.002039,
        "SP98": 0.002117
      },
      "maj_gouv": {
        "Gazole": "2026-05-12 08:30:00",
        "E85": "2026-05-04 08:30:00",
        "GPLc": "2026-05-04 08:30:00",
        "E10": "2026-05-12 08:30:00",
        "SP98": "2026-05-09 19:23:44"
      }
    },
    {
      "id": "22530001",
      "lat": 48.198,
      "lon": -2.987,
      "cp": "22530",
      "ville": "Mûr-de-Bretagne",
      "prix": {
        "Gazole": 0.002185,
        "E10": 0.0020299999999999997,
        "SP98": 0.0021680000000000002
      },
      "maj_gouv": {
        "Gazole": "2026-05-09 12:04:36",
        "E10": "2026-05-09 12:04:37",
        "SP98": "2026-05-09 12:04:37"
      }
    },
    {
      "id": "22800003",
      "lat": 48.40807360198001,
      "lon": -2.9186782083897,
      "cp": "22800",
      "ville": "Quintin",
      "prix": {},
      "maj_gouv": {}
    },
    {
      "id": "22200004",
      "lat": 48.562,
      "lon": -3.153,
      "cp": "22200",
      "ville": "SAINT-AGATHON",
      "prix": {
        "Gazole": 0.0020510000000000003,
        "E10": 0.001941,
        "SP98": 0.002043
      },
      "maj_gouv": {
        "Gazole": "2026-05-11 08:26:00",
        "E10": "2026-05-11 08:25:00",
        "SP98": "2026-05-11 08:36:00"
      }
    },
    {
      "id": "22120003",
      "lat": 48.482,
      "lon": -2.646,
      "cp": "22120",
      "ville": "YFFINIAC",
      "prix": {
        "Gazole": 0.002159,
        "SP95": 0.00209,
        "SP98": 0.00216
      },
      "maj_gouv": {
        "Gazole": "2026-05-11 11:58:13",
        "SP95": "2026-03-03 17:28:55",
        "SP98": "2026-03-03 17:28:55"
      }
    },
    {
      "id": "22203001",
      "lat": 48.553,
      "lon": -3.149,
      "cp": "22200",
      "ville": "GUINGAMP",
      "prix": {
        "Gazole": 0.002039,
        "SP95": 0.002019,
        "E10": 0.001972,
        "SP98": 0.002047
      },
      "maj_gouv": {
        "Gazole": "2026-05-11 08:50:15",
        "SP95": "2026-05-11 08:50:15",
        "E10": "2026-05-12 08:58:02",
        "SP98": "2026-05-12 08:58:03"
      }
    },
    {
      "id": "22104001",
      "lat": 48.445,
      "lon": -2.069,
      "cp": "22100",
      "ville": "DINAN",
      "prix": {
        "Gazole": 0.0021360000000000003,
        "SP95": 0.002084,
        "SP98": 0.002117
      },
      "maj_gouv": {
        "Gazole": "2026-05-13 01:17:00",
        "SP95": "2026-05-13 01:17:00",
        "SP98": "2026-05-13 01:17:00"
      }
    },
    {
      "id": "22600008",
      "lat": 48.178,
      "lon": -2.76,
      "cp": "22600",
      "ville": "LOUDEAC",
      "prix": {
        "Gazole": 0.002199,
        "E10": 0.002009,
        "SP98": 0.002139
      },
      "maj_gouv": {
        "Gazole": "2026-05-04 15:10:51",
        "E10": "2026-05-07 07:26:00",
        "SP98": "2026-05-07 07:26:01"
      }
    },
    {
      "id": "22640003",
      "lat": 48.367861879108,
      "lon": -2.3949106208503,
      "cp": "22640",
      "ville": "Plénée-Jugon",
      "prix": {
        "Gazole": 0.002159,
        "E10": 0.0019950000000000002,
        "SP98": 0.002089
      },
      "maj_gouv": {
        "Gazole": "2026-05-12 04:21:40",
        "E10": "2026-05-12 04:21:41",
        "SP98": "2026-05-12 04:21:41"
      }
    },
    {
      "id": "22100010",
      "lat": 48.454,
      "lon": -2.026,
      "cp": "22100",
      "ville": "Lanvallay",
      "prix": {
        "Gazole": 0.002186,
        "SP95": 0.002099,
        "SP98": 0.002125
      },
      "maj_gouv": {
        "Gazole": "2026-05-11 14:02:15",
        "SP95": "2026-05-11 14:09:13",
        "SP98": "2026-05-11 14:09:13"
      }
    },
    {
      "id": "22400011",
      "lat": 48.559,
      "lon": -2.544,
      "cp": "22400",
      "ville": "St Alban",
      "prix": {
        "Gazole": 0.002154,
        "E10": 0.00199,
        "SP98": 0.00199
      },
      "maj_gouv": {
        "Gazole": "2026-05-12 08:19:26",
        "E10": "2026-05-12 08:19:26",
        "SP98": "2026-05-12 08:19:26"
      }
    },
    {
      "id": "22100001",
      "lat": 48.464,
      "lon": -2.087,
      "cp": "22100",
      "ville": "QUEVERT",
      "prix": {
        "Gazole": 0.0021360000000000003,
        "SP95": 0.002084,
        "E10": 0.002064,
        "SP98": 0.002117
      },
      "maj_gouv": {
        "Gazole": "2026-05-12 11:31:14",
        "SP95": "2026-05-12 11:31:14",
        "E10": "2026-05-12 11:31:14",
        "SP98": "2026-05-12 11:31:14"
      }
    },
    {
      "id": "22170005",
      "lat": 48.537405899999996,
      "lon": -2.9949214,
      "cp": "22170",
      "ville": "Plouagat",
      "prix": {
        "Gazole": 0.002199,
        "SP95": 0.002039,
        "SP98": 0.002099
      },
      "maj_gouv": {
        "Gazole": "2026-04-29 11:18:31",
        "SP95": "2026-04-29 11:18:31",
        "SP98": "2026-04-02 10:37:38"
      }
    },
    {
      "id": "22100009",
      "lat": 48.453,
      "lon": -2.057,
      "cp": "22100",
      "ville": "DINAN",
      "prix": {
        "Gazole": 0.0021720000000000003,
        "E85": 0.0008179999999999999,
        "E10": 0.00199,
        "SP98": 0.00199
      },
      "maj_gouv": {
        "Gazole": "2026-05-13 00:01:00",
        "E85": "2026-05-13 00:01:00",
        "E10": "2026-05-13 00:01:00",
        "SP98": "2026-05-13 00:01:00"
      }
    },
    {
      "id": "22440001",
      "lat": 48.5,
      "lon": -2.777,
      "cp": "22440",
      "ville": "Ploufragan",
      "prix": {
        "Gazole": 0.002069,
        "E85": 0.000799,
        "E10": 0.002013,
        "SP98": 0.002099
      },
      "maj_gouv": {
        "Gazole": "2026-05-13 00:01:00",
        "E85": "2026-05-07 00:01:00",
        "E10": "2026-05-13 00:01:00",
        "SP98": "2026-05-13 00:01:00"
      }
    },
    {
      "id": "22290001",
      "lat": 48.633,
      "lon": -2.979,
      "cp": "22290",
      "ville": "LANVOLLON",
      "prix": {
        "Gazole": 0.0020459999999999996,
        "SP95": 0.002041,
        "E10": 0.001997,
        "SP98": 0.0020870000000000003
      },
      "maj_gouv": {
        "Gazole": "2026-05-09 09:33:55",
        "SP95": "2026-05-09 09:33:55",
        "E10": "2026-05-09 09:33:55",
        "SP98": "2026-05-09 09:33:55"
      }
    },
    {
      "id": "22170004",
      "lat": 48.525,
      "lon": -2.889,
      "cp": "22170",
      "ville": "PLERNEUF",
      "prix": {
        "Gazole": 0.002095,
        "GPLc": 0.001029,
        "E10": 0.00199,
        "SP98": 0.00199
      },
      "maj_gouv": {
        "Gazole": "2026-05-13 00:01:00",
        "GPLc": "2026-05-13 00:01:00",
        "E10": "2026-05-13 00:01:00",
        "SP98": "2026-05-13 00:01:00"
      }
    },
    {
      "id": "22220003",
      "lat": 48.7793,
      "lon": -3.24469,
      "cp": "22220",
      "ville": "Minihy-Tréguier",
      "prix": {
        "Gazole": 0.002095,
        "E10": 0.002028,
        "SP98": 0.0020870000000000003
      },
      "maj_gouv": {
        "Gazole": "2026-05-12 07:37:18",
        "E10": "2026-05-12 07:37:18",
        "SP98": "2026-05-12 07:37:18"
      }
    },
    {
      "id": "22520001",
      "lat": 48.61177,
      "lon": -2.83098,
      "cp": "22520",
      "ville": "BINIC",
      "prix": {
        "Gazole": 0.002139,
        "E85": 0.000809,
        "GPLc": 0.001049,
        "E10": 0.002025,
        "SP98": 0.002109
      },
      "maj_gouv": {
        "Gazole": "2026-05-12 08:32:38",
        "E85": "2026-05-12 08:32:38",
        "GPLc": "2026-04-13 17:48:00",
        "E10": "2026-05-12 08:32:38",
        "SP98": "2026-05-12 08:32:39"
      }
    },
    {
      "id": "22430001",
      "lat": 48.622,
      "lon": -2.439,
      "cp": "22430",
      "ville": "ERQUY",
      "prix": {
        "Gazole": 0.002099,
        "E10": 0.002059,
        "SP98": 0.002099
      },
      "maj_gouv": {
        "Gazole": "2026-05-12 08:21:42",
        "E10": "2026-05-11 07:39:22",
        "SP98": "2026-05-12 15:16:05"
      }
    },
    {
      "id": "22540002",
      "lat": 48.57,
      "lon": -3.339,
      "cp": "22540",
      "ville": "LOUARGAT",
      "prix": {
        "Gazole": 0.0022480000000000004,
        "E10": 0.002069,
        "SP98": 0.0021720000000000003
      },
      "maj_gouv": {
        "Gazole": "2026-05-05 09:19:24",
        "E10": "2026-05-05 09:19:24",
        "SP98": "2026-05-05 09:19:24"
      }
    },
    {
      "id": "22000010",
      "lat": 48.50836,
      "lon": -2.76785,
      "cp": "22000",
      "ville": "Saint-Brieuc",
      "prix": {
        "Gazole": 0.002179,
        "E85": 0.0008169999999999999,
        "E10": 0.00199,
        "SP98": 0.00199
      },
      "maj_gouv": {
        "Gazole": "2026-05-13 00:01:00",
        "E85": "2026-05-13 00:01:00",
        "E10": "2026-05-13 00:01:00",
        "SP98": "2026-05-13 00:01:00"
      }
    },
    {
      "id": "22000011",
      "lat": 48.49806,
      "lon": -2.74533,
      "cp": "22000",
      "ville": "Saint-Brieuc",
      "prix": {
        "Gazole": 0.002095,
        "E85": 0.0008139999999999999,
        "GPLc": 0.001029,
        "E10": 0.00199,
        "SP98": 0.00199
      },
      "maj_gouv": {
        "Gazole": "2026-05-13 00:01:00",
        "E85": "2026-05-13 00:01:00",
        "GPLc": "2026-05-13 00:01:00",
        "E10": "2026-05-13 00:01:00",
        "SP98": "2026-05-13 00:01:00"
      }
    },
    {
      "id": "22480001",
      "lat": 48.3066976252,
      "lon": -3.16397737542,
      "cp": "22480",
      "ville": "SAINT-NICOLAS-DU-PéLEM",
      "prix": {
        "Gazole": 0.002159,
        "SP95": 0.002059,
        "SP98": 0.002079
      },
      "maj_gouv": {
        "Gazole": "2026-05-09 08:13:04",
        "SP95": "2026-05-09 08:13:05",
        "SP98": "2026-05-09 08:13:05"
      }
    },
    {
      "id": "22300007",
      "lat": 48.745,
      "lon": -3.477,
      "cp": "22300",
      "ville": "LANNION",
      "prix": {
        "Gazole": 0.002199,
        "E10": 0.001949,
        "SP98": 0.002059
      },
      "maj_gouv": {
        "Gazole": "2026-05-04 15:58:24",
        "E10": "2026-05-11 07:49:20",
        "SP98": "2026-05-11 07:49:20"
      }
    },
    {
      "id": "22300006",
      "lat": 48.714,
      "lon": -3.454,
      "cp": "22300",
      "ville": "PLOUBEZRE",
      "prix": {
        "Gazole": 0.002229,
        "E85": 0.000819,
        "E10": 0.002049,
        "SP98": 0.0021190000000000002
      },
      "maj_gouv": {
        "Gazole": "2026-05-05 08:30:31",
        "E85": "2026-04-22 09:47:23",
        "E10": "2026-05-05 08:30:31",
        "SP98": "2026-05-05 08:30:31"
      }
    },
    {
      "id": "22110003",
      "lat": 48.23682,
      "lon": -3.31209,
      "cp": "22110",
      "ville": "Rostrenen",
      "prix": {
        "Gazole": 0.002055,
        "GPLc": 0.0010149999999999998,
        "E10": 0.0019590000000000002,
        "SP98": 0.002065
      },
      "maj_gouv": {
        "Gazole": "2026-05-12 08:25:36",
        "GPLc": "2026-05-12 08:25:36",
        "E10": "2026-05-12 08:25:36",
        "SP98": "2026-05-12 08:25:36"
      }
    },
    {
      "id": "22000002",
      "lat": 48.522,
      "lon": -2.732,
      "cp": "22000",
      "ville": "SAINT-BRIEUC",
      "prix": {
        "Gazole": 0.0022069999999999998,
        "SP95": 0.002099,
        "E10": 0.00207,
        "SP98": 0.0021349999999999997
      },
      "maj_gouv": {
        "Gazole": "2026-05-06 08:30:00",
        "SP95": "2026-05-06 08:30:00",
        "E10": "2026-05-06 08:30:00",
        "SP98": "2026-05-06 08:30:00"
      }
    },
    {
      "id": "22150005",
      "lat": 48.35079047,
      "lon": -2.76064927,
      "cp": "22150",
      "ville": "Plœuc-L'Hermitage",
      "prix": {
        "Gazole": 0.002209,
        "SP98": 0.002149
      },
      "maj_gouv": {
        "Gazole": "2026-05-07 09:48:46",
        "SP98": "2026-05-07 09:48:47"
      }
    },
    {
      "id": "22650002",
      "lat": 48.575846568782005,
      "lon": -2.1495428180546,
      "cp": "22650",
      "ville": "Ploubalay",
      "prix": {
        "Gazole": 0.002199,
        "SP95": 0.002079,
        "SP98": 0.0021190000000000002
      },
      "maj_gouv": {
        "Gazole": "2026-05-06 10:33:52",
        "SP95": "2026-05-06 10:33:52",
        "SP98": "2026-05-06 10:33:53"
      }
    },
    {
      "id": "22950003",
      "lat": 48.49104,
      "lon": -2.76346,
      "cp": "22950",
      "ville": "TRéGUEUX",
      "prix": {
        "Gazole": 0.0022,
        "SP95": 0.002095,
        "E10": 0.00204
      },
      "maj_gouv": {
        "Gazole": "2026-05-09 07:52:40",
        "SP95": "2026-05-09 07:52:41",
        "E10": "2026-05-09 07:52:41"
      }
    },
    {
      "id": "22830001",
      "lat": 48.299,
      "lon": -2.003,
      "cp": "22830",
      "ville": "Plouasne",
      "prix": {
        "Gazole": 0.002055,
        "SP95": 0.001908
      },
      "maj_gouv": {
        "Gazole": "2026-03-04 19:55:06",
        "SP95": "2026-03-04 19:55:06"
      }
    },
    {
      "id": "22490001",
      "lat": 48.5322674691,
      "lon": -2.00716761564,
      "cp": "22490",
      "ville": "PLOUëR-SUR-RANCE",
      "prix": {
        "Gazole": 0.002129,
        "SP95": 0.002079,
        "E85": 0.000809,
        "SP98": 0.002115
      },
      "maj_gouv": {
        "Gazole": "2026-05-11 17:05:48",
        "SP95": "2026-05-05 09:52:45",
        "E85": "2026-04-20 09:46:53",
        "SP98": "2026-05-09 12:27:45"
      }
    },
    {
      "id": "22350004",
      "lat": 48.291,
      "lon": -2.152,
      "cp": "22350",
      "ville": "CAULNES",
      "prix": {
        "Gazole": 0.002199,
        "E10": 0.001999,
        "SP98": 0.002109
      },
      "maj_gouv": {
        "Gazole": "2026-05-05 06:52:09",
        "E10": "2026-05-05 06:52:09",
        "SP98": "2026-05-05 06:52:09"
      }
    },
    {
      "id": "22570001",
      "lat": 48.227,
      "lon": -3.176,
      "cp": "22570",
      "ville": "Laniscat",
      "prix": {
        "Gazole": 0.00219,
        "E10": 0.00199,
        "SP98": 0.00199
      },
      "maj_gouv": {
        "Gazole": "2026-05-11 07:41:58",
        "E10": "2026-05-07 16:45:09",
        "SP98": "2026-05-07 16:45:09"
      }
    },
    {
      "id": "22980002",
      "lat": 48.432,
      "lon": -2.217,
      "cp": "22980",
      "ville": "Plélan-le-Petit",
      "prix": {
        "Gazole": 0.002189,
        "E85": 0.0008179999999999999,
        "E10": 0.002039,
        "SP98": 0.002149
      },
      "maj_gouv": {
        "Gazole": "2026-05-05 16:15:56",
        "E85": "2026-04-28 07:17:24",
        "E10": "2026-05-09 09:55:22",
        "SP98": "2026-05-09 09:55:22"
      }
    },
    {
      "id": "22940002",
      "lat": 48.415,
      "lon": -2.822,
      "cp": "22940",
      "ville": "Plaintel",
      "prix": {
        "Gazole": 0.0022400000000000002,
        "E85": 0.0008179999999999999,
        "E10": 0.002047,
        "SP98": 0.002155
      },
      "maj_gouv": {
        "Gazole": "2026-05-05 11:35:34",
        "E85": "2026-04-17 18:00:12",
        "E10": "2026-05-05 11:35:35",
        "SP98": "2026-05-05 11:35:35"
      }
    },
    {
      "id": "22400010",
      "lat": 48.53188139814301,
      "lon": -2.5777083107307996,
      "cp": "22400",
      "ville": "Lamballe Amor Planguenoual",
      "prix": {
        "Gazole": 0.002226,
        "E10": 0.002016,
        "SP98": 0.002155
      },
      "maj_gouv": {
        "Gazole": "2026-04-30 06:42:52",
        "E10": "2026-04-30 06:42:52",
        "SP98": "2026-04-30 06:42:52"
      }
    },
    {
      "id": "22400007",
      "lat": 48.477,
      "lon": -2.586,
      "cp": "22400",
      "ville": "COETMIEUX",
      "prix": {},
      "maj_gouv": {}
    },
    {
      "id": "22710001",
      "lat": 48.80248,
      "lon": -3.30911,
      "cp": "22710",
      "ville": "Penvénan",
      "prix": {
        "Gazole": 0.002159,
        "SP95": 0.002079,
        "SP98": 0.002139
      },
      "maj_gouv": {
        "Gazole": "2026-05-11 12:00:00",
        "SP95": "2026-05-07 12:00:00",
        "SP98": "2026-05-07 12:00:00"
      }
    },
    {
      "id": "22630002",
      "lat": 48.376,
      "lon": -1.975,
      "cp": "22630",
      "ville": "Évran",
      "prix": {
        "Gazole": 0.002199,
        "SP95": 0.002079
      },
      "maj_gouv": {
        "Gazole": "2026-05-04 06:15:00",
        "SP95": "2026-05-04 06:15:00"
      }
    },
    {
      "id": "22700001",
      "lat": 48.8,
      "lon": -3.443,
      "cp": "22700",
      "ville": "Perros-Guirec",
      "prix": {
        "Gazole": 0.001709,
        "SP95": 0.001789,
        "SP98": 0.001843
      },
      "maj_gouv": {
        "Gazole": "2025-10-29 20:18:09",
        "SP95": "2025-10-29 20:18:09",
        "SP98": "2025-10-29 20:18:09"
      }
    },
    {
      "id": "22200007",
      "lat": 48.551,
      "lon": -3.158,
      "cp": "22200",
      "ville": "Guingamp-GRACES",
      "prix": {
        "Gazole": 0.00227,
        "E85": 0.0009699999999999999,
        "E10": 0.00211
      },
      "maj_gouv": {
        "Gazole": "2026-05-06 12:37:44",
        "E85": "2026-03-02 19:31:41",
        "E10": "2026-04-28 19:23:54"
      }
    },
    {
      "id": "22700002",
      "lat": 48.787,
      "lon": -3.448,
      "cp": "22700",
      "ville": "SAINT-QUAY-PERROS",
      "prix": {
        "Gazole": 0.002079,
        "E10": 0.0019890000000000003,
        "SP98": 0.002059
      },
      "maj_gouv": {
        "Gazole": "2026-05-12 13:58:58",
        "E10": "2026-05-12 13:58:59",
        "SP98": "2026-05-12 13:58:59"
      }
    },
    {
      "id": "22300005",
      "lat": 48.721,
      "lon": -3.482,
      "cp": "22300",
      "ville": "PLOULEC'H-LANNION",
      "prix": {
        "Gazole": 0.002079,
        "E85": 0.0008179999999999999,
        "E10": 0.0019890000000000003,
        "SP98": 0.002059
      },
      "maj_gouv": {
        "Gazole": "2026-05-11 09:31:00",
        "E85": "2026-04-22 09:04:52",
        "E10": "2026-05-12 09:49:00",
        "SP98": "2026-05-11 09:31:00"
      }
    },
    {
      "id": "22600006",
      "lat": 48.19337648347,
      "lon": -2.7574038780979997,
      "cp": "22600",
      "ville": "Loudéac",
      "prix": {
        "Gazole": 0.0020499999999999997,
        "SP95": 0.002,
        "E85": 0.0008179999999999999,
        "GPLc": 0.00111,
        "E10": 0.002
      },
      "maj_gouv": {
        "Gazole": "2026-05-11 09:38:42",
        "SP95": "2026-05-12 09:43:39",
        "E85": "2026-05-07 09:47:38",
        "GPLc": "2026-05-11 15:42:18",
        "E10": "2026-05-11 09:42:52"
      }
    },
    {
      "id": "22460005",
      "lat": 48.287,
      "lon": -2.827,
      "cp": "22460",
      "ville": "UZEL",
      "prix": {
        "Gazole": 0.002193,
        "E10": 0.00199,
        "SP98": 0.00199
      },
      "maj_gouv": {
        "Gazole": "2026-05-12 18:17:48",
        "E10": "2026-05-12 18:17:48",
        "SP98": "2026-05-12 18:18:07"
      }
    },
    {
      "id": "56270001",
      "lat": 48.644,
      "lon": -2.837,
      "cp": "22680",
      "ville": "ÉTABLES-SUR-MER",
      "prix": {
        "Gazole": 0.002199,
        "E85": 0.000869,
        "E10": 0.002039,
        "SP98": 0.002189
      },
      "maj_gouv": {
        "Gazole": "2026-05-09 10:30:34",
        "E85": "2026-03-04 14:52:36",
        "E10": "2026-05-04 12:12:51",
        "SP98": "2026-05-07 10:06:41"
      }
    },
    {
      "id": "22600002",
      "lat": 48.166,
      "lon": -2.751,
      "cp": "22600",
      "ville": "LOUDéAC",
      "prix": {
        "Gazole": 0.002176,
        "SP95": 0.00199
      },
      "maj_gouv": {
        "Gazole": "2026-05-12 09:01:45",
        "SP95": "2026-05-06 10:09:40"
      }
    },
    {
      "id": "22310001",
      "lat": 48.657,
      "lon": -3.633,
      "cp": "22310",
      "ville": "PLESTIN-LES-GRèVES",
      "prix": {
        "Gazole": 0.002079,
        "E85": 0.000799,
        "E10": 0.0020150000000000003,
        "SP98": 0.002109
      },
      "maj_gouv": {
        "Gazole": "2026-05-12 09:21:41",
        "E85": "2026-04-24 09:06:03",
        "E10": "2026-05-12 09:21:41",
        "SP98": "2026-05-12 09:21:41"
      }
    },
    {
      "id": "22230004",
      "lat": 48.191,
      "lon": -2.404,
      "cp": "22230",
      "ville": "Merdrignac",
      "prix": {
        "Gazole": 0.0021469999999999996,
        "E10": 0.00199,
        "SP98": 0.00199
      },
      "maj_gouv": {
        "Gazole": "2026-05-12 11:57:59",
        "E10": "2026-05-12 11:57:59",
        "SP98": "2026-05-12 11:57:59"
      }
    },
    {
      "id": "22370001",
      "lat": 48.58111,
      "lon": -2.53447,
      "cp": "22370",
      "ville": "PLéNEUF-VAL-ANDRé",
      "prix": {
        "Gazole": 0.002049,
        "SP95": 0.002019,
        "E85": 0.000719,
        "E10": 0.001982
      },
      "maj_gouv": {
        "Gazole": "2026-05-12 08:58:27",
        "SP95": "2026-05-12 08:58:28",
        "E85": "2026-04-21 09:37:59",
        "E10": "2026-05-12 08:58:28"
      }
    },
    {
      "id": "22590001",
      "lat": 48.562087334912995,
      "lon": -2.8117884064777,
      "cp": "22590",
      "ville": "Pordic",
      "prix": {
        "Gazole": 0.002139,
        "E85": 0.0008179999999999999,
        "E10": 0.001999,
        "SP98": 0.002109
      },
      "maj_gouv": {
        "Gazole": "2026-05-12 09:51:22",
        "E85": "2026-05-12 09:51:22",
        "E10": "2026-05-12 09:51:23",
        "SP98": "2026-05-12 09:51:23"
      }
    },
    {
      "id": "22640001",
      "lat": 48.423,
      "lon": -2.445,
      "cp": "22640",
      "ville": "Plestan",
      "prix": {
        "SP95": 0.00199
      },
      "maj_gouv": {
        "SP95": "2026-05-11 11:53:05"
      }
    },
    {
      "id": "22300004",
      "lat": 48.73431822,
      "lon": -3.43779114,
      "cp": "22300",
      "ville": "LANNION",
      "prix": {
        "Gazole": 0.002079,
        "E85": 0.000819,
        "E10": 0.0019890000000000003,
        "SP98": 0.002059
      },
      "maj_gouv": {
        "Gazole": "2026-05-12 09:18:19",
        "E85": "2026-04-17 09:07:20",
        "E10": "2026-05-12 09:18:19",
        "SP98": "2026-05-12 09:18:20"
      }
    },
    {
      "id": "22550001",
      "lat": 48.6,
      "lon": -2.287,
      "cp": "22550",
      "ville": "MATIGNON",
      "prix": {
        "Gazole": 0.002159,
        "E85": 0.0007149999999999999,
        "E10": 0.002055,
        "SP98": 0.002149
      },
      "maj_gouv": {
        "Gazole": "2026-05-12 08:05:54",
        "E85": "2026-05-08 08:56:36",
        "E10": "2026-05-11 08:30:23",
        "SP98": "2026-05-08 08:55:14"
      }
    },
    {
      "id": "22470001",
      "lat": 48.746461270705,
      "lon": -2.9823067889024997,
      "cp": "22470",
      "ville": "Plouézec",
      "prix": {
        "Gazole": 0.002179,
        "E10": 0.002029,
        "SP98": 0.002129
      },
      "maj_gouv": {
        "Gazole": "2026-05-07 11:00:45",
        "E10": "2026-05-07 11:00:46",
        "SP98": "2026-05-07 11:00:46"
      }
    },
    {
      "id": "22130002",
      "lat": 48.525,
      "lon": -2.252,
      "cp": "22130",
      "ville": "PLUDUNO",
      "prix": {
        "Gazole": 0.002106,
        "GPLc": 0.0010689999999999999,
        "E10": 0.002002,
        "SP98": 0.002079
      },
      "maj_gouv": {
        "Gazole": "2026-05-11 07:13:29",
        "GPLc": "2026-04-22 08:49:07",
        "E10": "2026-05-11 07:13:29",
        "SP98": "2026-05-11 07:13:30"
      }
    },
    {
      "id": "22800002",
      "lat": 48.4,
      "lon": -2.9,
      "cp": "22800",
      "ville": "Saint-Brandan",
      "prix": {
        "Gazole": 0.00209,
        "E10": 0.0020440000000000002,
        "SP98": 0.002077
      },
      "maj_gouv": {
        "Gazole": "2026-05-13 01:17:00",
        "E10": "2026-05-13 01:17:00",
        "SP98": "2026-05-13 01:17:00"
      }
    },
    {
      "id": "22250002",
      "lat": 48.324,
      "lon": -2.251,
      "cp": "22250",
      "ville": "BROONS",
      "prix": {
        "Gazole": 0.002179,
        "SP95": 0.002069,
        "E85": 0.0008179999999999999,
        "SP98": 0.002109
      },
      "maj_gouv": {
        "Gazole": "2026-05-10 06:40:58",
        "SP95": "2026-05-04 04:15:15",
        "E85": "2026-04-23 08:41:58",
        "SP98": "2026-05-10 06:40:59"
      }
    },
    {
      "id": "22160003",
      "lat": 48.407,
      "lon": -3.434,
      "cp": "22160",
      "ville": "Callac",
      "prix": {
        "Gazole": 0.002099,
        "E85": 0.0008179999999999999,
        "GPLc": 0.0010689999999999999,
        "E10": 0.001999,
        "SP98": 0.002089
      },
      "maj_gouv": {
        "Gazole": "2026-05-12 06:42:20",
        "E85": "2026-05-06 07:12:44",
        "GPLc": "2026-05-06 07:12:44",
        "E10": "2026-05-12 06:42:20",
        "SP98": "2026-05-06 07:12:44"
      }
    },
    {
      "id": "22440004",
      "lat": 48.468005,
      "lon": -2.794054,
      "cp": "22440",
      "ville": "PLOUFRAGAN",
      "prix": {
        "Gazole": 0.0022589999999999997,
        "SP98": 0.002269
      },
      "maj_gouv": {
        "Gazole": "2026-05-11 14:08:35",
        "SP98": "2026-04-30 14:20:43"
      }
    },
    {
      "id": "22100004",
      "lat": 48.47751486296401,
      "lon": -2.0429339388881997,
      "cp": "22100",
      "ville": "Taden",
      "prix": {
        "Gazole": 0.002129,
        "E85": 0.000819,
        "E10": 0.002019,
        "SP98": 0.002096
      },
      "maj_gouv": {
        "Gazole": "2026-05-12 10:22:34",
        "E85": "2026-05-12 10:22:34",
        "E10": "2026-05-12 10:22:34",
        "SP98": "2026-05-12 10:22:34"
      }
    },
    {
      "id": "22400009",
      "lat": 48.481751064981,
      "lon": -2.4981010304171,
      "cp": "22400",
      "ville": "LAMBALLE ARMOR",
      "prix": {
        "Gazole": 0.002091,
        "E85": 0.000839,
        "E10": 0.00199,
        "SP98": 0.00199
      },
      "maj_gouv": {
        "Gazole": "2026-05-12 16:17:31",
        "E85": "2026-05-12 16:17:31",
        "E10": "2026-05-12 16:17:31",
        "SP98": "2026-05-12 16:17:31"
      }
    },
    {
      "id": "22420003",
      "lat": 48.609110234686,
      "lon": -3.4783272057,
      "cp": "22420",
      "ville": "PLOUARET",
      "prix": {
        "Gazole": 0.002209,
        "E85": 0.000825,
        "E10": 0.002019
      },
      "maj_gouv": {
        "Gazole": "2026-05-07 06:54:56",
        "E85": "2026-05-05 11:25:23",
        "E10": "2026-05-07 06:54:56"
      }
    },
    {
      "id": "22500006",
      "lat": 48.769,
      "lon": -3.04,
      "cp": "22500",
      "ville": "Paimpol",
      "prix": {
        "Gazole": 0.002069,
        "E85": 0.0008990000000000001,
        "E10": 0.002047,
        "SP98": 0.002154
      },
      "maj_gouv": {
        "Gazole": "2026-05-12 01:13:47",
        "E85": "2026-05-12 01:13:47",
        "E10": "2026-05-12 01:13:47",
        "SP98": "2026-05-12 01:13:47"
      }
    },
    {
      "id": "22740001",
      "lat": 48.782765999999995,
      "lon": -3.1231790000000004,
      "cp": "22740",
      "ville": "Lezardrieux",
      "prix": {
        "Gazole": 0.002069
      },
      "maj_gouv": {
        "Gazole": "2026-05-12 01:13:08"
      }
    },
    {
      "id": "22302001",
      "lat": 48.719,
      "lon": -3.416,
      "cp": "22300",
      "ville": "LANNION",
      "prix": {
        "Gazole": 0.002091,
        "E10": 0.00199,
        "SP98": 0.00199
      },
      "maj_gouv": {
        "Gazole": "2026-05-11 10:21:28",
        "E10": "2026-05-11 10:21:28",
        "SP98": "2026-05-11 10:21:28"
      }
    },
    {
      "id": "22400001",
      "lat": 48.4672198707,
      "lon": -2.5215226986999997,
      "cp": "22400",
      "ville": "LAMBALLE",
      "prix": {
        "Gazole": 0.002055,
        "SP95": 0.002049,
        "E10": 0.0019690000000000003,
        "SP98": 0.002099
      },
      "maj_gouv": {
        "Gazole": "2026-05-12 11:06:39",
        "SP95": "2026-05-05 15:34:11",
        "E10": "2026-05-12 11:06:40",
        "SP98": "2026-05-05 15:34:11"
      }
    },
    {
      "id": "22100011",
      "lat": 48.460706633427,
      "lon": -2.0151670080546,
      "cp": "22100",
      "ville": "LANVALLAY",
      "prix": {
        "Gazole": 0.0022589999999999997,
        "E85": 0.000989,
        "GPLc": 0.001059,
        "E10": 0.002059,
        "SP98": 0.002129
      },
      "maj_gouv": {
        "Gazole": "2026-05-05 18:19:31",
        "E85": "2026-05-05 18:19:31",
        "GPLc": "2026-05-05 18:19:31",
        "E10": "2026-05-05 18:19:32",
        "SP98": "2026-05-05 18:19:32"
      }
    },
    {
      "id": "22290003",
      "lat": 48.61370743769999,
      "lon": -2.9640298312400004,
      "cp": "22290",
      "ville": "TRESSIGNAUX",
      "prix": {
        "Gazole": 0.00228,
        "SP95": 0.00214,
        "SP98": 0.0022
      },
      "maj_gouv": {
        "Gazole": "2026-05-06 19:00:00",
        "SP95": "2026-05-06 19:00:00",
        "SP98": "2026-05-06 19:00:00"
      }
    },
    {
      "id": "22150004",
      "lat": 48.281,
      "lon": -2.702,
      "cp": "22150",
      "ville": "Plouguenast",
      "prix": {
        "Gazole": 0.002209,
        "SP95": 0.002079,
        "SP98": 0.002099
      },
      "maj_gouv": {
        "Gazole": "2026-05-04 11:43:57",
        "SP95": "2026-05-12 08:51:18",
        "SP98": "2026-04-01 10:08:51"
      }
    },
    {
      "id": "22140003",
      "lat": 48.641428602430004,
      "lon": -3.1893220909409,
      "cp": "22140",
      "ville": "Landebaëron",
      "prix": {
        "Gazole": 0.002117,
        "SP95": 0.00199
      },
      "maj_gouv": {
        "Gazole": "2026-05-11 07:16:14",
        "SP95": "2026-05-11 07:16:15"
      }
    },
    {
      "id": "22100007",
      "lat": 48.453,
      "lon": -2.02,
      "cp": "22100",
      "ville": "LANVALLAY",
      "prix": {
        "Gazole": 0.002186,
        "SP95": 0.002099,
        "SP98": 0.002125
      },
      "maj_gouv": {
        "Gazole": "2026-05-11 07:56:47",
        "SP95": "2026-05-06 08:43:29",
        "SP98": "2026-05-06 08:43:29"
      }
    },
    {
      "id": "22410001",
      "lat": 48.65863007208,
      "lon": -2.8583947609237,
      "cp": "22410",
      "ville": "SAINT-QUAY-PORTRIEUX",
      "prix": {
        "Gazole": 0.002229,
        "E10": 0.002025,
        "SP98": 0.002115
      },
      "maj_gouv": {
        "Gazole": "2026-05-05 10:35:44",
        "E10": "2026-05-08 10:02:34",
        "SP98": "2026-05-08 10:02:34"
      }
    },
    {
      "id": "22360001",
      "lat": 48.496,
      "lon": -2.728,
      "cp": "22360",
      "ville": "LANGUEUX",
      "prix": {
        "Gazole": 0.002099,
        "SP95": 0.002055,
        "E85": 0.000838,
        "E10": 0.001999,
        "SP98": 0.00212
      },
      "maj_gouv": {
        "Gazole": "2026-05-12 11:31:42",
        "SP95": "2026-05-12 11:31:42",
        "E85": "2026-04-29 12:11:49",
        "E10": "2026-05-12 11:31:42",
        "SP98": "2026-05-12 11:31:42"
      }
    },
    {
      "id": "22730001",
      "lat": 48.824,
      "lon": -3.498,
      "cp": "22730",
      "ville": "TRéGASTEL",
      "prix": {
        "Gazole": 0.002079,
        "SP95": 0.002029,
        "E85": 0.00091,
        "SP98": 0.002059
      },
      "maj_gouv": {
        "Gazole": "2026-05-12 08:51:03",
        "SP95": "2026-05-12 09:54:02",
        "E85": "2026-04-10 08:56:48",
        "SP98": "2026-05-12 08:51:03"
      }
    },
    {
      "id": "22000013",
      "lat": 48.497799787809996,
      "lon": -2.7453052884397997,
      "cp": "22000",
      "ville": "Saint-Brieuc",
      "prix": {
        "Gazole": 0.002186,
        "E10": 0.00199
      },
      "maj_gouv": {
        "Gazole": "2026-05-12 18:38:23",
        "E10": "2026-05-12 18:38:23"
      }
    },
    {
      "id": "22120007",
      "lat": 48.5145374,
      "lon": -2.6666760186126,
      "cp": "22120",
      "ville": "HILLION",
      "prix": {
        "Gazole": 0.0023290000000000003,
        "E85": 0.000995,
        "GPLc": 0.001089,
        "E10": 0.002159,
        "SP98": 0.002299
      },
      "maj_gouv": {
        "Gazole": "2026-05-10 00:01:25",
        "E85": "2026-05-10 00:01:25",
        "GPLc": "2026-05-10 00:01:25",
        "E10": "2026-05-10 00:01:25",
        "SP98": "2026-05-10 00:01:25"
      }
    },
    {
      "id": "22700004",
      "lat": 48.805195322655,
      "lon": -3.4597700543750003,
      "cp": "22700",
      "ville": "Perros-Guirec",
      "prix": {
        "Gazole": 0.002179,
        "E85": 0.000819,
        "E10": 0.002039,
        "SP98": 0.0021190000000000002
      },
      "maj_gouv": {
        "Gazole": "2026-05-11 10:00:21",
        "E85": "2026-04-15 09:49:03",
        "E10": "2026-05-11 10:00:21",
        "SP98": "2026-05-04 12:16:01"
      }
    },
    {
      "id": "22400004",
      "lat": 48.462,
      "lon": -2.515,
      "cp": "22400",
      "ville": "LAMBALLE ARMOR",
      "prix": {
        "Gazole": 0.002055,
        "GPLc": 0.001109,
        "E10": 0.001981,
        "SP98": 0.002056
      },
      "maj_gouv": {
        "Gazole": "2026-05-12 08:29:55",
        "GPLc": "2026-04-28 10:37:59",
        "E10": "2026-05-12 08:29:55",
        "SP98": "2026-05-12 08:29:55"
      }
    },
    {
      "id": "22290002",
      "lat": 48.705,
      "lon": -3.022,
      "cp": "22290",
      "ville": "PLéHéDEL",
      "prix": {
        "Gazole": 0.002154,
        "GPLc": 0.00107,
        "E10": 0.00199,
        "SP98": 0.00199
      },
      "maj_gouv": {
        "Gazole": "2026-05-12 15:56:21",
        "GPLc": "2026-05-12 15:56:21",
        "E10": "2026-05-12 15:56:21",
        "SP98": "2026-05-12 15:56:21"
      }
    },
    {
      "id": "22110002",
      "lat": 48.242216194891,
      "lon": -3.296166474018,
      "cp": "22110",
      "ville": "Plouguernevel",
      "prix": {
        "Gazole": 0.002079,
        "E10": 0.001999,
        "SP98": 0.002069
      },
      "maj_gouv": {
        "Gazole": "2026-05-12 14:15:00",
        "E10": "2026-05-12 14:15:00",
        "SP98": "2026-05-12 14:15:00"
      }
    },
    {
      "id": "22200003",
      "lat": 48.5625605107,
      "lon": -3.16559732183,
      "cp": "22200",
      "ville": "Guingamp",
      "prix": {
        "Gazole": 0.002169,
        "SP95": 0.002019,
        "GPLc": 0.001019,
        "E10": 0.001972,
        "SP98": 0.002047
      },
      "maj_gouv": {
        "Gazole": "2026-05-12 10:33:12",
        "SP95": "2026-05-12 10:33:12",
        "GPLc": "2026-05-12 10:33:12",
        "E10": "2026-05-12 10:33:12",
        "SP98": "2026-05-12 10:33:13"
      }
    }
  ]
}