{
  "departement": "55",
  "date": "2026-06-13",
  "stations": [
    {
      "id": "55700006",
      "lat": 49.483853119268,
      "lon": 5.2033975146027,
      "cp": "55700",
      "ville": "STENAY",
      "prix": {
        "Gazole": 0.0019690000000000003,
        "SP95": 0.0019890000000000003,
        "SP98": 0.0021190000000000002
      },
      "maj_gouv": {
        "Gazole": "2026-06-12 12:56:17",
        "SP95": "2026-06-12 12:56:17",
        "SP98": "2026-05-28 08:23:15"
      }
    },
    {
      "id": "55200004",
      "lat": 48.756,
      "lon": 5.585,
      "cp": "55200",
      "ville": "Commercy",
      "prix": {
        "Gazole": 0.001999,
        "E85": 0.000809,
        "E10": 0.001953,
        "SP98": 0.002068
      },
      "maj_gouv": {
        "Gazole": "2026-06-12 06:56:46",
        "E85": "2026-06-12 06:56:46",
        "E10": "2026-06-12 06:56:46",
        "SP98": "2026-06-12 06:56:46"
      }
    },
    {
      "id": "55160014",
      "lat": 49.120326,
      "lon": 5.5083983,
      "cp": "55160",
      "ville": "HAUDIOMONT",
      "prix": {
        "Gazole": 0.0021070000000000004,
        "GPLc": 0.001211,
        "E10": 0.00207,
        "SP98": 0.002178
      },
      "maj_gouv": {
        "Gazole": "2026-06-12 11:13:44",
        "GPLc": "2026-06-12 11:13:44",
        "E10": "2026-06-12 11:13:44",
        "SP98": "2026-06-12 11:13:45"
      }
    },
    {
      "id": "55000005",
      "lat": 48.787,
      "lon": 5.14,
      "cp": "55000",
      "ville": "Fains-Véel",
      "prix": {
        "Gazole": 0.001999,
        "GPLc": 0.00113,
        "E10": 0.0019190000000000001,
        "SP98": 0.002029
      },
      "maj_gouv": {
        "Gazole": "2026-06-11 07:11:59",
        "GPLc": "2026-04-27 10:33:41",
        "E10": "2026-06-11 07:12:00",
        "SP98": "2026-06-11 07:12:00"
      }
    },
    {
      "id": "55110003",
      "lat": 49.391,
      "lon": 5.183,
      "cp": "55110",
      "ville": "Dun-sur-Meuse",
      "prix": {
        "Gazole": 0.002089,
        "E85": 0.000898,
        "E10": 0.002079
      },
      "maj_gouv": {
        "Gazole": "2026-06-04 12:31:16",
        "E85": "2026-06-04 12:31:16",
        "E10": "2026-06-04 12:31:16"
      }
    },
    {
      "id": "55320001",
      "lat": 49.077,
      "lon": 5.448,
      "cp": "55320",
      "ville": "Dieue-sur-Meuse",
      "prix": {
        "Gazole": 0.001996,
        "E10": 0.001926,
        "SP98": 0.002049
      },
      "maj_gouv": {
        "Gazole": "2026-06-11 12:01:31",
        "E10": "2026-06-11 12:01:31",
        "SP98": "2026-06-11 12:01:31"
      }
    },
    {
      "id": "55200003",
      "lat": 48.79,
      "lon": 5.549,
      "cp": "55200",
      "ville": "Lérouville",
      "prix": {},
      "maj_gouv": {}
    },
    {
      "id": "55800002",
      "lat": 48.825,
      "lon": 4.993,
      "cp": "55800",
      "ville": "REVIGNY-SUR-ORNAIN",
      "prix": {
        "Gazole": 0.0019790000000000003,
        "SP95": 0.001988,
        "E10": 0.001924,
        "SP98": 0.002039
      },
      "maj_gouv": {
        "Gazole": "2026-06-04 08:53:46",
        "SP95": "2026-06-10 15:16:46",
        "E10": "2026-06-10 15:16:46",
        "SP98": "2026-06-08 09:03:04"
      }
    },
    {
      "id": "55160013",
      "lat": 49.118,
      "lon": 5.508,
      "cp": "55160",
      "ville": "HAUDIOMONT",
      "prix": {
        "Gazole": 0.002093,
        "GPLc": 0.001211,
        "E10": 0.002077,
        "SP98": 0.002198
      },
      "maj_gouv": {
        "Gazole": "2026-06-12 11:11:26",
        "GPLc": "2026-06-12 11:11:26",
        "E10": "2026-06-12 11:11:26",
        "SP98": "2026-06-12 11:11:26"
      }
    },
    {
      "id": "55200002",
      "lat": 48.76069,
      "lon": 5.60211,
      "cp": "55200",
      "ville": "COMMERCY",
      "prix": {
        "Gazole": 0.002022,
        "E10": 0.001944,
        "SP98": 0.002057
      },
      "maj_gouv": {
        "Gazole": "2026-06-10 10:42:34",
        "E10": "2026-06-10 10:42:34",
        "SP98": "2026-06-10 10:42:34"
      }
    },
    {
      "id": "55110002",
      "lat": 49.286111095592,
      "lon": 5.2884110553228005,
      "cp": "55110",
      "ville": "Consenvoye",
      "prix": {
        "Gazole": 0.00225,
        "SP95": 0.00199,
        "SP98": 0.00199
      },
      "maj_gouv": {
        "Gazole": "2026-05-26 10:46:04",
        "SP95": "2026-04-30 09:32:55",
        "SP98": "2026-04-30 09:32:55"
      }
    },
    {
      "id": "55000003",
      "lat": 48.79,
      "lon": 5.137,
      "cp": "55000",
      "ville": "FAINS-VéEL",
      "prix": {
        "Gazole": 0.002049,
        "E85": 0.0008489999999999999,
        "E10": 0.001999,
        "SP98": 0.002099
      },
      "maj_gouv": {
        "Gazole": "2026-06-02 23:30:00",
        "E85": "2026-06-02 23:30:00",
        "E10": "2026-06-02 23:30:00",
        "SP98": "2026-06-02 23:30:00"
      }
    },
    {
      "id": "55130002",
      "lat": 48.55,
      "lon": 5.481,
      "cp": "55130",
      "ville": "Houdelaincourt",
      "prix": {
        "Gazole": 0.002169,
        "SP95": 0.002169,
        "SP98": 0.002219
      },
      "maj_gouv": {
        "Gazole": "2026-06-11 07:58:53",
        "SP95": "2026-06-11 07:58:53",
        "SP98": "2026-06-11 07:58:53"
      }
    },
    {
      "id": "55100004",
      "lat": 49.165,
      "lon": 5.38,
      "cp": "55100",
      "ville": "VERDUN",
      "prix": {
        "Gazole": 0.001994,
        "GPLc": 0.000989,
        "E10": 0.001914,
        "SP98": 0.002004
      },
      "maj_gouv": {
        "Gazole": "2026-06-13 01:15:00",
        "GPLc": "2026-06-13 01:15:00",
        "E10": "2026-06-13 01:15:00",
        "SP98": "2026-06-13 01:15:00"
      }
    },
    {
      "id": "55100007",
      "lat": 49.165,
      "lon": 5.38,
      "cp": "55100",
      "ville": "VERDUN",
      "prix": {
        "Gazole": 0.001992,
        "E85": 0.000829,
        "E10": 0.001988,
        "SP98": 0.00199
      },
      "maj_gouv": {
        "Gazole": "2026-06-13 00:01:00",
        "E85": "2026-06-13 00:01:00",
        "E10": "2026-06-13 00:01:00",
        "SP98": "2026-06-13 00:01:00"
      }
    },
    {
      "id": "55140001",
      "lat": 48.60362,
      "lon": 5.66686,
      "cp": "55140",
      "ville": "VAUCOULEURS",
      "prix": {
        "Gazole": 0.002018,
        "SP95": 0.0020169999999999997,
        "E10": 0.001952
      },
      "maj_gouv": {
        "Gazole": "2026-06-08 08:45:53",
        "SP95": "2026-06-11 19:40:20",
        "E10": "2026-06-11 19:40:21"
      }
    },
    {
      "id": "55400003",
      "lat": 49.217,
      "lon": 5.643,
      "cp": "55400",
      "ville": "ÉTAIN",
      "prix": {
        "Gazole": 0.002059,
        "E10": 0.0019590000000000002,
        "SP98": 0.002069
      },
      "maj_gouv": {
        "Gazole": "2026-06-07 12:22:57",
        "E10": "2026-06-07 12:22:57",
        "SP98": "2026-06-07 12:22:57"
      }
    },
    {
      "id": "55120001",
      "lat": 49.10482979203601,
      "lon": 5.0684536033295,
      "cp": "55120",
      "ville": "Clermont-en-Argonne",
      "prix": {
        "Gazole": 0.001999,
        "SP95": 0.002039,
        "E10": 0.0019590000000000002,
        "SP98": 0.002069
      },
      "maj_gouv": {
        "Gazole": "2026-06-12 09:01:00",
        "SP95": "2026-06-12 09:01:00",
        "E10": "2026-06-12 09:01:00",
        "SP98": "2026-06-12 09:01:00"
      }
    },
    {
      "id": "55190003",
      "lat": 48.686,
      "lon": 5.726,
      "cp": "55190",
      "ville": "PAGNY SUR MEUSE",
      "prix": {
        "Gazole": 0.001917,
        "E10": 0.001921,
        "SP98": 0.00199
      },
      "maj_gouv": {
        "Gazole": "2026-06-13 00:01:00",
        "E10": "2026-06-13 00:01:00",
        "SP98": "2026-06-13 00:01:00"
      }
    },
    {
      "id": "55600001",
      "lat": 49.513,
      "lon": 5.375,
      "cp": "55600",
      "ville": "Montmédy",
      "prix": {
        "Gazole": 0.00199,
        "SP95": 0.0019890000000000003,
        "SP98": 0.002099
      },
      "maj_gouv": {
        "Gazole": "2026-06-03 08:47:56",
        "SP95": "2026-06-03 08:47:56",
        "SP98": "2026-06-03 08:47:57"
      }
    },
    {
      "id": "55300004",
      "lat": 48.889,
      "lon": 5.543,
      "cp": "55300",
      "ville": "SAINT MIHIEL",
      "prix": {
        "Gazole": 0.0019890000000000003,
        "E10": 0.001929,
        "SP98": 0.002039
      },
      "maj_gouv": {
        "Gazole": "2026-06-10 08:35:40",
        "E10": "2026-06-10 08:35:40",
        "SP98": "2026-06-10 08:35:41"
      }
    },
    {
      "id": "55700005",
      "lat": 49.483,
      "lon": 5.202,
      "cp": "55700",
      "ville": "STENAY",
      "prix": {
        "Gazole": 0.0019690000000000003,
        "SP95": 0.0019890000000000003,
        "E85": 0.000809,
        "E10": 0.001925
      },
      "maj_gouv": {
        "Gazole": "2026-06-12 12:55:40",
        "SP95": "2026-06-12 12:55:40",
        "E85": "2026-06-11 07:43:35",
        "E10": "2026-06-12 12:55:40"
      }
    },
    {
      "id": "55210001",
      "lat": 48.98,
      "lon": 5.713,
      "cp": "55210",
      "ville": "VIGNEULLES-LèS-HATTONCHâTEL",
      "prix": {
        "Gazole": 0.002072,
        "E85": 0.0008489999999999999,
        "E10": 0.00199,
        "SP98": 0.00199
      },
      "maj_gouv": {
        "Gazole": "2026-06-12 08:19:31",
        "E85": "2026-06-12 08:19:31",
        "E10": "2026-06-12 08:19:31",
        "SP98": "2026-06-12 08:19:31"
      }
    },
    {
      "id": "55000004",
      "lat": 48.757,
      "lon": 5.192,
      "cp": "55000",
      "ville": "BAR-LE-DUC",
      "prix": {
        "Gazole": 0.001978,
        "E85": 0.0007880000000000001,
        "E10": 0.001916,
        "SP98": 0.002024
      },
      "maj_gouv": {
        "Gazole": "2026-06-13 01:15:00",
        "E85": "2026-06-13 01:15:00",
        "E10": "2026-06-13 01:15:00",
        "SP98": "2026-06-13 01:15:00"
      }
    },
    {
      "id": "55270002",
      "lat": 49.228469477017995,
      "lon": 5.04075420096,
      "cp": "55270",
      "ville": "Varennes-en-Argonne",
      "prix": {
        "Gazole": 0.00206,
        "SP95": 0.0020800000000000003,
        "SP98": 0.00216
      },
      "maj_gouv": {
        "Gazole": "2026-06-03 09:04:37",
        "SP95": "2026-06-03 09:04:37",
        "SP98": "2026-06-03 09:04:37"
      }
    },
    {
      "id": "55500001",
      "lat": 48.677,
      "lon": 5.326,
      "cp": "55500",
      "ville": "Ligny-en-Barrois",
      "prix": {
        "Gazole": 0.00209,
        "SP95": 0.002049,
        "SP98": 0.002149
      },
      "maj_gouv": {
        "Gazole": "2026-06-06 07:52:28",
        "SP95": "2026-06-06 07:52:29",
        "SP98": "2026-04-08 08:58:33"
      }
    },
    {
      "id": "55500003",
      "lat": 48.699,
      "lon": 5.306,
      "cp": "55500",
      "ville": "Velaines",
      "prix": {
        "Gazole": 0.002079,
        "SP95": 0.002149,
        "E85": 0.0008990000000000001
      },
      "maj_gouv": {
        "Gazole": "2026-06-02 22:00:00",
        "SP95": "2026-05-18 08:34:08",
        "E85": "2026-04-17 22:00:00"
      }
    },
    {
      "id": "55500002",
      "lat": 48.68769,
      "lon": 5.32119,
      "cp": "55500",
      "ville": "Ligny-en-Barrois",
      "prix": {
        "Gazole": 0.002124,
        "E10": 0.00199,
        "SP98": 0.00199
      },
      "maj_gouv": {
        "Gazole": "2026-06-12 08:10:41",
        "E10": "2026-06-12 08:10:41",
        "SP98": "2026-06-12 08:10:41"
      }
    },
    {
      "id": "55160015",
      "lat": 49.1,
      "lon": 5.624,
      "cp": "55160",
      "ville": "FRESNES EN WOEVRE",
      "prix": {
        "Gazole": 0.002039,
        "E10": 0.0019890000000000003,
        "SP98": 0.0021190000000000002
      },
      "maj_gouv": {
        "Gazole": "2026-06-12 07:05:53",
        "E10": "2026-06-12 07:05:53",
        "SP98": "2026-06-12 07:05:53"
      }
    },
    {
      "id": "55300003",
      "lat": 48.902,
      "lon": 5.515,
      "cp": "55300",
      "ville": "Chauvoncourt",
      "prix": {
        "Gazole": 0.002011,
        "E85": 0.000798,
        "E10": 0.001933,
        "SP98": 0.00204
      },
      "maj_gouv": {
        "Gazole": "2026-06-09 10:00:39",
        "E85": "2026-06-09 10:00:39",
        "E10": "2026-06-09 10:00:39",
        "SP98": "2026-06-09 10:00:40"
      }
    },
    {
      "id": "55290001",
      "lat": 48.489,
      "lon": 5.355,
      "cp": "55290",
      "ville": "BURE",
      "prix": {
        "Gazole": 0.0019890000000000003,
        "E85": 0.000923,
        "E10": 0.001975
      },
      "maj_gouv": {
        "Gazole": "2026-06-02 18:00:29",
        "E85": "2026-04-03 19:38:32",
        "E10": "2026-06-02 18:00:29"
      }
    },
    {
      "id": "55100003",
      "lat": 49.168,
      "lon": 5.387,
      "cp": "55100",
      "ville": "Verdun",
      "prix": {
        "Gazole": 0.002006,
        "E10": 0.0019479999999999999,
        "SP98": 0.002059
      },
      "maj_gouv": {
        "Gazole": "2026-06-10 06:31:00",
        "E10": "2026-06-10 06:31:00",
        "SP98": "2026-06-10 06:31:00"
      }
    },
    {
      "id": "55210003",
      "lat": 48.976837,
      "lon": 5.701371999999999,
      "cp": "55210",
      "ville": "VIGNEULLES-LES-HATTONCHATEL",
      "prix": {
        "Gazole": 0.0019890000000000003,
        "E10": 0.001916,
        "SP98": 0.002022
      },
      "maj_gouv": {
        "Gazole": "2026-06-10 14:07:44",
        "E10": "2026-06-03 16:51:13",
        "SP98": "2026-06-03 16:51:13"
      }
    },
    {
      "id": "55100001",
      "lat": 49.142,
      "lon": 5.408,
      "cp": "55100",
      "ville": "VERDUN",
      "prix": {
        "Gazole": 0.0019950000000000002,
        "E85": 0.000798,
        "GPLc": 0.00099,
        "E10": 0.001915,
        "SP98": 0.002009
      },
      "maj_gouv": {
        "Gazole": "2026-06-09 10:49:09",
        "E85": "2026-06-12 10:20:54",
        "GPLc": "2026-06-08 10:02:13",
        "E10": "2026-06-09 10:49:09",
        "SP98": "2026-06-09 10:49:09"
      }
    },
    {
      "id": "55300002",
      "lat": 48.888,
      "lon": 5.54,
      "cp": "55300",
      "ville": "Saint-Mihiel",
      "prix": {
        "Gazole": 0.002084,
        "E85": 0.000829,
        "E10": 0.00199,
        "SP98": 0.00199
      },
      "maj_gouv": {
        "Gazole": "2026-06-10 08:03:59",
        "E85": "2026-06-10 08:04:00",
        "E10": "2026-06-10 08:04:00",
        "SP98": "2026-06-10 08:04:00"
      }
    },
    {
      "id": "55000010",
      "lat": 48.767,
      "lon": 5.173,
      "cp": "55000",
      "ville": "Bar-le-Duc",
      "prix": {
        "Gazole": 0.0019950000000000002,
        "E10": 0.001987
      },
      "maj_gouv": {
        "Gazole": "2026-06-13 00:01:00",
        "E10": "2026-06-13 00:01:00"
      }
    },
    {
      "id": "55430001",
      "lat": 49.16840340999,
      "lon": 5.386790042283,
      "cp": "55430",
      "ville": "Belleville-sur-Meuse",
      "prix": {
        "Gazole": 0.001999,
        "E10": 0.001921,
        "SP98": 0.002059
      },
      "maj_gouv": {
        "Gazole": "2026-06-10 09:03:46",
        "E10": "2026-06-10 09:03:47",
        "SP98": "2026-06-10 09:03:47"
      }
    }
  ]
}