{
  "departement": "58",
  "date": "2026-06-13",
  "stations": [
    {
      "id": "58240003",
      "lat": 46.7535171497,
      "lon": 3.1406912128899998,
      "cp": "58240",
      "ville": "Chantenay-Saint-Imbert",
      "prix": {
        "Gazole": 0.001926,
        "E85": 0.000819,
        "E10": 0.001924,
        "SP98": 0.00199
      },
      "maj_gouv": {
        "Gazole": "2026-06-13 00:01:00",
        "E85": "2026-06-13 00:01:00",
        "E10": "2026-06-13 00:01:00",
        "SP98": "2026-06-13 00:01:00"
      }
    },
    {
      "id": "58000010",
      "lat": 46.987,
      "lon": 3.162,
      "cp": "58000",
      "ville": "NEVERS",
      "prix": {
        "Gazole": 0.0019890000000000003,
        "E10": 0.0019690000000000003,
        "SP98": 0.002089
      },
      "maj_gouv": {
        "Gazole": "2026-06-12 17:18:03",
        "E10": "2026-06-12 17:18:03",
        "SP98": "2026-06-12 17:18:03"
      }
    },
    {
      "id": "58800001",
      "lat": 47.255,
      "lon": 3.683,
      "cp": "58800",
      "ville": "CORBIGNY",
      "prix": {
        "Gazole": 0.002028,
        "SP95": 0.002048,
        "SP98": 0.0021579999999999998
      },
      "maj_gouv": {
        "Gazole": "2026-06-11 11:30:00",
        "SP95": "2026-06-11 11:30:00",
        "SP98": "2026-06-11 11:30:00"
      }
    },
    {
      "id": "58260002",
      "lat": 46.881273710453,
      "lon": 3.4646048460411003,
      "cp": "58260",
      "ville": "LA MACHINE",
      "prix": {
        "Gazole": 0.001987,
        "E85": 0.000839,
        "E10": 0.0019450000000000001,
        "SP98": 0.002109
      },
      "maj_gouv": {
        "Gazole": "2026-06-08 13:29:52",
        "E85": "2026-06-02 12:00:58",
        "E10": "2026-06-08 13:29:53",
        "SP98": "2026-06-02 12:00:58"
      }
    },
    {
      "id": "58180001",
      "lat": 46.999,
      "lon": 3.107,
      "cp": "58180",
      "ville": "MARZY",
      "prix": {
        "Gazole": 0.00202,
        "GPLc": 0.000999,
        "E10": 0.001946,
        "SP98": 0.002065
      },
      "maj_gouv": {
        "Gazole": "2026-06-10 00:42:00",
        "GPLc": "2026-04-24 13:24:49",
        "E10": "2026-06-10 00:42:00",
        "SP98": "2026-06-10 00:42:00"
      }
    },
    {
      "id": "58320001",
      "lat": 47.07736,
      "lon": 3.09879,
      "cp": "58320",
      "ville": "Pougues-les-Eaux",
      "prix": {
        "Gazole": 0.001999,
        "SP95": 0.002099,
        "SP98": 0.002079
      },
      "maj_gouv": {
        "Gazole": "2026-06-03 11:09:00",
        "SP95": "2026-06-03 11:09:00",
        "SP98": "2026-06-03 11:09:01"
      }
    },
    {
      "id": "58500001",
      "lat": 47.457,
      "lon": 3.509,
      "cp": "58500",
      "ville": "CLAMECY",
      "prix": {
        "Gazole": 0.001999,
        "SP95": 0.002099,
        "SP98": 0.002149
      },
      "maj_gouv": {
        "Gazole": "2026-06-03 00:00:00",
        "SP95": "2026-06-03 00:00:00",
        "SP98": "2026-06-03 00:00:00"
      }
    },
    {
      "id": "58000007",
      "lat": 46.982,
      "lon": 3.123,
      "cp": "58000",
      "ville": "Nevers",
      "prix": {
        "Gazole": 0.0019690000000000003,
        "E85": 0.0007970000000000001,
        "E10": 0.0019450000000000001,
        "SP98": 0.002039
      },
      "maj_gouv": {
        "Gazole": "2026-06-12 09:06:49",
        "E85": "2026-05-25 10:00:48",
        "E10": "2026-06-12 09:06:49",
        "SP98": "2026-06-12 09:06:50"
      }
    },
    {
      "id": "58310001",
      "lat": 47.52885,
      "lon": 3.07024,
      "cp": "58310",
      "ville": "Saint-Amand-en-Puisaye",
      "prix": {
        "Gazole": 0.001998,
        "SP95": 0.002034,
        "E85": 0.000855
      },
      "maj_gouv": {
        "Gazole": "2026-06-08 07:38:05",
        "SP95": "2026-06-02 08:51:57",
        "E85": "2026-05-22 14:05:16"
      }
    },
    {
      "id": "58140001",
      "lat": 47.282,
      "lon": 3.821,
      "cp": "58140",
      "ville": "LORMES",
      "prix": {
        "Gazole": 0.001999,
        "E10": 0.002099,
        "SP98": 0.002199
      },
      "maj_gouv": {
        "Gazole": "2026-06-03 00:00:00",
        "E10": "2026-06-03 00:00:00",
        "SP98": "2026-06-03 00:00:00"
      }
    },
    {
      "id": "58000002",
      "lat": 47.004,
      "lon": 3.164,
      "cp": "58000",
      "ville": "Nevers",
      "prix": {},
      "maj_gouv": {}
    },
    {
      "id": "58000011",
      "lat": 46.99,
      "lon": 3.187,
      "cp": "58000",
      "ville": "NEVERS",
      "prix": {
        "Gazole": 0.002016,
        "E85": 0.0008309999999999999,
        "E10": 0.00199,
        "SP98": 0.00199
      },
      "maj_gouv": {
        "Gazole": "2026-06-13 00:01:00",
        "E85": "2026-06-13 00:01:00",
        "E10": "2026-06-13 00:01:00",
        "SP98": "2026-06-13 00:01:00"
      }
    },
    {
      "id": "58500003",
      "lat": 47.473772788699996,
      "lon": 3.51936547151,
      "cp": "58500",
      "ville": "CLAMECY",
      "prix": {
        "Gazole": 0.001999,
        "SP95": 0.002029,
        "E85": 0.000819,
        "E10": 0.0019790000000000003,
        "SP98": 0.002059
      },
      "maj_gouv": {
        "Gazole": "2026-05-29 08:24:55",
        "SP95": "2026-06-02 08:17:21",
        "E85": "2026-04-23 08:18:59",
        "E10": "2026-06-02 08:17:22",
        "SP98": "2026-06-09 08:16:48"
      }
    },
    {
      "id": "58170001",
      "lat": 46.79,
      "lon": 3.966,
      "cp": "58170",
      "ville": "LUZY",
      "prix": {
        "Gazole": 0.001999,
        "SP95": 0.002099,
        "E10": 0.002079,
        "SP98": 0.002199
      },
      "maj_gouv": {
        "Gazole": "2026-06-03 00:00:00",
        "SP95": "2026-06-03 00:00:00",
        "E10": "2026-06-03 00:00:00",
        "SP98": "2026-06-03 00:00:00"
      }
    },
    {
      "id": "58600004",
      "lat": 47.013,
      "lon": 3.087,
      "cp": "58600",
      "ville": "FOURCHAMBAULT",
      "prix": {
        "Gazole": 0.0019890000000000003,
        "E10": 0.0019690000000000003,
        "SP98": 0.002099
      },
      "maj_gouv": {
        "Gazole": "2026-06-12 11:14:24",
        "E10": "2026-06-12 11:14:23",
        "SP98": "2026-06-12 11:14:23"
      }
    },
    {
      "id": "58340001",
      "lat": 46.855,
      "lon": 3.642,
      "cp": "58340",
      "ville": "Cercy-la-Tour",
      "prix": {
        "Gazole": 0.001999,
        "SP95": 0.002099,
        "E10": 0.002079,
        "SP98": 0.002149
      },
      "maj_gouv": {
        "Gazole": "2026-06-03 00:00:00",
        "SP95": "2026-06-03 00:00:00",
        "E10": "2026-06-03 00:00:00",
        "SP98": "2026-06-03 00:00:00"
      }
    },
    {
      "id": "58190001",
      "lat": 47.367,
      "lon": 3.587,
      "cp": "58190",
      "ville": "TANNAY",
      "prix": {
        "Gazole": 0.001999,
        "SP95": 0.002029,
        "SP98": 0.002059
      },
      "maj_gouv": {
        "Gazole": "2026-06-12 09:26:48",
        "SP95": "2026-06-12 09:26:49",
        "SP98": "2026-06-12 09:26:49"
      }
    },
    {
      "id": "58160001",
      "lat": 46.922,
      "lon": 3.269,
      "cp": "58160",
      "ville": "IMPHY",
      "prix": {
        "Gazole": 0.001999,
        "SP95": 0.002099,
        "SP98": 0.002199
      },
      "maj_gouv": {
        "Gazole": "2026-06-03 00:00:00",
        "SP95": "2026-06-03 00:00:00",
        "SP98": "2026-06-03 00:00:00"
      }
    },
    {
      "id": "58470003",
      "lat": 46.886,
      "lon": 3.153,
      "cp": "58470",
      "ville": "MAGNY-COURS",
      "prix": {
        "Gazole": 0.002095,
        "E10": 0.002045,
        "SP98": 0.002169
      },
      "maj_gouv": {
        "Gazole": "2026-06-12 16:45:07",
        "E10": "2026-06-12 16:45:08",
        "SP98": "2026-06-12 16:45:08"
      }
    },
    {
      "id": "58160003",
      "lat": 46.94167,
      "lon": 3.25919,
      "cp": "58160",
      "ville": "Sauvigny-les-Bois",
      "prix": {
        "Gazole": 0.0019690000000000003,
        "E10": 0.0019190000000000001,
        "SP98": 0.002029
      },
      "maj_gouv": {
        "Gazole": "2026-06-11 10:47:04",
        "E10": "2026-06-11 10:47:04",
        "SP98": "2026-06-05 09:44:04"
      }
    },
    {
      "id": "58300003",
      "lat": 46.837,
      "lon": 3.465,
      "cp": "58300",
      "ville": "Saint-Léger-des-Vignes",
      "prix": {
        "Gazole": 0.00217,
        "E10": 0.00212,
        "SP98": 0.0021000000000000003
      },
      "maj_gouv": {
        "Gazole": "2026-06-12 18:11:36",
        "E10": "2026-06-12 18:11:36",
        "SP98": "2026-06-12 18:11:36"
      }
    },
    {
      "id": "58700002",
      "lat": 47.175707127422996,
      "lon": 3.3141800673959003,
      "cp": "58700",
      "ville": "PREMERY",
      "prix": {
        "Gazole": 0.002025,
        "E10": 0.001917,
        "SP98": 0.002039
      },
      "maj_gouv": {
        "Gazole": "2026-06-09 09:27:00",
        "E10": "2026-06-09 09:27:00",
        "SP98": "2026-06-09 09:27:00"
      }
    },
    {
      "id": "58000013",
      "lat": 46.987,
      "lon": 3.17,
      "cp": "58000",
      "ville": "NEVERS",
      "prix": {
        "Gazole": 0.001966,
        "E85": 0.000809,
        "GPLc": 0.001105,
        "E10": 0.001915,
        "SP98": 0.002019
      },
      "maj_gouv": {
        "Gazole": "2026-06-12 14:53:28",
        "E85": "2026-06-12 10:51:31",
        "GPLc": "2026-06-05 09:21:05",
        "E10": "2026-06-12 16:04:17",
        "SP98": "2026-06-12 14:53:28"
      }
    },
    {
      "id": "58200008",
      "lat": 47.378,
      "lon": 2.923,
      "cp": "58200",
      "ville": "Cosne cours sur Loire",
      "prix": {
        "E85": 0.000879
      },
      "maj_gouv": {
        "E85": "2026-06-06 08:33:11"
      }
    },
    {
      "id": "58400001",
      "lat": 47.193,
      "lon": 3.014,
      "cp": "58400",
      "ville": "La Charité-sur-Loire",
      "prix": {
        "Gazole": 0.001999,
        "SP95": 0.002099,
        "SP98": 0.002149
      },
      "maj_gouv": {
        "Gazole": "2026-06-03 00:00:00",
        "SP95": "2026-06-03 00:00:00",
        "SP98": "2026-06-03 00:00:00"
      }
    },
    {
      "id": "58200010",
      "lat": 47.427,
      "lon": 2.932,
      "cp": "58200",
      "ville": "Cosne-Cours-sur-Loire",
      "prix": {
        "Gazole": 0.002034,
        "E85": 0.000879,
        "E10": 0.001963,
        "SP98": 0.002088
      },
      "maj_gouv": {
        "Gazole": "2026-06-06 08:32:23",
        "E85": "2026-06-06 08:32:24",
        "E10": "2026-06-06 08:32:24",
        "SP98": "2026-06-06 08:32:24"
      }
    },
    {
      "id": "58130001",
      "lat": 47.089,
      "lon": 3.195,
      "cp": "58130",
      "ville": "GUERIGNY",
      "prix": {
        "Gazole": 0.00198,
        "E85": 0.000798,
        "E10": 0.001949,
        "SP98": 0.002039
      },
      "maj_gouv": {
        "Gazole": "2026-06-08 09:46:30",
        "E85": "2026-05-15 07:18:54",
        "E10": "2026-06-08 09:46:30",
        "SP98": "2026-06-08 09:46:30"
      }
    },
    {
      "id": "58470005",
      "lat": 46.870873780093,
      "lon": 3.1631482733857,
      "cp": "58470",
      "ville": "MAGNY COURS",
      "prix": {
        "Gazole": 0.002189,
        "E85": 0.000989,
        "E10": 0.002139,
        "SP98": 0.0022389999999999997
      },
      "maj_gouv": {
        "Gazole": "2026-06-12 06:00:00",
        "E85": "2026-06-13 06:00:00",
        "E10": "2026-06-12 06:00:00",
        "SP98": "2026-06-12 06:00:00"
      }
    },
    {
      "id": "58200002",
      "lat": 47.39,
      "lon": 2.923,
      "cp": "58200",
      "ville": "COSNE-COURS-SUR-LOIRE",
      "prix": {
        "Gazole": 0.001999,
        "E10": 0.001963,
        "SP98": 0.002088
      },
      "maj_gouv": {
        "Gazole": "2026-06-05 11:27:31",
        "E10": "2026-06-08 11:27:18",
        "SP98": "2026-06-08 11:27:19"
      }
    },
    {
      "id": "58300005",
      "lat": 46.821,
      "lon": 3.452,
      "cp": "58300",
      "ville": "DECIZE",
      "prix": {
        "Gazole": 0.001999,
        "SP95": 0.002029,
        "GPLc": 0.000999,
        "E10": 0.0019590000000000002,
        "SP98": 0.002079
      },
      "maj_gouv": {
        "Gazole": "2026-06-11 09:42:34",
        "SP95": "2026-06-11 09:42:35",
        "GPLc": "2026-05-22 09:03:39",
        "E10": "2026-06-11 09:42:35",
        "SP98": "2026-06-11 09:42:35"
      }
    },
    {
      "id": "58000006",
      "lat": 46.9614851753,
      "lon": 3.15707691285,
      "cp": "58000",
      "ville": "CHALLUY",
      "prix": {
        "Gazole": 0.00199,
        "SP95": 0.002013,
        "E10": 0.001946,
        "SP98": 0.002056
      },
      "maj_gouv": {
        "Gazole": "2026-06-12 08:20:55",
        "SP95": "2026-06-12 08:20:55",
        "E10": "2026-06-12 08:20:55",
        "SP98": "2026-06-12 08:20:56"
      }
    },
    {
      "id": "58240001",
      "lat": 46.79,
      "lon": 3.125,
      "cp": "58240",
      "ville": "Saint-Pierre-le-Moûtier",
      "prix": {
        "Gazole": 0.001999,
        "SP95": 0.002149,
        "E10": 0.002099
      },
      "maj_gouv": {
        "Gazole": "2026-06-03 00:00:00",
        "SP95": "2026-06-03 00:00:00",
        "E10": "2026-06-03 00:00:00"
      }
    },
    {
      "id": "58210001",
      "lat": 47.355,
      "lon": 3.386,
      "cp": "58210",
      "ville": "VARZY",
      "prix": {
        "Gazole": 0.001999,
        "SP95": 0.002089,
        "SP98": 0.002199
      },
      "maj_gouv": {
        "Gazole": "2026-06-03 00:00:00",
        "SP95": "2026-06-03 00:00:00",
        "SP98": "2026-06-03 00:00:00"
      }
    },
    {
      "id": "58800002",
      "lat": 47.255153292817,
      "lon": 3.6841538044451996,
      "cp": "58800",
      "ville": "Corbigny",
      "prix": {
        "Gazole": 0.002028,
        "SP95": 0.002048,
        "SP98": 0.0021579999999999998
      },
      "maj_gouv": {
        "Gazole": "2026-06-11 11:30:00",
        "SP95": "2026-06-11 11:30:00",
        "SP98": "2026-06-11 11:30:00"
      }
    },
    {
      "id": "58410001",
      "lat": 47.463,
      "lon": 3.26,
      "cp": "58410",
      "ville": "Entrains-sur-Nohain",
      "prix": {
        "Gazole": 0.002221,
        "E10": 0.002069
      },
      "maj_gouv": {
        "Gazole": "2026-05-18 14:02:30",
        "E10": "2026-05-18 14:02:30"
      }
    },
    {
      "id": "58290001",
      "lat": 46.983,
      "lon": 3.808,
      "cp": "58290",
      "ville": "MOULINS-ENGILBERT",
      "prix": {
        "Gazole": 0.001999,
        "SP95": 0.002099,
        "SP98": 0.002199
      },
      "maj_gouv": {
        "Gazole": "2026-06-03 00:00:00",
        "SP95": "2026-06-03 00:00:00",
        "SP98": "2026-06-03 00:00:00"
      }
    },
    {
      "id": "58390003",
      "lat": 46.699,
      "lon": 3.352,
      "cp": "58390",
      "ville": "DORNES",
      "prix": {
        "Gazole": 0.001968,
        "E85": 0.000798,
        "E10": 0.001988,
        "SP98": 0.002169
      },
      "maj_gouv": {
        "Gazole": "2026-06-05 12:20:21",
        "E85": "2026-05-30 12:20:20",
        "E10": "2026-06-05 12:20:21",
        "SP98": "2026-05-30 12:20:21"
      }
    },
    {
      "id": "58330001",
      "lat": 47.106,
      "lon": 3.512,
      "cp": "58330",
      "ville": "Saint-Saulge",
      "prix": {
        "Gazole": 0.001999,
        "SP95": 0.002099
      },
      "maj_gouv": {
        "Gazole": "2026-06-03 00:00:00",
        "SP95": "2026-06-03 00:00:00"
      }
    },
    {
      "id": "58230002",
      "lat": 47.199,
      "lon": 4.074,
      "cp": "58230",
      "ville": "MONTSAUCHE LES SETTONS",
      "prix": {
        "Gazole": 0.002078,
        "SP95": 0.0020670000000000003
      },
      "maj_gouv": {
        "Gazole": "2026-06-12 13:52:04",
        "SP95": "2026-06-12 13:52:04"
      }
    },
    {
      "id": "58230001",
      "lat": 47.171,
      "lon": 4.153,
      "cp": "58230",
      "ville": "MOUX-EN-MORVAN",
      "prix": {
        "Gazole": 0.002077,
        "SP95": 0.002068
      },
      "maj_gouv": {
        "Gazole": "2026-06-12 13:50:38",
        "SP95": "2026-06-12 13:50:38"
      }
    },
    {
      "id": "58530001",
      "lat": 47.434217269200005,
      "lon": 3.5887370816099997,
      "cp": "58530",
      "ville": "DORNECY",
      "prix": {
        "Gazole": 0.002049,
        "SP95": 0.002039,
        "SP98": 0.002159
      },
      "maj_gouv": {
        "Gazole": "2026-06-10 12:06:35",
        "SP95": "2026-06-10 12:06:35",
        "SP98": "2026-06-10 12:06:35"
      }
    },
    {
      "id": "58600002",
      "lat": 47.023,
      "lon": 3.08252,
      "cp": "58600",
      "ville": "FOURCHAMBAULT",
      "prix": {
        "Gazole": 0.0019690000000000003,
        "E85": 0.0007970000000000001,
        "E10": 0.0019450000000000001,
        "SP98": 0.002039
      },
      "maj_gouv": {
        "Gazole": "2026-06-12 09:47:22",
        "E85": "2026-06-01 10:12:44",
        "E10": "2026-06-12 09:47:22",
        "SP98": "2026-06-02 14:23:21"
      }
    },
    {
      "id": "58120001",
      "lat": 47.061042785645,
      "lon": 3.9359409809113,
      "cp": "58120",
      "ville": "Château-Chinon",
      "prix": {
        "Gazole": 0.001999,
        "SP95": 0.002079,
        "SP98": 0.002199
      },
      "maj_gouv": {
        "Gazole": "2026-06-03 00:00:00",
        "SP95": "2026-06-03 00:00:00",
        "SP98": "2026-06-03 00:00:00"
      }
    },
    {
      "id": "58110003",
      "lat": 47.052,
      "lon": 3.654,
      "cp": "58110",
      "ville": "Châtillon-en-Bazois",
      "prix": {
        "Gazole": 0.001999,
        "SP95": 0.002099,
        "E10": 0.002079,
        "SP98": 0.002199
      },
      "maj_gouv": {
        "Gazole": "2026-06-03 00:00:00",
        "SP95": "2026-06-03 00:00:00",
        "E10": "2026-06-03 00:00:00",
        "SP98": "2026-06-03 00:00:00"
      }
    },
    {
      "id": "58200003",
      "lat": 47.386,
      "lon": 2.921,
      "cp": "58200",
      "ville": "COSNE-COURS-SUR-LOIRE",
      "prix": {
        "Gazole": 0.001999,
        "E85": 0.0008489999999999999,
        "E10": 0.002049,
        "SP98": 0.002199
      },
      "maj_gouv": {
        "Gazole": "2026-06-03 00:00:00",
        "E85": "2026-06-03 00:00:00",
        "E10": "2026-06-03 00:00:00",
        "SP98": "2026-06-03 00:00:00"
      }
    },
    {
      "id": "58110001",
      "lat": 47.045,
      "lon": 3.643,
      "cp": "58110",
      "ville": "Châtillon-en-Bazois",
      "prix": {
        "Gazole": 0.002139,
        "SP95": 0.00199
      },
      "maj_gouv": {
        "Gazole": "2026-06-11 16:26:46",
        "SP95": "2026-06-11 16:26:46"
      }
    },
    {
      "id": "58300004",
      "lat": 46.836,
      "lon": 3.472,
      "cp": "58300",
      "ville": "DECIZE",
      "prix": {
        "Gazole": 0.0019890000000000003,
        "SP95": 0.002097,
        "E85": 0.000839,
        "E10": 0.0019690000000000003
      },
      "maj_gouv": {
        "Gazole": "2026-06-06 08:57:15",
        "SP95": "2026-06-02 08:52:33",
        "E85": "2026-04-17 09:57:14",
        "E10": "2026-06-02 08:52:33"
      }
    },
    {
      "id": "58640004",
      "lat": 47.00869,
      "lon": 3.15225,
      "cp": "58640",
      "ville": "Varennes-Vauzelles",
      "prix": {
        "Gazole": 0.002021,
        "GPLc": 0.000989,
        "E10": 0.00199
      },
      "maj_gouv": {
        "Gazole": "2026-06-13 00:01:00",
        "GPLc": "2026-06-13 00:01:00",
        "E10": "2026-06-13 00:01:00"
      }
    },
    {
      "id": "58000012",
      "lat": 46.984,
      "lon": 3.211,
      "cp": "58000",
      "ville": "Saint-Éloi",
      "prix": {
        "Gazole": 0.001967,
        "SP95": 0.002012,
        "E10": 0.001916
      },
      "maj_gouv": {
        "Gazole": "2026-06-13 01:15:00",
        "SP95": "2026-06-13 01:15:00",
        "E10": "2026-06-13 01:15:00"
      }
    },
    {
      "id": "58300001",
      "lat": 46.838,
      "lon": 3.479,
      "cp": "58300",
      "ville": "DECIZE",
      "prix": {
        "Gazole": 0.0020099999999999996,
        "E10": 0.001965,
        "SP98": 0.00217
      },
      "maj_gouv": {
        "Gazole": "2026-06-04 18:29:41",
        "E10": "2026-06-02 09:45:14",
        "SP98": "2026-06-04 18:29:41"
      }
    },
    {
      "id": "58000014",
      "lat": 47.000286367501005,
      "lon": 3.1552828522,
      "cp": "58000",
      "ville": "Nevers",
      "prix": {
        "Gazole": 0.002099,
        "SP95": 0.002079,
        "E85": 0.0008990000000000001,
        "GPLc": 0.000999,
        "SP98": 0.002199
      },
      "maj_gouv": {
        "Gazole": "2026-06-02 21:00:00",
        "SP95": "2026-06-02 21:00:00",
        "E85": "2026-05-21 21:00:00",
        "GPLc": "2026-04-22 21:00:00",
        "SP98": "2026-04-22 21:00:00"
      }
    },
    {
      "id": "58200009",
      "lat": 47.412,
      "lon": 2.927,
      "cp": "58200",
      "ville": "Cosne-Cours-sur-Loire",
      "prix": {
        "Gazole": 0.001898
      },
      "maj_gouv": {
        "Gazole": "2026-06-13 00:01:00"
      }
    },
    {
      "id": "58150003",
      "lat": 47.3373,
      "lon": 2.92728,
      "cp": "58150",
      "ville": "Tracy-sur-Loire",
      "prix": {
        "Gazole": 0.00214,
        "E10": 0.00199,
        "SP98": 0.00199
      },
      "maj_gouv": {
        "Gazole": "2026-06-13 00:01:00",
        "E10": "2026-06-13 00:01:00",
        "SP98": "2026-06-13 00:01:00"
      }
    },
    {
      "id": "58660001",
      "lat": 47.011,
      "lon": 3.178,
      "cp": "58660",
      "ville": "Coulanges-lès-Nevers",
      "prix": {
        "Gazole": 0.001984,
        "E85": 0.000772,
        "E10": 0.001916,
        "SP98": 0.00202
      },
      "maj_gouv": {
        "Gazole": "2026-06-13 01:16:00",
        "E85": "2026-06-13 01:16:00",
        "E10": "2026-06-13 01:16:00",
        "SP98": "2026-06-13 01:16:00"
      }
    },
    {
      "id": "58220001",
      "lat": 47.37,
      "lon": 3.127,
      "cp": "58220",
      "ville": "Donzy",
      "prix": {
        "Gazole": 0.001993,
        "E85": 0.000798,
        "E10": 0.001939,
        "SP98": 0.002039
      },
      "maj_gouv": {
        "Gazole": "2026-06-10 07:41:18",
        "E85": "2026-05-29 09:47:10",
        "E10": "2026-06-03 10:11:43",
        "SP98": "2026-06-03 10:11:43"
      }
    },
    {
      "id": "58420002",
      "lat": 47.274,
      "lon": 3.493,
      "cp": "58420",
      "ville": "BRINON-SUR-BEUVRON",
      "prix": {
        "Gazole": 0.002155,
        "SP95": 0.002059
      },
      "maj_gouv": {
        "Gazole": "2026-06-03 12:46:06",
        "SP95": "2026-06-03 12:46:06"
      }
    },
    {
      "id": "58160002",
      "lat": 46.940814257977,
      "lon": 3.2581613048544003,
      "cp": "58160",
      "ville": "SAUVIGNY-LES-BOIS",
      "prix": {
        "Gazole": 0.002179,
        "SP95": 0.00199
      },
      "maj_gouv": {
        "Gazole": "2026-06-10 08:12:19",
        "SP95": "2026-06-10 08:12:19"
      }
    },
    {
      "id": "58400002",
      "lat": 47.183,
      "lon": 3.028,
      "cp": "58400",
      "ville": "La Charité-sur-Loire",
      "prix": {
        "Gazole": 0.0019690000000000003,
        "E85": 0.000798,
        "E10": 0.0019190000000000001,
        "SP98": 0.002029
      },
      "maj_gouv": {
        "Gazole": "2026-06-12 07:50:10",
        "E85": "2026-06-12 07:50:11",
        "E10": "2026-06-12 07:50:11",
        "SP98": "2026-06-12 07:50:11"
      }
    },
    {
      "id": "58270001",
      "lat": 47.005,
      "lon": 3.398,
      "cp": "58270",
      "ville": "Saint-Benin-d'Azy",
      "prix": {
        "Gazole": 0.001997,
        "E10": 0.001953,
        "SP98": 0.00206
      },
      "maj_gouv": {
        "Gazole": "2026-06-12 16:01:21",
        "E10": "2026-06-12 16:01:21",
        "SP98": "2026-06-12 16:01:22"
      }
    },
    {
      "id": "58640001",
      "lat": 47.021,
      "lon": 3.147,
      "cp": "58640",
      "ville": "Varennes-Vauzelles",
      "prix": {
        "Gazole": 0.001966,
        "E85": 0.000771,
        "E10": 0.001915,
        "SP98": 0.002019
      },
      "maj_gouv": {
        "Gazole": "2026-06-12 11:47:03",
        "E85": "2026-06-12 09:58:17",
        "E10": "2026-06-12 11:47:03",
        "SP98": "2026-06-12 11:47:03"
      }
    }
  ]
}