{
  "departement": "69",
  "date": "2026-05-10",
  "stations": [
    {
      "id": "69700002",
      "lat": 45.56,
      "lon": 4.81,
      "cp": "69700",
      "ville": "LOIRE-SUR-RHôNE",
      "prix": {},
      "maj_gouv": {}
    },
    {
      "id": "69480002",
      "lat": 45.943,
      "lon": 4.715,
      "cp": "69480",
      "ville": "Anse",
      "prix": {
        "Gazole": 0.0023490000000000004,
        "SP95": 0.002069,
        "SP98": 0.002129
      },
      "maj_gouv": {
        "Gazole": "2026-05-07 06:27:17",
        "SP95": "2026-05-07 06:27:17",
        "SP98": "2026-05-07 06:27:17"
      }
    },
    {
      "id": "69550003",
      "lat": 45.97868,
      "lon": 4.3202,
      "cp": "69550",
      "ville": "Amplepuis",
      "prix": {
        "Gazole": 0.002169,
        "E85": 0.000819,
        "E10": 0.002039,
        "SP98": 0.002159
      },
      "maj_gouv": {
        "Gazole": "2026-04-30 04:50:51",
        "E85": "2026-04-16 10:15:26",
        "E10": "2026-05-06 04:58:43",
        "SP98": "2026-05-09 04:45:03"
      }
    },
    {
      "id": "69009003",
      "lat": 45.781,
      "lon": 4.801,
      "cp": "69009",
      "ville": "Lyon",
      "prix": {
        "Gazole": 0.002175,
        "E85": 0.000997,
        "E10": 0.002074,
        "SP98": 0.002154
      },
      "maj_gouv": {
        "Gazole": "2026-05-07 11:31:00",
        "E85": "2026-05-07 11:31:00",
        "E10": "2026-05-07 11:31:00",
        "SP98": "2026-05-07 11:31:00"
      }
    },
    {
      "id": "69380004",
      "lat": 45.856,
      "lon": 4.704,
      "cp": "69380",
      "ville": "CIVRIEUX-D'AZERGUES",
      "prix": {
        "Gazole": 0.002109,
        "SP95": 0.00207,
        "E10": 0.002029,
        "SP98": 0.00209
      },
      "maj_gouv": {
        "Gazole": "2026-05-09 09:15:11",
        "SP95": "2026-05-09 09:35:16",
        "E10": "2026-05-09 09:15:11",
        "SP98": "2026-05-09 09:35:16"
      }
    },
    {
      "id": "69500009",
      "lat": 45.739,
      "lon": 4.905,
      "cp": "69500",
      "ville": "BRON",
      "prix": {
        "Gazole": 0.00209,
        "E85": 0.000859,
        "GPLc": 0.001045,
        "E10": 0.00199,
        "SP98": 0.00199
      },
      "maj_gouv": {
        "Gazole": "2026-05-10 00:01:00",
        "E85": "2026-05-10 00:01:00",
        "GPLc": "2026-05-10 00:01:00",
        "E10": "2026-05-10 00:01:00",
        "SP98": "2026-05-10 00:01:00"
      }
    },
    {
      "id": "69250009",
      "lat": 45.872,
      "lon": 4.839,
      "cp": "69250",
      "ville": "Neuville-sur-Saône",
      "prix": {
        "Gazole": 0.00225,
        "SP95": 0.00199
      },
      "maj_gouv": {
        "Gazole": "2026-04-14 08:34:44",
        "SP95": "2026-04-14 08:34:44"
      }
    },
    {
      "id": "69500008",
      "lat": 45.738,
      "lon": 4.894,
      "cp": "69500",
      "ville": "BRON",
      "prix": {
        "Gazole": 0.00209,
        "E10": 0.00199
      },
      "maj_gouv": {
        "Gazole": "2026-05-10 00:01:00",
        "E10": "2026-05-10 00:01:00"
      }
    },
    {
      "id": "69380010",
      "lat": 45.903,
      "lon": 4.73,
      "cp": "69380",
      "ville": "Les Cheres",
      "prix": {
        "Gazole": 0.002387,
        "E85": 0.001004,
        "GPLc": 0.001063,
        "E10": 0.002219,
        "SP98": 0.002319
      },
      "maj_gouv": {
        "Gazole": "2026-05-07 07:41:00",
        "E85": "2026-05-07 07:41:00",
        "GPLc": "2026-05-07 07:41:00",
        "E10": "2026-05-07 07:41:00",
        "SP98": "2026-05-07 07:41:00"
      }
    },
    {
      "id": "69720004",
      "lat": 45.691,
      "lon": 5.038,
      "cp": "69720",
      "ville": "SAINT-LAURENT-DE-MURE",
      "prix": {
        "Gazole": 0.0021509999999999997,
        "SP95": 0.00199,
        "E85": 0.000879
      },
      "maj_gouv": {
        "Gazole": "2026-05-07 07:57:27",
        "SP95": "2026-05-07 07:57:27",
        "E85": "2026-05-07 07:57:27"
      }
    },
    {
      "id": "69110006",
      "lat": 45.748,
      "lon": 4.801,
      "cp": "69110",
      "ville": "SAINTE FOY LES LYON",
      "prix": {
        "Gazole": 0.00209
      },
      "maj_gouv": {
        "Gazole": "2026-05-07 19:15:47"
      }
    },
    {
      "id": "69380008",
      "lat": 45.869,
      "lon": 4.7,
      "cp": "69380",
      "ville": "Chazay-d'Azergues",
      "prix": {
        "Gazole": 0.002169,
        "E10": 0.002029,
        "SP98": 0.002139
      },
      "maj_gouv": {
        "Gazole": "2026-05-06 10:40:29",
        "E10": "2026-05-04 10:10:56",
        "SP98": "2026-05-06 10:40:30"
      }
    },
    {
      "id": "69400016",
      "lat": 46.026,
      "lon": 4.702,
      "cp": "69400",
      "ville": "ARNAS",
      "prix": {},
      "maj_gouv": {}
    },
    {
      "id": "69610001",
      "lat": 45.6997087496,
      "lon": 4.4558671352,
      "cp": "69610",
      "ville": "SOUZY",
      "prix": {
        "Gazole": 0.002184,
        "SP95": 0.002095,
        "E85": 0.0008179999999999999,
        "SP98": 0.002153
      },
      "maj_gouv": {
        "Gazole": "2026-05-08 08:30:14",
        "SP95": "2026-05-08 08:30:14",
        "E85": "2026-05-08 08:30:15",
        "SP98": "2026-05-08 08:30:15"
      }
    },
    {
      "id": "69110004",
      "lat": 45.749,
      "lon": 4.794,
      "cp": "69110",
      "ville": "SAINTE-FOY-LèS-LYON",
      "prix": {
        "Gazole": 0.002249,
        "E10": 0.002129,
        "SP98": 0.002299
      },
      "maj_gouv": {
        "Gazole": "2026-05-09 12:40:01",
        "E10": "2026-05-09 12:40:01",
        "SP98": "2026-05-09 12:40:01"
      }
    },
    {
      "id": "69100030",
      "lat": 45.763,
      "lon": 4.877,
      "cp": "69100",
      "ville": "VILLEURBANNE",
      "prix": {
        "Gazole": 0.002189,
        "E10": 0.002069,
        "SP98": 0.002219
      },
      "maj_gouv": {
        "Gazole": "2026-05-09 12:38:25",
        "E10": "2026-05-09 12:38:25",
        "SP98": "2026-05-09 12:38:25"
      }
    },
    {
      "id": "69260007",
      "lat": 45.922,
      "lon": 4.58,
      "cp": "69620",
      "ville": "Le Bois-d'Oingt",
      "prix": {
        "Gazole": 0.002159,
        "SP95": 0.002099,
        "E10": 0.002049
      },
      "maj_gouv": {
        "Gazole": "2026-05-07 08:50:01",
        "SP95": "2026-05-07 08:50:01",
        "E10": "2026-05-07 08:50:01"
      }
    },
    {
      "id": "69380009",
      "lat": 45.895,
      "lon": 4.732,
      "cp": "69380",
      "ville": "Les Cheres",
      "prix": {
        "Gazole": 0.002379,
        "E10": 0.002212,
        "SP98": 0.002312
      },
      "maj_gouv": {
        "Gazole": "2026-05-07 07:41:00",
        "E10": "2026-05-07 07:41:00",
        "SP98": "2026-05-07 07:41:00"
      }
    },
    {
      "id": "69270002",
      "lat": 45.843,
      "lon": 4.835,
      "cp": "69270",
      "ville": "Rochetaillée-sur-Saône",
      "prix": {
        "Gazole": 0.002145,
        "SP95": 0.002074,
        "E10": 0.0020259999999999996,
        "SP98": 0.002117
      },
      "maj_gouv": {
        "Gazole": "2026-05-09 08:02:34",
        "SP95": "2026-05-09 08:02:34",
        "E10": "2026-05-09 08:02:34",
        "SP98": "2026-05-09 08:02:34"
      }
    },
    {
      "id": "69700012",
      "lat": 45.571,
      "lon": 4.711,
      "cp": "69700",
      "ville": "SAINT ROMAIN EN GIER",
      "prix": {
        "Gazole": 0.002139,
        "GPLc": 0.001339,
        "E10": 0.002019,
        "SP98": 0.002129
      },
      "maj_gouv": {
        "Gazole": "2026-05-10 06:18:41",
        "GPLc": "2026-05-10 06:18:41",
        "E10": "2026-05-10 06:18:41",
        "SP98": "2026-05-10 06:18:41"
      }
    },
    {
      "id": "69800013",
      "lat": 45.702,
      "lon": 4.974,
      "cp": "69800",
      "ville": "Saint-Priest",
      "prix": {
        "Gazole": 0.002254,
        "GPLc": 0.001254,
        "E10": 0.0021739999999999997,
        "SP98": 0.002284
      },
      "maj_gouv": {
        "Gazole": "2026-05-09 12:28:19",
        "GPLc": "2026-05-09 12:28:19",
        "E10": "2026-05-09 12:28:19",
        "SP98": "2026-05-09 12:28:19"
      }
    },
    {
      "id": "69330002",
      "lat": 45.796,
      "lon": 5.048,
      "cp": "69330",
      "ville": "JONAGE",
      "prix": {
        "Gazole": 0.0021720000000000003,
        "SP95": 0.002092,
        "SP98": 0.00218
      },
      "maj_gouv": {
        "Gazole": "2026-05-07 08:12:46",
        "SP95": "2026-05-07 08:12:46",
        "SP98": "2026-05-07 08:12:46"
      }
    },
    {
      "id": "69390007",
      "lat": 45.657118,
      "lon": 4.751501,
      "cp": "69390",
      "ville": "VOURLES",
      "prix": {
        "Gazole": 0.002199,
        "E10": 0.002099,
        "SP98": 0.002199
      },
      "maj_gouv": {
        "Gazole": "2026-05-10 06:00:00",
        "E10": "2026-05-10 06:00:00",
        "SP98": "2026-05-10 06:00:00"
      }
    },
    {
      "id": "69360019",
      "lat": 45.610102262165,
      "lon": 4.8530042057081,
      "cp": "69360",
      "ville": "SIMANDRES",
      "prix": {
        "Gazole": 0.0023490000000000004,
        "E10": 0.002069
      },
      "maj_gouv": {
        "Gazole": "2026-05-07 23:54:00",
        "E10": "2026-05-07 23:54:00"
      }
    },
    {
      "id": "69004020",
      "lat": 45.781,
      "lon": 4.812,
      "cp": "69004",
      "ville": "LYON",
      "prix": {
        "Gazole": 0.002199,
        "E85": 0.000929,
        "E10": 0.002099,
        "SP98": 0.002199
      },
      "maj_gouv": {
        "Gazole": "2026-05-09 21:00:00",
        "E85": "2026-05-09 21:00:00",
        "E10": "2026-05-09 21:00:00",
        "SP98": "2026-05-09 21:00:00"
      }
    },
    {
      "id": "69420002",
      "lat": 45.48751,
      "lon": 4.80054,
      "cp": "69420",
      "ville": "Ampuis",
      "prix": {
        "Gazole": 0.002199,
        "SP95": 0.002099,
        "E85": 0.000799,
        "E10": 0.002059
      },
      "maj_gouv": {
        "Gazole": "2026-04-24 09:05:22",
        "SP95": "2026-05-03 07:00:00",
        "E85": "2026-04-24 09:05:22",
        "E10": "2026-05-03 07:00:00"
      }
    },
    {
      "id": "69530002",
      "lat": 45.668,
      "lon": 4.754,
      "cp": "69530",
      "ville": "Brignais",
      "prix": {
        "Gazole": 0.002229,
        "SP95": 0.002129,
        "SP98": 0.002199
      },
      "maj_gouv": {
        "Gazole": "2026-05-05 11:41:49",
        "SP95": "2026-05-05 11:41:49",
        "SP98": "2026-05-05 11:41:49"
      }
    },
    {
      "id": "69300001",
      "lat": 45.805,
      "lon": 4.859,
      "cp": "69300",
      "ville": "Caluire-et-Cuire",
      "prix": {
        "Gazole": 0.002206,
        "E85": 0.000869,
        "GPLc": 0.001049,
        "E10": 0.0020459999999999996,
        "SP98": 0.0021190000000000002
      },
      "maj_gouv": {
        "Gazole": "2026-05-07 09:28:32",
        "E85": "2026-04-18 12:26:41",
        "GPLc": "2026-04-29 10:24:16",
        "E10": "2026-05-07 09:28:32",
        "SP98": "2026-05-07 09:28:32"
      }
    },
    {
      "id": "69120012",
      "lat": 45.767825073806,
      "lon": 4.9354367858569,
      "cp": "69120",
      "ville": "vaulx en velin",
      "prix": {
        "Gazole": 0.002399,
        "E10": 0.002299,
        "SP98": 0.002399
      },
      "maj_gouv": {
        "Gazole": "2026-05-04 08:47:34",
        "E10": "2026-05-04 08:47:34",
        "SP98": "2026-05-04 08:47:34"
      }
    },
    {
      "id": "69100032",
      "lat": 45.76,
      "lon": 4.901,
      "cp": "69100",
      "ville": "Villeurbanne",
      "prix": {
        "Gazole": 0.002229,
        "E10": 0.002099,
        "SP98": 0.002199
      },
      "maj_gouv": {
        "Gazole": "2026-05-10 06:00:00",
        "E10": "2026-05-10 06:00:00",
        "SP98": "2026-05-10 06:00:00"
      }
    },
    {
      "id": "69560001",
      "lat": 45.528,
      "lon": 4.865,
      "cp": "69560",
      "ville": "Saint-Romain-en-Gal",
      "prix": {
        "Gazole": 0.002199,
        "E10": 0.002099,
        "SP98": 0.002175
      },
      "maj_gouv": {
        "Gazole": "2026-05-03 18:06:16",
        "E10": "2026-05-06 20:21:00",
        "SP98": "2026-05-06 20:21:00"
      }
    },
    {
      "id": "69360013",
      "lat": 45.589,
      "lon": 4.826,
      "cp": "69360",
      "ville": "COMMUNAY",
      "prix": {
        "Gazole": 0.00209,
        "E85": 0.000978,
        "GPLc": 0.001049,
        "E10": 0.00199,
        "SP98": 0.00199
      },
      "maj_gouv": {
        "Gazole": "2026-05-10 00:01:00",
        "E85": "2026-05-10 00:01:00",
        "GPLc": "2026-05-10 00:01:00",
        "E10": "2026-05-10 00:01:00",
        "SP98": "2026-05-10 00:01:00"
      }
    },
    {
      "id": "69007008",
      "lat": 45.727,
      "lon": 4.829,
      "cp": "69007",
      "ville": "LYON",
      "prix": {
        "Gazole": 0.00209,
        "E85": 0.000869,
        "GPLc": 0.001039,
        "E10": 0.00199,
        "SP98": 0.00199
      },
      "maj_gouv": {
        "Gazole": "2026-05-10 00:01:00",
        "E85": "2026-05-10 00:01:00",
        "GPLc": "2026-05-10 00:01:00",
        "E10": "2026-05-10 00:01:00",
        "SP98": "2026-05-10 00:01:00"
      }
    },
    {
      "id": "69360011",
      "lat": 45.652,
      "lon": 4.836,
      "cp": "69360",
      "ville": "Saint-Symphorien-d'Ozon",
      "prix": {
        "Gazole": 0.00209,
        "E85": 0.000998,
        "GPLc": 0.001148,
        "E10": 0.00199,
        "SP98": 0.00199
      },
      "maj_gouv": {
        "Gazole": "2026-05-10 00:01:00",
        "E85": "2026-05-10 00:01:00",
        "GPLc": "2026-05-10 00:01:00",
        "E10": "2026-05-10 00:01:00",
        "SP98": "2026-05-10 00:01:00"
      }
    },
    {
      "id": "69380012",
      "lat": 45.86823328271299,
      "lon": 4.6988427022745,
      "cp": "69380",
      "ville": "Chazay-d'Azergues",
      "prix": {
        "Gazole": 0.002169,
        "E85": 0.0008179999999999999,
        "E10": 0.002029,
        "SP98": 0.002139
      },
      "maj_gouv": {
        "Gazole": "2026-05-06 10:41:02",
        "E85": "2026-04-23 08:27:59",
        "E10": "2026-05-04 10:08:19",
        "SP98": "2026-05-06 10:41:02"
      }
    },
    {
      "id": "69680003",
      "lat": 45.739,
      "lon": 4.957,
      "cp": "69680",
      "ville": "CHASSIEU",
      "prix": {
        "Gazole": 0.00217,
        "E85": 0.0008179999999999999,
        "E10": 0.002016
      },
      "maj_gouv": {
        "Gazole": "2026-05-09 09:30:00",
        "E85": "2026-04-17 08:37:56",
        "E10": "2026-05-09 09:30:00"
      }
    },
    {
      "id": "69970001",
      "lat": 45.65,
      "lon": 4.927,
      "cp": "69970",
      "ville": "CHAPONNAY",
      "prix": {
        "Gazole": 0.0020510000000000003,
        "SP95": 0.002048,
        "E85": 0.0008169999999999999,
        "E10": 0.002018,
        "SP98": 0.002098
      },
      "maj_gouv": {
        "Gazole": "2026-05-07 08:53:40",
        "SP95": "2026-05-07 08:53:40",
        "E85": "2026-05-07 08:53:40",
        "E10": "2026-05-07 08:53:40",
        "SP98": "2026-05-07 08:53:41"
      }
    },
    {
      "id": "69007012",
      "lat": 45.737,
      "lon": 4.824,
      "cp": "69007",
      "ville": "LYON 7",
      "prix": {
        "Gazole": 0.0022890000000000002,
        "SP95": 0.002089,
        "GPLc": 0.001095,
        "SP98": 0.002139
      },
      "maj_gouv": {
        "Gazole": "2026-05-08 06:00:00",
        "SP95": "2026-05-08 06:00:00",
        "GPLc": "2026-05-08 06:00:00",
        "SP98": "2026-05-08 06:00:00"
      }
    },
    {
      "id": "69490001",
      "lat": 45.8802707838,
      "lon": 4.47246388916,
      "cp": "69490",
      "ville": "Saint-Loup",
      "prix": {
        "Gazole": 0.002185,
        "SP95": 0.0021190000000000002,
        "E10": 0.002069
      },
      "maj_gouv": {
        "Gazole": "2026-05-07 10:48:23",
        "SP95": "2026-05-07 10:48:23",
        "E10": "2026-05-07 10:48:23"
      }
    },
    {
      "id": "69002006",
      "lat": 45.735,
      "lon": 4.818,
      "cp": "69002",
      "ville": "LYON",
      "prix": {
        "Gazole": 0.002099,
        "E10": 0.001999,
        "SP98": 0.002089
      },
      "maj_gouv": {
        "Gazole": "2026-05-10 06:20:21",
        "E10": "2026-05-10 06:20:21",
        "SP98": "2026-05-10 06:20:21"
      }
    },
    {
      "id": "69400014",
      "lat": 45.979699317316005,
      "lon": 4.717367966048401,
      "cp": "69400",
      "ville": "Villefranche-sur-Saône",
      "prix": {
        "Gazole": 0.00209,
        "E85": 0.000889,
        "E10": 0.00199
      },
      "maj_gouv": {
        "Gazole": "2026-05-10 00:01:00",
        "E85": "2026-05-10 00:01:00",
        "E10": "2026-05-10 00:01:00"
      }
    },
    {
      "id": "69200003",
      "lat": 45.73012,
      "lon": 4.85621,
      "cp": "69200",
      "ville": "VéNISSIEUX",
      "prix": {
        "Gazole": 0.002199,
        "E85": 0.00085,
        "E10": 0.002096,
        "SP98": 0.0022069999999999998
      },
      "maj_gouv": {
        "Gazole": "2026-05-07 16:04:41",
        "E85": "2026-05-07 16:04:41",
        "E10": "2026-05-07 16:04:41",
        "SP98": "2026-05-07 16:04:41"
      }
    },
    {
      "id": "69400007",
      "lat": 45.97,
      "lon": 4.672,
      "cp": "69400",
      "ville": "Porte des Pierres Dorées",
      "prix": {
        "Gazole": 0.002229,
        "E85": 0.0008990000000000001,
        "E10": 0.002099,
        "SP98": 0.002199
      },
      "maj_gouv": {
        "Gazole": "2026-05-09 20:00:00",
        "E85": "2026-05-09 20:00:00",
        "E10": "2026-05-09 20:00:00",
        "SP98": "2026-05-09 20:00:00"
      }
    },
    {
      "id": "69100031",
      "lat": 45.771,
      "lon": 4.867,
      "cp": "69100",
      "ville": "VILLEURBANNE",
      "prix": {
        "Gazole": 0.0022789999999999998,
        "E10": 0.002159,
        "SP98": 0.0023090000000000003
      },
      "maj_gouv": {
        "Gazole": "2026-05-09 12:37:21",
        "E10": "2026-05-09 12:37:20",
        "SP98": "2026-05-09 12:37:20"
      }
    },
    {
      "id": "69200001",
      "lat": 45.717704140585994,
      "lon": 4.8730545992255,
      "cp": "69200",
      "ville": "VéNISSIEUX",
      "prix": {
        "Gazole": 0.00217,
        "SP95": 0.0021219999999999998,
        "GPLc": 0.000949,
        "E10": 0.0020169999999999997,
        "SP98": 0.0022040000000000002
      },
      "maj_gouv": {
        "Gazole": "2026-05-07 14:30:00",
        "SP95": "2026-05-07 14:30:00",
        "GPLc": "2026-05-07 14:30:00",
        "E10": "2026-05-07 14:30:00",
        "SP98": "2026-05-07 14:30:00"
      }
    },
    {
      "id": "69540001",
      "lat": 45.688,
      "lon": 4.825,
      "cp": "69540",
      "ville": "Irigny",
      "prix": {
        "Gazole": 0.00219,
        "SP95": 0.002106,
        "SP98": 0.002193
      },
      "maj_gouv": {
        "Gazole": "2026-05-09 07:13:22",
        "SP95": "2026-05-09 07:13:23",
        "SP98": "2026-05-09 07:13:23"
      }
    },
    {
      "id": "69220005",
      "lat": 46.107,
      "lon": 4.733,
      "cp": "69220",
      "ville": "BELLEVILLE",
      "prix": {
        "Gazole": 0.0023090000000000003,
        "E10": 0.002229,
        "SP98": 0.002299
      },
      "maj_gouv": {
        "Gazole": "2026-05-07 08:03:36",
        "E10": "2026-05-07 08:03:36",
        "SP98": "2026-05-07 08:03:36"
      }
    },
    {
      "id": "69400015",
      "lat": 46.005,
      "lon": 4.708,
      "cp": "69400",
      "ville": "Gleizé",
      "prix": {
        "Gazole": 0.0022389999999999997,
        "E85": 0.0008179999999999999,
        "E10": 0.002049,
        "SP98": 0.002169
      },
      "maj_gouv": {
        "Gazole": "2026-05-09 13:21:39",
        "E85": "2026-05-04 10:16:58",
        "E10": "2026-05-09 09:51:28",
        "SP98": "2026-05-09 09:51:29"
      }
    },
    {
      "id": "69620003",
      "lat": 45.907,
      "lon": 4.576,
      "cp": "69620",
      "ville": "LEGNY",
      "prix": {
        "Gazole": 0.002159,
        "E85": 0.0008489999999999999,
        "E10": 0.002059,
        "SP98": 0.002159
      },
      "maj_gouv": {
        "Gazole": "2026-05-09 14:08:03",
        "E85": "2026-04-21 11:44:00",
        "E10": "2026-05-04 13:17:34",
        "SP98": "2026-05-04 13:17:34"
      }
    },
    {
      "id": "69600004",
      "lat": 45.719,
      "lon": 4.81,
      "cp": "69600",
      "ville": "Oullins",
      "prix": {
        "Gazole": 0.0022890000000000002,
        "SP95": 0.002089,
        "E10": 0.002059,
        "SP98": 0.002139
      },
      "maj_gouv": {
        "Gazole": "2026-05-07 23:54:00",
        "SP95": "2026-05-07 23:54:00",
        "E10": "2026-05-07 23:54:00",
        "SP98": "2026-05-07 23:54:00"
      }
    },
    {
      "id": "69220006",
      "lat": 46.104,
      "lon": 4.747,
      "cp": "69220",
      "ville": "Belleville",
      "prix": {
        "Gazole": 0.002189,
        "E85": 0.000819,
        "GPLc": 0.001059,
        "E10": 0.002029,
        "SP98": 0.002169
      },
      "maj_gouv": {
        "Gazole": "2026-04-28 14:18:27",
        "E85": "2026-04-16 11:20:51",
        "GPLc": "2026-04-03 14:27:36",
        "E10": "2026-04-29 16:46:47",
        "SP98": "2026-05-05 10:12:13"
      }
    },
    {
      "id": "69470003",
      "lat": 46.10541,
      "lon": 4.32238,
      "cp": "69470",
      "ville": "Cours-la-Ville",
      "prix": {
        "Gazole": 0.002169,
        "SP95": 0.002099
      },
      "maj_gouv": {
        "Gazole": "2026-05-06 10:18:04",
        "SP95": "2026-04-10 13:31:16"
      }
    },
    {
      "id": "69110005",
      "lat": 45.741955,
      "lon": 4.797524,
      "cp": "69110",
      "ville": "Sainte-Foy-lès-Lyon",
      "prix": {
        "Gazole": 0.002159,
        "E10": 0.002029,
        "SP98": 0.002159
      },
      "maj_gouv": {
        "Gazole": "2026-05-07 07:37:34",
        "E10": "2026-05-07 07:37:34",
        "SP98": "2026-05-07 07:37:34"
      }
    },
    {
      "id": "69440001",
      "lat": 45.615212069481,
      "lon": 4.7046695067427,
      "cp": "69440",
      "ville": "MORNANT",
      "prix": {
        "Gazole": 0.002229,
        "E85": 0.000929,
        "GPLc": 0.001089,
        "E10": 0.002089,
        "SP98": 0.002199
      },
      "maj_gouv": {
        "Gazole": "2026-05-07 10:23:58",
        "E85": "2026-04-28 15:26:37",
        "GPLc": "2026-04-13 15:18:20",
        "E10": "2026-05-04 08:34:14",
        "SP98": "2026-05-04 08:34:15"
      }
    },
    {
      "id": "69140005",
      "lat": 45.817,
      "lon": 4.891,
      "cp": "69140",
      "ville": "RILLIEUX-LA-PAPE",
      "prix": {
        "Gazole": 0.002169,
        "E10": 0.002039,
        "SP98": 0.0021739999999999997
      },
      "maj_gouv": {
        "Gazole": "2026-05-07 08:10:49",
        "E10": "2026-05-07 08:10:49",
        "SP98": "2026-05-07 08:10:49"
      }
    },
    {
      "id": "69780002",
      "lat": 45.647,
      "lon": 5.027,
      "cp": "69780",
      "ville": "ST PIERRE DE CHANDIEU",
      "prix": {
        "Gazole": 0.002159,
        "E10": 0.001998,
        "SP98": 0.002109
      },
      "maj_gouv": {
        "Gazole": "2026-04-30 12:29:45",
        "E10": "2026-05-05 12:48:49",
        "SP98": "2026-04-30 12:29:45"
      }
    },
    {
      "id": "69170004",
      "lat": 45.891,
      "lon": 4.446,
      "cp": "69170",
      "ville": "TARARE",
      "prix": {},
      "maj_gouv": {}
    },
    {
      "id": "69500011",
      "lat": 45.752,
      "lon": 4.9,
      "cp": "69500",
      "ville": "Bron",
      "prix": {
        "Gazole": 0.0022890000000000002,
        "SP95": 0.002089,
        "E10": 0.002059
      },
      "maj_gouv": {
        "Gazole": "2026-05-07 21:00:00",
        "SP95": "2026-05-07 21:00:00",
        "E10": "2026-05-07 21:00:00"
      }
    },
    {
      "id": "69480007",
      "lat": 45.944469311111995,
      "lon": 4.7145719447083,
      "cp": "69480",
      "ville": "ANSE",
      "prix": {
        "Gazole": 0.002229,
        "E10": 0.002099,
        "SP98": 0.002199
      },
      "maj_gouv": {
        "Gazole": "2026-05-09 20:00:00",
        "E10": "2026-05-09 20:00:00",
        "SP98": "2026-05-09 20:00:00"
      }
    },
    {
      "id": "69720005",
      "lat": 45.69743504511,
      "lon": 5.0153391224454,
      "cp": "69720",
      "ville": "SAINT-BONNET-DE-MURE",
      "prix": {
        "Gazole": 0.002169,
        "E10": 0.002039,
        "SP98": 0.002159
      },
      "maj_gouv": {
        "Gazole": "2026-05-06 07:22:41",
        "E10": "2026-05-06 07:22:41",
        "SP98": "2026-05-06 07:22:41"
      }
    },
    {
      "id": "69220011",
      "lat": 46.143062121949,
      "lon": 4.7675357889549,
      "cp": "69220",
      "ville": "Dracé",
      "prix": {
        "Gazole": 0.002163,
        "E85": 0.001193,
        "E10": 0.002124,
        "SP98": 0.002234
      },
      "maj_gouv": {
        "Gazole": "2026-05-09 10:40:00",
        "E85": "2026-05-09 10:23:22",
        "E10": "2026-05-09 10:23:22",
        "SP98": "2026-05-09 10:23:23"
      }
    },
    {
      "id": "69803001",
      "lat": 45.72,
      "lon": 4.924,
      "cp": "69800",
      "ville": "Saint-Priest",
      "prix": {
        "Gazole": 0.0021219999999999998,
        "GPLc": 0.0010509999999999999,
        "E10": 0.002003,
        "SP98": 0.00212
      },
      "maj_gouv": {
        "Gazole": "2026-05-07 08:59:07",
        "GPLc": "2026-04-22 09:25:39",
        "E10": "2026-05-07 08:59:07",
        "SP98": "2026-05-07 08:59:07"
      }
    },
    {
      "id": "69100029",
      "lat": 45.778,
      "lon": 4.86,
      "cp": "69100",
      "ville": "VILLEURBANNE",
      "prix": {
        "Gazole": 0.002219,
        "E10": 0.002099,
        "SP98": 0.002269
      },
      "maj_gouv": {
        "Gazole": "2026-05-10 06:24:19",
        "E10": "2026-05-10 06:24:19",
        "SP98": "2026-05-10 06:24:19"
      }
    },
    {
      "id": "69651002",
      "lat": 45.994,
      "lon": 4.742,
      "cp": "69400",
      "ville": "VILLEFRANCHE-SUR-SAôNE",
      "prix": {
        "Gazole": 0.002231,
        "E10": 0.002115,
        "SP98": 0.002242
      },
      "maj_gouv": {
        "Gazole": "2026-05-07 13:25:00",
        "E10": "2026-05-07 13:25:00",
        "SP98": "2026-05-07 13:25:00"
      }
    },
    {
      "id": "69003012",
      "lat": 45.747,
      "lon": 4.867,
      "cp": "69003",
      "ville": "Lyon",
      "prix": {
        "Gazole": 0.0022890000000000002,
        "SP95": 0.002089,
        "E10": 0.002059
      },
      "maj_gouv": {
        "Gazole": "2026-05-07 20:50:00",
        "SP95": "2026-05-07 20:50:00",
        "E10": "2026-05-07 20:50:00"
      }
    },
    {
      "id": "69310004",
      "lat": 45.69935,
      "lon": 4.82364,
      "cp": "69310",
      "ville": "Pierre-Bénite",
      "prix": {
        "Gazole": 0.00209,
        "GPLc": 0.001059,
        "E10": 0.00199
      },
      "maj_gouv": {
        "Gazole": "2026-05-10 00:01:00",
        "GPLc": "2026-05-10 00:01:00",
        "E10": "2026-05-10 00:01:00"
      }
    },
    {
      "id": "69460006",
      "lat": 46.044,
      "lon": 4.673,
      "cp": "69460",
      "ville": "Blacé",
      "prix": {
        "Gazole": 0.002285,
        "E85": 0.00095,
        "E10": 0.00211,
        "SP98": 0.00222
      },
      "maj_gouv": {
        "Gazole": "2026-04-29 14:46:42",
        "E85": "2026-03-30 10:55:49",
        "E10": "2026-04-29 14:46:42",
        "SP98": "2026-04-29 14:46:43"
      }
    },
    {
      "id": "69850001",
      "lat": 45.65965,
      "lon": 4.56564,
      "cp": "69850",
      "ville": "Saint-Martin-en-Haut",
      "prix": {
        "Gazole": 0.00209,
        "E85": 0.000889,
        "E10": 0.00199
      },
      "maj_gouv": {
        "Gazole": "2026-05-08 20:49:47",
        "E85": "2026-04-15 07:48:33",
        "E10": "2026-04-09 17:25:28"
      }
    },
    {
      "id": "69480005",
      "lat": 45.956,
      "lon": 4.715,
      "cp": "69480",
      "ville": "ANSE",
      "prix": {
        "Gazole": 0.002159,
        "E85": 0.0008489999999999999,
        "E10": 0.002059,
        "SP98": 0.002159
      },
      "maj_gouv": {
        "Gazole": "2026-05-09 14:06:15",
        "E85": "2026-04-21 11:43:12",
        "E10": "2026-05-07 09:03:07",
        "SP98": "2026-05-07 09:03:07"
      }
    },
    {
      "id": "69003013",
      "lat": 45.7544602,
      "lon": 4.8528365475131,
      "cp": "69003",
      "ville": "LYON",
      "prix": {
        "Gazole": 0.0022890000000000002,
        "SP95": 0.002089,
        "GPLc": 0.001095,
        "E10": 0.002059
      },
      "maj_gouv": {
        "Gazole": "2026-05-06 21:45:00",
        "SP95": "2026-05-07 21:45:00",
        "GPLc": "2026-05-06 21:45:00",
        "E10": "2026-05-07 21:45:00"
      }
    },
    {
      "id": "69270004",
      "lat": 45.82109,
      "lon": 4.86263,
      "cp": "69270",
      "ville": "Fontaines-sur-Saône",
      "prix": {
        "Gazole": 0.00209,
        "E10": 0.00199,
        "SP98": 0.00199
      },
      "maj_gouv": {
        "Gazole": "2026-05-10 00:01:00",
        "E10": "2026-05-10 00:01:00",
        "SP98": "2026-05-10 00:01:00"
      }
    },
    {
      "id": "69210009",
      "lat": 45.825,
      "lon": 4.669,
      "cp": "69210",
      "ville": "LENTILLY",
      "prix": {
        "Gazole": 0.0023490000000000004,
        "SP95": 0.002099
      },
      "maj_gouv": {
        "Gazole": "2026-05-07 00:00:00",
        "SP95": "2026-05-07 21:00:00"
      }
    },
    {
      "id": "69570005",
      "lat": 45.808768531846006,
      "lon": 4.7695929893495,
      "cp": "69570",
      "ville": "DARDILLY",
      "prix": {
        "Gazole": 0.00209,
        "GPLc": 0.001048,
        "E10": 0.00199,
        "SP98": 0.00199
      },
      "maj_gouv": {
        "Gazole": "2026-05-10 00:01:00",
        "GPLc": "2026-05-10 00:01:00",
        "E10": "2026-05-10 00:01:00",
        "SP98": "2026-05-10 00:01:00"
      }
    },
    {
      "id": "69160005",
      "lat": 45.766,
      "lon": 4.784,
      "cp": "69160",
      "ville": "TASSIN LA DEMI LUNE",
      "prix": {
        "Gazole": 0.0022890000000000002,
        "SP95": 0.002089,
        "E85": 0.000998,
        "SP98": 0.002159
      },
      "maj_gouv": {
        "Gazole": "2026-05-06 21:00:00",
        "SP95": "2026-05-07 20:57:00",
        "E85": "2026-04-10 20:33:00",
        "SP98": "2026-05-07 20:57:00"
      }
    },
    {
      "id": "69800015",
      "lat": 45.701266767444,
      "lon": 4.9188923985421,
      "cp": "69800",
      "ville": "Saint-Priest",
      "prix": {
        "Gazole": 0.00209,
        "E10": 0.00199,
        "SP98": 0.00199
      },
      "maj_gouv": {
        "Gazole": "2026-05-10 00:01:00",
        "E10": "2026-05-10 00:01:00",
        "SP98": "2026-05-10 00:01:00"
      }
    },
    {
      "id": "69700005",
      "lat": 45.595,
      "lon": 4.771,
      "cp": "69700",
      "ville": "Givors",
      "prix": {
        "Gazole": 0.002159,
        "E85": 0.0008179999999999999,
        "E10": 0.002029,
        "SP98": 0.002149
      },
      "maj_gouv": {
        "Gazole": "2026-05-07 11:40:20",
        "E85": "2026-05-05 08:09:14",
        "E10": "2026-05-07 11:40:20",
        "SP98": "2026-05-07 11:40:20"
      }
    },
    {
      "id": "69870002",
      "lat": 46.035,
      "lon": 4.495,
      "cp": "69870",
      "ville": "Lamure-sur-Azergues",
      "prix": {
        "Gazole": 0.0021680000000000002,
        "E10": 0.002029,
        "SP98": 0.002146
      },
      "maj_gouv": {
        "Gazole": "2026-05-06 09:28:00",
        "E10": "2026-05-06 09:28:00",
        "SP98": "2026-05-06 09:28:00"
      }
    },
    {
      "id": "69300011",
      "lat": 45.797,
      "lon": 4.852,
      "cp": "69300",
      "ville": "Caluire-et-Cuire",
      "prix": {
        "Gazole": 0.00209,
        "E10": 0.00199,
        "SP98": 0.00199
      },
      "maj_gouv": {
        "Gazole": "2026-05-09 09:17:09",
        "E10": "2026-05-09 09:17:09",
        "SP98": "2026-05-09 09:17:09"
      }
    },
    {
      "id": "69410007",
      "lat": 45.80097685,
      "lon": 4.78668288,
      "cp": "69410",
      "ville": "Champagne-au-Mont-d'Or",
      "prix": {
        "Gazole": 0.00209,
        "E85": 0.000925,
        "E10": 0.00199,
        "SP98": 0.00199
      },
      "maj_gouv": {
        "Gazole": "2026-05-10 00:01:00",
        "E85": "2026-05-10 00:01:00",
        "E10": "2026-05-10 00:01:00",
        "SP98": "2026-05-10 00:01:00"
      }
    },
    {
      "id": "69130005",
      "lat": 45.780655647582996,
      "lon": 4.7676834360596,
      "cp": "69130",
      "ville": "Écully",
      "prix": {
        "Gazole": 0.00209
      },
      "maj_gouv": {
        "Gazole": "2026-05-09 10:11:37"
      }
    },
    {
      "id": "69290002",
      "lat": 45.741,
      "lon": 4.692,
      "cp": "69290",
      "ville": "Grézieu-la-Varenne",
      "prix": {
        "Gazole": 0.002177,
        "SP95": 0.002089,
        "E10": 0.002048,
        "SP98": 0.002118
      },
      "maj_gouv": {
        "Gazole": "2026-05-09 16:06:52",
        "SP95": "2026-05-09 16:06:52",
        "E10": "2026-05-09 16:06:52",
        "SP98": "2026-05-09 16:06:52"
      }
    },
    {
      "id": "69658001",
      "lat": 45.997,
      "lon": 4.734,
      "cp": "69400",
      "ville": "VILLEFRANCHE-SUR-SAONE",
      "prix": {
        "Gazole": 0.002249,
        "GPLc": 0.000999,
        "E10": 0.002047,
        "SP98": 0.002146
      },
      "maj_gouv": {
        "Gazole": "2026-05-06 09:36:11",
        "GPLc": "2026-05-06 09:36:11",
        "E10": "2026-05-06 09:36:11",
        "SP98": "2026-05-06 09:36:12"
      }
    },
    {
      "id": "69126001",
      "lat": 45.729,
      "lon": 4.703,
      "cp": "69126",
      "ville": "Brindas",
      "prix": {
        "Gazole": 0.002229,
        "SP95": 0.002109,
        "E10": 0.002069,
        "SP98": 0.002159
      },
      "maj_gouv": {
        "Gazole": "2026-05-04 11:10:25",
        "SP95": "2026-05-04 11:10:25",
        "E10": "2026-05-04 11:10:25",
        "SP98": "2026-05-04 11:10:25"
      }
    },
    {
      "id": "69008007",
      "lat": 45.737,
      "lon": 4.869,
      "cp": "69008",
      "ville": "LYON",
      "prix": {
        "Gazole": 0.00209,
        "E10": 0.00199
      },
      "maj_gouv": {
        "Gazole": "2026-05-10 00:01:00",
        "E10": "2026-05-10 00:01:00"
      }
    },
    {
      "id": "69200009",
      "lat": 45.69,
      "lon": 4.891,
      "cp": "69200",
      "ville": "VENISSIEUX",
      "prix": {
        "Gazole": 0.00209
      },
      "maj_gouv": {
        "Gazole": "2026-05-10 00:01:00"
      }
    },
    {
      "id": "69009008",
      "lat": 45.762,
      "lon": 4.803,
      "cp": "69009",
      "ville": "LYON",
      "prix": {
        "Gazole": 0.00209,
        "E85": 0.000919,
        "E10": 0.00199
      },
      "maj_gouv": {
        "Gazole": "2026-05-10 00:01:00",
        "E85": "2026-05-10 00:01:00",
        "E10": "2026-05-10 00:01:00"
      }
    },
    {
      "id": "69210005",
      "lat": 45.823,
      "lon": 4.607,
      "cp": "69210",
      "ville": "L'Arbresle",
      "prix": {
        "Gazole": 0.002129,
        "E10": 0.002069,
        "SP98": 0.002149
      },
      "maj_gouv": {
        "Gazole": "2026-05-09 09:40:26",
        "E10": "2026-04-29 08:32:37",
        "SP98": "2026-04-29 08:32:37"
      }
    },
    {
      "id": "69620004",
      "lat": 45.926809731868005,
      "lon": 4.5581772426513,
      "cp": "69620",
      "ville": "val d'oingt",
      "prix": {
        "Gazole": 0.002216,
        "E10": 0.002114,
        "SP98": 0.002184
      },
      "maj_gouv": {
        "Gazole": "2026-05-07 19:59:05",
        "E10": "2026-05-07 19:59:05",
        "SP98": "2026-05-07 19:59:05"
      }
    },
    {
      "id": "69009007",
      "lat": 45.774985870102,
      "lon": 4.794280054244901,
      "cp": "69009",
      "ville": "LYON",
      "prix": {
        "Gazole": 0.00209,
        "E10": 0.00199
      },
      "maj_gouv": {
        "Gazole": "2026-05-10 00:01:00",
        "E10": "2026-05-10 00:01:00"
      }
    },
    {
      "id": "69800016",
      "lat": 45.686,
      "lon": 4.945,
      "cp": "69800",
      "ville": "Saint-Priest",
      "prix": {
        "Gazole": 0.00209,
        "E10": 0.00199
      },
      "maj_gouv": {
        "Gazole": "2026-05-10 00:01:00",
        "E10": "2026-05-10 00:01:00"
      }
    },
    {
      "id": "69380007",
      "lat": 45.874,
      "lon": 4.748,
      "cp": "69380",
      "ville": "LISSIEU",
      "prix": {
        "Gazole": 0.0023490000000000004,
        "SP95": 0.002089,
        "E10": 0.002059,
        "SP98": 0.002149
      },
      "maj_gouv": {
        "Gazole": "2026-05-07 21:30:00",
        "SP95": "2026-05-07 21:30:00",
        "E10": "2026-05-07 21:30:00",
        "SP98": "2026-05-07 21:30:00"
      }
    },
    {
      "id": "69190010",
      "lat": 45.707,
      "lon": 4.843,
      "cp": "69190",
      "ville": "ST FONS",
      "prix": {
        "Gazole": 0.002099,
        "E10": 0.001999,
        "SP98": 0.002149
      },
      "maj_gouv": {
        "Gazole": "2026-05-10 06:20:59",
        "E10": "2026-05-10 06:20:59",
        "SP98": "2026-05-10 06:20:59"
      }
    },
    {
      "id": "69004016",
      "lat": 45.779,
      "lon": 4.828,
      "cp": "69004",
      "ville": "LYON",
      "prix": {
        "Gazole": 0.002199,
        "E10": 0.002099,
        "SP98": 0.002199
      },
      "maj_gouv": {
        "Gazole": "2026-05-09 21:00:00",
        "E10": "2026-05-09 21:00:00",
        "SP98": "2026-05-09 21:00:00"
      }
    },
    {
      "id": "69800010",
      "lat": 45.693695659999996,
      "lon": 4.94000494,
      "cp": "69800",
      "ville": "SAINT-PRIEST",
      "prix": {
        "Gazole": 0.00229,
        "SP95": 0.002059,
        "SP98": 0.002129
      },
      "maj_gouv": {
        "Gazole": "2026-04-24 09:31:36",
        "SP95": "2026-04-24 09:31:36",
        "SP98": "2026-04-24 09:31:36"
      }
    },
    {
      "id": "69230005",
      "lat": 45.702,
      "lon": 4.796,
      "cp": "69230",
      "ville": "Saint-Genis-Laval",
      "prix": {
        "Gazole": 0.0022890000000000002,
        "E85": 0.001109,
        "E10": 0.002099,
        "SP98": 0.002179
      },
      "maj_gouv": {
        "Gazole": "2026-05-08 11:39:39",
        "E85": "2026-05-08 11:39:39",
        "E10": "2026-05-08 11:39:39",
        "SP98": "2026-05-08 11:39:39"
      }
    },
    {
      "id": "69004002",
      "lat": 45.776,
      "lon": 4.821,
      "cp": "69004",
      "ville": "Lyon",
      "prix": {
        "Gazole": 0.002245,
        "E85": 0.000998,
        "E10": 0.002085,
        "SP98": 0.002165
      },
      "maj_gouv": {
        "Gazole": "2026-05-07 12:20:00",
        "E85": "2026-05-07 12:20:00",
        "E10": "2026-05-07 12:20:00",
        "SP98": "2026-05-07 12:20:00"
      }
    },
    {
      "id": "69132001",
      "lat": 45.787,
      "lon": 4.777,
      "cp": "69130",
      "ville": "ÉCULLY",
      "prix": {
        "Gazole": 0.00219,
        "SP95": 0.002047,
        "E85": 0.0009699999999999999,
        "GPLc": 0.00099,
        "E10": 0.002019,
        "SP98": 0.002164
      },
      "maj_gouv": {
        "Gazole": "2026-05-08 22:48:00",
        "SP95": "2026-05-08 22:48:00",
        "E85": "2026-05-08 22:48:00",
        "GPLc": "2026-04-24 08:19:00",
        "E10": "2026-05-08 22:48:00",
        "SP98": "2026-05-08 22:48:00"
      }
    },
    {
      "id": "69190009",
      "lat": 45.703,
      "lon": 4.85,
      "cp": "69190",
      "ville": "Saint Fons",
      "prix": {
        "Gazole": 0.002199,
        "E85": 0.000869,
        "E10": 0.002099,
        "SP98": 0.002199
      },
      "maj_gouv": {
        "Gazole": "2026-05-10 06:00:00",
        "E85": "2026-05-10 06:00:00",
        "E10": "2026-05-10 06:00:00",
        "SP98": "2026-05-10 06:00:00"
      }
    },
    {
      "id": "69130003",
      "lat": 45.779,
      "lon": 4.779,
      "cp": "69130",
      "ville": "Écully",
      "prix": {
        "Gazole": 0.002199,
        "E10": 0.002028,
        "SP98": 0.002108
      },
      "maj_gouv": {
        "Gazole": "2026-05-08 07:40:00",
        "E10": "2026-05-08 07:40:00",
        "SP98": "2026-05-08 07:40:00"
      }
    },
    {
      "id": "69200005",
      "lat": 45.71,
      "lon": 4.883,
      "cp": "69200",
      "ville": "Vénissieux",
      "prix": {
        "Gazole": 0.0021709999999999998,
        "E10": 0.002054,
        "SP98": 0.002134
      },
      "maj_gouv": {
        "Gazole": "2026-05-08 06:31:00",
        "E10": "2026-05-08 06:31:00",
        "SP98": "2026-05-08 06:31:00"
      }
    },
    {
      "id": "69210004",
      "lat": 45.812,
      "lon": 4.601,
      "cp": "69210",
      "ville": "Sain-Bel",
      "prix": {
        "Gazole": 0.002178,
        "E85": 0.001001,
        "E10": 0.002078,
        "SP98": 0.0021579999999999998
      },
      "maj_gouv": {
        "Gazole": "2026-05-07 15:50:00",
        "E85": "2026-05-07 15:50:00",
        "E10": "2026-05-07 15:50:00",
        "SP98": "2026-05-07 15:50:00"
      }
    },
    {
      "id": "69250008",
      "lat": 45.855,
      "lon": 4.84,
      "cp": "69250",
      "ville": "Fleurieu-sur-Saône",
      "prix": {
        "Gazole": 0.002199,
        "E10": 0.002099,
        "SP98": 0.002199
      },
      "maj_gouv": {
        "Gazole": "2026-05-10 06:00:00",
        "E10": "2026-05-10 06:00:00",
        "SP98": "2026-05-10 06:00:00"
      }
    },
    {
      "id": "69310003",
      "lat": 45.696,
      "lon": 4.826,
      "cp": "69310",
      "ville": "Pierre-Bénite",
      "prix": {
        "Gazole": 0.002219,
        "E10": 0.002089,
        "SP98": 0.002169
      },
      "maj_gouv": {
        "Gazole": "2026-05-07 10:00:00",
        "E10": "2026-05-07 10:00:00",
        "SP98": "2026-05-07 10:00:00"
      }
    },
    {
      "id": "69340002",
      "lat": 45.744,
      "lon": 4.771,
      "cp": "69340",
      "ville": "Francheville",
      "prix": {
        "Gazole": 0.002178,
        "E10": 0.002055,
        "SP98": 0.0022029999999999997
      },
      "maj_gouv": {
        "Gazole": "2026-05-07 07:41:00",
        "E10": "2026-05-07 07:41:00",
        "SP98": "2026-05-07 07:41:00"
      }
    },
    {
      "id": "69410006",
      "lat": 45.8004247,
      "lon": 4.7867323,
      "cp": "69410",
      "ville": "CHAMPAGNE-AU-MONT-D'OR",
      "prix": {
        "Gazole": 0.002169,
        "E10": 0.002069,
        "SP98": 0.002169
      },
      "maj_gouv": {
        "Gazole": "2026-05-10 06:00:00",
        "E10": "2026-05-10 06:00:00",
        "SP98": "2026-05-10 06:00:00"
      }
    },
    {
      "id": "69490002",
      "lat": 45.87792,
      "lon": 4.5113,
      "cp": "69490",
      "ville": "Pontcharra-sur-Turdine",
      "prix": {
        "Gazole": 0.002199,
        "SP95": 0.002129,
        "SP98": 0.002209
      },
      "maj_gouv": {
        "Gazole": "2026-05-07 08:51:21",
        "SP95": "2026-05-04 09:18:52",
        "SP98": "2026-05-07 08:51:21"
      }
    },
    {
      "id": "69400006",
      "lat": 45.998,
      "lon": 4.716,
      "cp": "69400",
      "ville": "Villefranche-sur-Saône",
      "prix": {
        "Gazole": 0.002162,
        "E10": 0.002068,
        "SP98": 0.002148
      },
      "maj_gouv": {
        "Gazole": "2026-05-07 11:31:00",
        "E10": "2026-05-07 11:31:00",
        "SP98": "2026-05-07 11:31:00"
      }
    },
    {
      "id": "69400005",
      "lat": 45.979,
      "lon": 4.718,
      "cp": "69400",
      "ville": "Villefranche-sur-Saône",
      "prix": {
        "Gazole": 0.002157,
        "E85": 0.000998,
        "E10": 0.0020670000000000003,
        "SP98": 0.00212
      },
      "maj_gouv": {
        "Gazole": "2026-05-08 06:31:00",
        "E85": "2026-05-08 06:31:00",
        "E10": "2026-05-08 06:31:00",
        "SP98": "2026-05-08 06:31:00"
      }
    },
    {
      "id": "69570002",
      "lat": 45.813,
      "lon": 4.756,
      "cp": "69570",
      "ville": "DARDILLY",
      "prix": {
        "Gazole": 0.00217,
        "E85": 0.001017,
        "GPLc": 0.00099,
        "E10": 0.002065,
        "SP98": 0.002145
      },
      "maj_gouv": {
        "Gazole": "2026-05-07 16:50:00",
        "E85": "2026-05-07 16:50:00",
        "GPLc": "2026-05-07 16:50:00",
        "E10": "2026-05-07 16:50:00",
        "SP98": "2026-05-07 16:50:00"
      }
    },
    {
      "id": "69590002",
      "lat": 45.63046,
      "lon": 4.45638,
      "cp": "69590",
      "ville": "Saint-Symphorien-sur-Coise",
      "prix": {
        "Gazole": 0.00235,
        "SP95": 0.00219,
        "SP98": 0.0022299999999999998
      },
      "maj_gouv": {
        "Gazole": "2026-04-15 18:34:13",
        "SP95": "2026-04-30 18:48:25",
        "SP98": "2026-04-30 18:48:45"
      }
    },
    {
      "id": "69800019",
      "lat": 45.7184281,
      "lon": 4.9528496,
      "cp": "69800",
      "ville": "Saint-Priest",
      "prix": {
        "Gazole": 0.00209,
        "E10": 0.00199,
        "SP98": 0.00199
      },
      "maj_gouv": {
        "Gazole": "2026-05-10 00:01:00",
        "E10": "2026-05-10 00:01:00",
        "SP98": "2026-05-10 00:01:00"
      }
    },
    {
      "id": "69800018",
      "lat": 45.683,
      "lon": 4.953,
      "cp": "69800",
      "ville": "Saint-Priest",
      "prix": {
        "Gazole": 0.002109,
        "E85": 0.000999,
        "GPLc": 0.0011790000000000001,
        "E10": 0.002009,
        "SP98": 0.002129
      },
      "maj_gouv": {
        "Gazole": "2026-05-10 06:22:06",
        "E85": "2026-05-10 06:22:06",
        "GPLc": "2026-05-10 06:22:06",
        "E10": "2026-05-10 06:22:05",
        "SP98": "2026-05-10 06:22:06"
      }
    },
    {
      "id": "69800017",
      "lat": 45.707,
      "lon": 4.989,
      "cp": "69800",
      "ville": "Saint-Priest",
      "prix": {
        "Gazole": 0.00209,
        "E10": 0.00199,
        "SP98": 0.00199
      },
      "maj_gouv": {
        "Gazole": "2026-05-10 00:01:00",
        "E10": "2026-05-10 00:01:00",
        "SP98": "2026-05-10 00:01:00"
      }
    },
    {
      "id": "69800014",
      "lat": 45.7181,
      "lon": 4.95269,
      "cp": "69800",
      "ville": "Saint-Priest",
      "prix": {
        "Gazole": 0.00209,
        "E10": 0.00199
      },
      "maj_gouv": {
        "Gazole": "2026-05-10 00:01:00",
        "E10": "2026-05-10 00:01:00"
      }
    },
    {
      "id": "69300010",
      "lat": 45.788,
      "lon": 4.84,
      "cp": "69300",
      "ville": "CALUIRE-ET-CUIRE",
      "prix": {
        "Gazole": 0.00209
      },
      "maj_gouv": {
        "Gazole": "2026-05-08 10:13:57"
      }
    },
    {
      "id": "69800012",
      "lat": 45.699,
      "lon": 4.974,
      "cp": "69800",
      "ville": "Saint-Priest",
      "prix": {
        "Gazole": 0.002424,
        "GPLc": 0.001259,
        "E10": 0.002264,
        "SP98": 0.0023740000000000002
      },
      "maj_gouv": {
        "Gazole": "2026-05-10 06:24:04",
        "GPLc": "2026-05-10 06:24:04",
        "E10": "2026-05-10 06:24:04",
        "SP98": "2026-05-10 06:24:04"
      }
    },
    {
      "id": "69220007",
      "lat": 46.122,
      "lon": 4.768,
      "cp": "69220",
      "ville": "Taponas",
      "prix": {
        "Gazole": 0.002355,
        "E10": 0.002233,
        "SP98": 0.002383
      },
      "maj_gouv": {
        "Gazole": "2026-05-09 09:30:00",
        "E10": "2026-05-09 09:30:00",
        "SP98": "2026-05-09 09:30:00"
      }
    },
    {
      "id": "69330001",
      "lat": 45.765,
      "lon": 5.012,
      "cp": "69330",
      "ville": "MEYZIEU",
      "prix": {
        "Gazole": 0.002166,
        "E10": 0.0020150000000000003,
        "SP98": 0.00216
      },
      "maj_gouv": {
        "Gazole": "2026-05-07 08:58:21",
        "E10": "2026-05-07 08:58:21",
        "SP98": "2026-05-07 08:58:22"
      }
    },
    {
      "id": "69550001",
      "lat": 45.98163,
      "lon": 4.33531,
      "cp": "69550",
      "ville": "Amplepuis",
      "prix": {
        "Gazole": 0.002199,
        "E10": 0.002069,
        "SP98": 0.002189
      },
      "maj_gouv": {
        "Gazole": "2026-05-07 09:05:58",
        "E10": "2026-05-07 08:58:06",
        "SP98": "2026-05-07 08:58:07"
      }
    },
    {
      "id": "69005005",
      "lat": 45.754,
      "lon": 4.777,
      "cp": "69005",
      "ville": "LYON 5EME",
      "prix": {
        "Gazole": 0.0022890000000000002,
        "SP95": 0.002089,
        "E85": 0.000998,
        "SP98": 0.002159
      },
      "maj_gouv": {
        "Gazole": "2026-05-06 21:00:00",
        "SP95": "2026-05-07 20:58:00",
        "E85": "2026-04-22 20:50:00",
        "SP98": "2026-05-07 20:58:00"
      }
    },
    {
      "id": "69960006",
      "lat": 45.677,
      "lon": 4.919,
      "cp": "69960",
      "ville": "Corbas",
      "prix": {
        "Gazole": 0.0021669999999999997,
        "E85": 0.000869,
        "E10": 0.00199,
        "SP98": 0.00199
      },
      "maj_gouv": {
        "Gazole": "2026-05-07 06:26:26",
        "E85": "2026-05-07 06:26:26",
        "E10": "2026-05-07 06:26:26",
        "SP98": "2026-05-07 06:26:26"
      }
    },
    {
      "id": "69005002",
      "lat": 45.754,
      "lon": 4.779,
      "cp": "69005",
      "ville": "LYON",
      "prix": {
        "Gazole": 0.002229,
        "E10": 0.002089,
        "SP98": 0.002189
      },
      "maj_gouv": {
        "Gazole": "2026-05-09 08:00:00",
        "E10": "2026-05-09 08:00:00",
        "SP98": "2026-05-09 08:00:00"
      }
    },
    {
      "id": "69290003",
      "lat": 45.747,
      "lon": 4.741,
      "cp": "69290",
      "ville": "CRAPONNE",
      "prix": {
        "Gazole": 0.002199,
        "E10": 0.002049,
        "SP98": 0.002149
      },
      "maj_gouv": {
        "Gazole": "2026-05-04 08:56:49",
        "E10": "2026-05-04 08:56:49",
        "SP98": "2026-05-04 08:56:49"
      }
    },
    {
      "id": "69240002",
      "lat": 46.03486,
      "lon": 4.29911,
      "cp": "69240",
      "ville": "BOURG-DE-THIZY",
      "prix": {
        "Gazole": 0.002169,
        "E10": 0.002029
      },
      "maj_gouv": {
        "Gazole": "2026-05-06 11:46:54",
        "E10": "2026-05-06 11:46:55"
      }
    },
    {
      "id": "69390001",
      "lat": 45.654,
      "lon": 4.793,
      "cp": "69390",
      "ville": "CHARLY",
      "prix": {
        "Gazole": 0.00209
      },
      "maj_gouv": {
        "Gazole": "2026-05-08 00:07:05"
      }
    },
    {
      "id": "69340001",
      "lat": 45.735,
      "lon": 4.775,
      "cp": "69340",
      "ville": "FRANCHEVILLE",
      "prix": {
        "Gazole": 0.002178,
        "SP95": 0.002118,
        "E10": 0.002055,
        "SP98": 0.0022029999999999997
      },
      "maj_gouv": {
        "Gazole": "2026-05-07 00:39:00",
        "SP95": "2026-05-07 00:39:00",
        "E10": "2026-05-07 00:39:00",
        "SP98": "2026-05-07 00:39:00"
      }
    },
    {
      "id": "69680002",
      "lat": 45.73704,
      "lon": 4.97295,
      "cp": "69680",
      "ville": "CHASSIEU",
      "prix": {
        "Gazole": 0.002169,
        "SP95": 0.0021000000000000003,
        "SP98": 0.00218
      },
      "maj_gouv": {
        "Gazole": "2026-05-09 14:57:49",
        "SP95": "2026-05-09 14:57:49",
        "SP98": "2026-05-09 14:57:49"
      }
    },
    {
      "id": "69260011",
      "lat": 45.784,
      "lon": 4.75,
      "cp": "69260",
      "ville": "CHARBONNIERES",
      "prix": {
        "Gazole": 0.002229,
        "E10": 0.002129,
        "SP98": 0.002229
      },
      "maj_gouv": {
        "Gazole": "2026-05-09 06:30:00",
        "E10": "2026-05-09 06:30:00",
        "SP98": "2026-05-09 06:30:00"
      }
    },
    {
      "id": "69651001",
      "lat": 45.979,
      "lon": 4.733,
      "cp": "69651",
      "ville": "Limas",
      "prix": {
        "Gazole": 0.0021669999999999997,
        "E85": 0.000889,
        "E10": 0.00199
      },
      "maj_gouv": {
        "Gazole": "2026-05-07 08:48:24",
        "E85": "2026-05-07 08:48:24",
        "E10": "2026-05-07 08:48:24"
      }
    },
    {
      "id": "69210007",
      "lat": 45.84,
      "lon": 4.623,
      "cp": "69210",
      "ville": "FLEURIEUX-SUR-L'ARBRESLE",
      "prix": {
        "Gazole": 0.002169,
        "SP95": 0.0021230000000000003,
        "E10": 0.002068
      },
      "maj_gouv": {
        "Gazole": "2026-05-07 15:14:11",
        "SP95": "2026-05-01 11:24:03",
        "E10": "2026-05-01 11:24:03"
      }
    },
    {
      "id": "69670002",
      "lat": 45.73262,
      "lon": 4.67286,
      "cp": "69670",
      "ville": "VAUGNERAY",
      "prix": {
        "Gazole": 0.0022589999999999997,
        "E85": 0.001059,
        "E10": 0.002099,
        "SP98": 0.002199
      },
      "maj_gouv": {
        "Gazole": "2026-05-07 18:26:21",
        "E85": "2026-04-15 21:00:07",
        "E10": "2026-05-07 18:26:21",
        "SP98": "2026-05-07 18:26:22"
      }
    },
    {
      "id": "69430002",
      "lat": 46.154,
      "lon": 4.619,
      "cp": "69430",
      "ville": "BEAUJEU",
      "prix": {
        "Gazole": 0.002249,
        "SP95": 0.002165,
        "SP98": 0.00226
      },
      "maj_gouv": {
        "Gazole": "2026-04-30 08:55:25",
        "SP95": "2026-04-30 08:55:25",
        "SP98": "2026-04-30 08:55:25"
      }
    },
    {
      "id": "69400009",
      "lat": 45.989,
      "lon": 4.71,
      "cp": "69400",
      "ville": "Villefranche-sur-Saône",
      "prix": {
        "Gazole": 0.002249,
        "SP95": 0.00207,
        "E10": 0.002039
      },
      "maj_gouv": {
        "Gazole": "2026-05-05 14:48:56",
        "SP95": "2026-05-07 15:14:34",
        "E10": "2026-05-07 15:14:34"
      }
    },
    {
      "id": "69008008",
      "lat": 45.733,
      "lon": 4.881,
      "cp": "69008",
      "ville": "LYON",
      "prix": {
        "Gazole": 0.00209,
        "E10": 0.00199
      },
      "maj_gouv": {
        "Gazole": "2026-05-10 00:01:00",
        "E10": "2026-05-10 00:01:00"
      }
    },
    {
      "id": "69007006",
      "lat": 45.73519,
      "lon": 4.83936,
      "cp": "69007",
      "ville": "LYON",
      "prix": {
        "Gazole": 0.00209,
        "E85": 0.000892,
        "E10": 0.00199,
        "SP98": 0.00199
      },
      "maj_gouv": {
        "Gazole": "2026-05-10 00:01:00",
        "E85": "2026-05-10 00:01:00",
        "E10": "2026-05-10 00:01:00",
        "SP98": "2026-05-10 00:01:00"
      }
    },
    {
      "id": "69360012",
      "lat": 45.591,
      "lon": 4.826,
      "cp": "69360",
      "ville": "COMMUNAY",
      "prix": {
        "Gazole": 0.00209,
        "E85": 0.000978,
        "GPLc": 0.001049,
        "E10": 0.00199,
        "SP98": 0.00199
      },
      "maj_gouv": {
        "Gazole": "2026-05-10 00:01:00",
        "E85": "2026-05-10 00:01:00",
        "GPLc": "2026-05-10 00:01:00",
        "E10": "2026-05-10 00:01:00",
        "SP98": "2026-05-10 00:01:00"
      }
    },
    {
      "id": "69400010",
      "lat": 45.98,
      "lon": 4.735,
      "cp": "69400",
      "ville": "VILLEFRANCHE-SUR-SAôNE",
      "prix": {
        "Gazole": 0.002249,
        "E85": 0.0008179999999999999,
        "E10": 0.002039,
        "SP98": 0.002149
      },
      "maj_gouv": {
        "Gazole": "2026-05-07 14:17:30",
        "E85": "2026-05-07 14:17:30",
        "E10": "2026-05-07 14:17:30",
        "SP98": "2026-05-07 14:17:30"
      }
    },
    {
      "id": "69260012",
      "lat": 45.779,
      "lon": 4.751,
      "cp": "69260",
      "ville": "Charbonnières-les-Bains",
      "prix": {
        "Gazole": 0.002229,
        "E85": 0.000949,
        "GPLc": 0.001099,
        "E10": 0.002129,
        "SP98": 0.002229
      },
      "maj_gouv": {
        "Gazole": "2026-05-09 20:45:00",
        "E85": "2026-05-09 20:45:00",
        "GPLc": "2026-05-09 20:45:00",
        "E10": "2026-05-09 20:45:00",
        "SP98": "2026-05-09 20:45:00"
      }
    },
    {
      "id": "69520001",
      "lat": 45.605,
      "lon": 4.782,
      "cp": "69520",
      "ville": "GRIGNY",
      "prix": {
        "Gazole": 0.002179,
        "SP95": 0.002099,
        "E85": 0.0008179999999999999,
        "E10": 0.002029
      },
      "maj_gouv": {
        "Gazole": "2026-05-06 07:38:13",
        "SP95": "2026-05-06 07:38:13",
        "E85": "2026-05-04 12:44:09",
        "E10": "2026-05-06 07:38:14"
      }
    },
    {
      "id": "69360015",
      "lat": 45.636,
      "lon": 4.869,
      "cp": "69360",
      "ville": "Saint-Symphorien-d'Ozon",
      "prix": {
        "Gazole": 0.00209,
        "E10": 0.00199,
        "SP98": 0.00199
      },
      "maj_gouv": {
        "Gazole": "2026-05-10 00:01:00",
        "E10": "2026-05-10 00:01:00",
        "SP98": "2026-05-10 00:01:00"
      }
    },
    {
      "id": "69320008",
      "lat": 45.66967,
      "lon": 4.85043,
      "cp": "69320",
      "ville": "FEYZIN",
      "prix": {
        "E85": 0.000855
      },
      "maj_gouv": {
        "E85": "2026-05-10 01:00:00"
      }
    },
    {
      "id": "69460004",
      "lat": 46.061800691224995,
      "lon": 4.5999499003082,
      "cp": "69460",
      "ville": "Le Perréon",
      "prix": {
        "Gazole": 0.00225,
        "SP95": 0.0021190000000000002,
        "SP98": 0.002213
      },
      "maj_gouv": {
        "Gazole": "2026-05-02 16:23:40",
        "SP95": "2026-05-02 16:23:40",
        "SP98": "2026-05-02 16:23:41"
      }
    },
    {
      "id": "69510002",
      "lat": 45.69128,
      "lon": 4.67995,
      "cp": "69510",
      "ville": "MESSIMY",
      "prix": {
        "Gazole": 0.002249,
        "E85": 0.000999,
        "E10": 0.002089,
        "SP98": 0.002213
      },
      "maj_gouv": {
        "Gazole": "2026-05-07 09:49:13",
        "E85": "2026-04-07 11:33:50",
        "E10": "2026-05-04 09:56:58",
        "SP98": "2026-05-04 09:56:26"
      }
    },
    {
      "id": "69140006",
      "lat": 45.812,
      "lon": 4.881,
      "cp": "69140",
      "ville": "Rillieux-la-Pape",
      "prix": {
        "Gazole": 0.002006,
        "E85": 0.000869,
        "E10": 0.002039
      },
      "maj_gouv": {
        "Gazole": "2026-05-09 19:45:00",
        "E85": "2026-04-16 19:45:00",
        "E10": "2026-05-09 19:45:00"
      }
    },
    {
      "id": "69100001",
      "lat": 45.769,
      "lon": 4.884,
      "cp": "69100",
      "ville": "VILLEURBANNE",
      "prix": {
        "Gazole": 0.00217,
        "SP95": 0.0021219999999999998,
        "E10": 0.002058,
        "SP98": 0.0022040000000000002
      },
      "maj_gouv": {
        "Gazole": "2026-05-07 00:39:00",
        "SP95": "2026-05-07 00:39:00",
        "E10": "2026-05-07 00:39:00",
        "SP98": "2026-05-07 00:39:00"
      }
    },
    {
      "id": "69200008",
      "lat": 45.717,
      "lon": 4.86,
      "cp": "69200",
      "ville": "Vénissieux",
      "prix": {
        "Gazole": 0.002121,
        "E85": 0.0008169999999999999,
        "E10": 0.002002
      },
      "maj_gouv": {
        "Gazole": "2026-05-07 09:26:47",
        "E85": "2026-05-07 09:26:47",
        "E10": "2026-05-07 09:26:48"
      }
    },
    {
      "id": "69210008",
      "lat": 45.842,
      "lon": 4.607,
      "cp": "69210",
      "ville": "L'Arbresle",
      "prix": {
        "Gazole": 0.002129,
        "E85": 0.0008489999999999999,
        "E10": 0.002069,
        "SP98": 0.002149
      },
      "maj_gouv": {
        "Gazole": "2026-05-09 10:12:15",
        "E85": "2026-03-24 12:12:55",
        "E10": "2026-04-29 10:04:46",
        "SP98": "2026-04-29 10:04:46"
      }
    },
    {
      "id": "69230001",
      "lat": 45.679,
      "lon": 4.792,
      "cp": "69230",
      "ville": "SAINT-GENIS-LAVAL",
      "prix": {
        "Gazole": 0.002219,
        "SP95": 0.002139,
        "GPLc": 0.001029,
        "E10": 0.002089,
        "SP98": 0.002199
      },
      "maj_gouv": {
        "Gazole": "2026-05-07 07:20:00",
        "SP95": "2026-05-07 07:20:00",
        "GPLc": "2026-04-27 07:00:00",
        "E10": "2026-05-07 07:20:00",
        "SP98": "2026-05-07 07:20:00"
      }
    },
    {
      "id": "69360010",
      "lat": 45.629,
      "lon": 4.825,
      "cp": "69360",
      "ville": "SEREZIN DU RHONE",
      "prix": {
        "Gazole": 0.002218,
        "E10": 0.002088,
        "SP98": 0.002198
      },
      "maj_gouv": {
        "Gazole": "2026-05-07 09:58:12",
        "E10": "2026-05-07 09:58:12",
        "SP98": "2026-05-07 09:58:12"
      }
    },
    {
      "id": "69730002",
      "lat": 45.893,
      "lon": 4.822,
      "cp": "69730",
      "ville": "GENAY",
      "prix": {
        "Gazole": 0.0021190000000000002,
        "SP95": 0.002069,
        "E10": 0.0020259999999999996,
        "SP98": 0.002114
      },
      "maj_gouv": {
        "Gazole": "2026-05-08 10:45:18",
        "SP95": "2026-05-09 11:59:43",
        "E10": "2026-05-09 11:59:43",
        "SP98": "2026-05-09 11:59:43"
      }
    },
    {
      "id": "69590001",
      "lat": 45.637,
      "lon": 4.462,
      "cp": "69590",
      "ville": "SAINT-SYMPHORIEN-SUR-COISE",
      "prix": {
        "Gazole": 0.00219,
        "SP95": 0.0020800000000000003,
        "E85": 0.000829,
        "E10": 0.002049
      },
      "maj_gouv": {
        "Gazole": "2026-05-04 08:10:19",
        "SP95": "2026-05-04 08:10:19",
        "E85": "2026-05-04 08:10:19",
        "E10": "2026-04-30 17:06:17"
      }
    },
    {
      "id": "69190001",
      "lat": 45.708,
      "lon": 4.855,
      "cp": "69190",
      "ville": "SAINT-FONS",
      "prix": {
        "Gazole": 0.0022890000000000002,
        "E10": 0.0021190000000000002,
        "SP98": 0.002219
      },
      "maj_gouv": {
        "Gazole": "2026-05-05 14:41:45",
        "E10": "2026-05-05 14:41:46",
        "SP98": "2026-05-05 14:41:46"
      }
    },
    {
      "id": "69390005",
      "lat": 45.642,
      "lon": 4.81,
      "cp": "69390",
      "ville": "Vernaison",
      "prix": {
        "Gazole": 0.002218,
        "E85": 0.000757,
        "E10": 0.002088,
        "SP98": 0.002198
      },
      "maj_gouv": {
        "Gazole": "2026-05-07 09:59:02",
        "E85": "2026-05-04 09:09:13",
        "E10": "2026-05-07 09:59:02",
        "SP98": "2026-05-07 09:59:02"
      }
    },
    {
      "id": "69740002",
      "lat": 45.734,
      "lon": 4.989,
      "cp": "69740",
      "ville": "Genas",
      "prix": {
        "Gazole": 0.0022890000000000002,
        "E10": 0.002139,
        "SP98": 0.0022389999999999997
      },
      "maj_gouv": {
        "Gazole": "2026-04-24 14:33:26",
        "E10": "2026-04-29 07:53:45",
        "SP98": "2026-04-29 07:53:45"
      }
    },
    {
      "id": "69150004",
      "lat": 45.772,
      "lon": 4.98,
      "cp": "69150",
      "ville": "Décines-Charpieu",
      "prix": {
        "Gazole": 0.00209,
        "GPLc": 0.00107,
        "E10": 0.00199
      },
      "maj_gouv": {
        "Gazole": "2026-05-09 00:03:00",
        "GPLc": "2026-04-01 07:00:00",
        "E10": "2026-05-06 17:40:53"
      }
    },
    {
      "id": "69420001",
      "lat": 45.457,
      "lon": 4.757,
      "cp": "69420",
      "ville": "CONDRIEU",
      "prix": {
        "Gazole": 0.0022229999999999997,
        "SP95": 0.002068,
        "SP98": 0.002157
      },
      "maj_gouv": {
        "Gazole": "2026-04-29 08:18:35",
        "SP95": "2026-04-29 08:18:35",
        "SP98": "2026-04-29 08:18:35"
      }
    },
    {
      "id": "69120011",
      "lat": 45.766177053376,
      "lon": 4.9270210197967,
      "cp": "69120",
      "ville": "Vaulx-en-Velin",
      "prix": {
        "E85": 0.0008990000000000001,
        "E10": 0.00199,
        "SP98": 0.00199
      },
      "maj_gouv": {
        "E85": "2026-05-06 06:46:44",
        "E10": "2026-05-06 06:46:44",
        "SP98": "2026-05-08 09:54:21"
      }
    },
    {
      "id": "69160001",
      "lat": 45.757,
      "lon": 4.781,
      "cp": "69160",
      "ville": "TASSIN-LA-DEMI-LUNE",
      "prix": {
        "Gazole": 0.0021880000000000003,
        "E85": 0.001009,
        "E10": 0.002065,
        "SP98": 0.002213
      },
      "maj_gouv": {
        "Gazole": "2026-05-07 09:00:29",
        "E85": "2026-05-07 09:00:29",
        "E10": "2026-05-07 09:00:29",
        "SP98": "2026-05-07 09:00:29"
      }
    },
    {
      "id": "69220001",
      "lat": 46.099,
      "lon": 4.749,
      "cp": "69220",
      "ville": "BELLEVILLE",
      "prix": {
        "Gazole": 0.002175,
        "SP95": 0.002093,
        "SP98": 0.002181
      },
      "maj_gouv": {
        "Gazole": "2026-05-07 08:32:04",
        "SP95": "2026-05-07 08:32:04",
        "SP98": "2026-05-07 08:32:04"
      }
    },
    {
      "id": "69210002",
      "lat": 45.748,
      "lon": 4.931,
      "cp": "69120",
      "ville": "Vaulx-en-Velin",
      "prix": {
        "Gazole": 0.002149,
        "SP95": 0.002099,
        "E10": 0.001999,
        "SP98": 0.0021349999999999997
      },
      "maj_gouv": {
        "Gazole": "2026-05-07 10:08:46",
        "SP95": "2026-05-07 10:08:47",
        "E10": "2026-05-07 10:08:47",
        "SP98": "2026-05-07 10:08:47"
      }
    },
    {
      "id": "69150001",
      "lat": 45.772,
      "lon": 4.97,
      "cp": "69150",
      "ville": "Décines-Charpieu",
      "prix": {
        "Gazole": 0.002161,
        "E85": 0.001003,
        "E10": 0.002054,
        "SP98": 0.002134
      },
      "maj_gouv": {
        "Gazole": "2026-05-08 06:31:00",
        "E85": "2026-05-08 06:31:00",
        "E10": "2026-05-08 06:31:00",
        "SP98": "2026-05-08 06:31:00"
      }
    },
    {
      "id": "69330005",
      "lat": 45.782,
      "lon": 5.005,
      "cp": "69330",
      "ville": "MEYZIEU",
      "prix": {
        "Gazole": 0.002166,
        "E85": 0.000819,
        "E10": 0.0020150000000000003,
        "SP98": 0.00213
      },
      "maj_gouv": {
        "Gazole": "2026-05-07 08:23:43",
        "E85": "2026-04-17 09:16:00",
        "E10": "2026-05-04 07:22:21",
        "SP98": "2026-05-04 07:24:42"
      }
    },
    {
      "id": "69510004",
      "lat": 45.697,
      "lon": 4.685,
      "cp": "69510",
      "ville": "Messimy",
      "prix": {
        "Gazole": 0.00225,
        "E85": 0.000905
      },
      "maj_gouv": {
        "Gazole": "2026-04-23 09:12:19",
        "E85": "2026-05-04 08:06:27"
      }
    },
    {
      "id": "69330003",
      "lat": 45.776,
      "lon": 4.991,
      "cp": "69330",
      "ville": "Meyzieu",
      "prix": {
        "Gazole": 0.002186,
        "E10": 0.0020350000000000004,
        "SP98": 0.002115
      },
      "maj_gouv": {
        "Gazole": "2026-05-07 10:00:00",
        "E10": "2026-05-07 10:00:00",
        "SP98": "2026-05-07 10:00:00"
      }
    },
    {
      "id": "69160003",
      "lat": 45.764,
      "lon": 4.759,
      "cp": "69160",
      "ville": "Tassin-la-Demi-Lune",
      "prix": {
        "Gazole": 0.0022080000000000003,
        "E85": 0.001009,
        "E10": 0.002058,
        "SP98": 0.0021379999999999997
      },
      "maj_gouv": {
        "Gazole": "2026-05-04 11:26:00",
        "E85": "2026-05-04 11:26:00",
        "E10": "2026-05-04 11:26:00",
        "SP98": "2026-05-04 11:26:00"
      }
    },
    {
      "id": "69571001",
      "lat": 45.821,
      "lon": 4.766,
      "cp": "69570",
      "ville": "Dardilly",
      "prix": {
        "Gazole": 0.00219,
        "E85": 0.0009699999999999999,
        "GPLc": 0.00099,
        "E10": 0.002019,
        "SP98": 0.002164
      },
      "maj_gouv": {
        "Gazole": "2026-05-07 11:34:37",
        "E85": "2026-05-07 11:34:37",
        "GPLc": "2026-04-13 10:46:35",
        "E10": "2026-05-07 11:34:37",
        "SP98": "2026-05-05 09:09:16"
      }
    },
    {
      "id": "69290001",
      "lat": 45.747,
      "lon": 4.741,
      "cp": "69290",
      "ville": "Craponne",
      "prix": {
        "Gazole": 0.002193,
        "E10": 0.002056,
        "SP98": 0.0021190000000000002
      },
      "maj_gouv": {
        "Gazole": "2026-05-05 11:26:00",
        "E10": "2026-05-05 11:26:00",
        "SP98": "2026-05-05 11:26:00"
      }
    },
    {
      "id": "69720002",
      "lat": 45.691,
      "lon": 5.036,
      "cp": "69720",
      "ville": "Saint-Laurent-de-Mure",
      "prix": {
        "Gazole": 0.0021680000000000002,
        "E10": 0.002065,
        "SP98": 0.002145
      },
      "maj_gouv": {
        "Gazole": "2026-05-07 11:31:00",
        "E10": "2026-05-07 11:31:00",
        "SP98": "2026-05-07 11:31:00"
      }
    },
    {
      "id": "69430001",
      "lat": 46.146,
      "lon": 4.599,
      "cp": "69430",
      "ville": "Beaujeu",
      "prix": {
        "Gazole": 0.002249,
        "E10": 0.0019890000000000003
      },
      "maj_gouv": {
        "Gazole": "2026-04-25 09:06:10",
        "E10": "2026-04-25 09:06:10"
      }
    },
    {
      "id": "69700001",
      "lat": 45.586,
      "lon": 4.755,
      "cp": "69700",
      "ville": "Givors",
      "prix": {
        "Gazole": 0.002163,
        "SP95": 0.002112,
        "E85": 0.0008269999999999999,
        "GPLc": 0.00099,
        "E10": 0.002049,
        "SP98": 0.0021939999999999998
      },
      "maj_gouv": {
        "Gazole": "2026-05-08 00:40:00",
        "SP95": "2026-05-08 00:40:00",
        "E85": "2026-05-08 00:40:00",
        "GPLc": "2026-05-07 12:02:37",
        "E10": "2026-05-08 00:40:00",
        "SP98": "2026-05-08 00:40:00"
      }
    },
    {
      "id": "69500013",
      "lat": 45.732573857333996,
      "lon": 4.908295858003799,
      "cp": "69500",
      "ville": "BRON",
      "prix": {
        "Gazole": 0.002164,
        "E85": 0.0008179999999999999,
        "E10": 0.002021
      },
      "maj_gouv": {
        "Gazole": "2026-05-05 09:12:36",
        "E85": "2026-05-05 09:12:36",
        "E10": "2026-05-05 09:12:36"
      }
    },
    {
      "id": "69830003",
      "lat": 46.06,
      "lon": 4.721,
      "cp": "69830",
      "ville": "Saint-Georges-de-Reneins",
      "prix": {
        "Gazole": 0.002144,
        "E10": 0.002029,
        "SP98": 0.00209
      },
      "maj_gouv": {
        "Gazole": "2026-05-07 08:56:09",
        "E10": "2026-05-07 08:56:09",
        "SP98": "2026-05-06 10:19:39"
      }
    },
    {
      "id": "69650001",
      "lat": 45.917,
      "lon": 4.775,
      "cp": "69650",
      "ville": "Quincieux",
      "prix": {
        "Gazole": 0.002159,
        "E10": 0.00199
      },
      "maj_gouv": {
        "Gazole": "2026-05-07 10:40:46",
        "E10": "2026-05-07 10:40:47"
      }
    },
    {
      "id": "69125002",
      "lat": 45.723,
      "lon": 5.071,
      "cp": "69125",
      "ville": "LYON ST EXUPERY AEROPORT",
      "prix": {
        "Gazole": 0.00209,
        "SP95": 0.00199,
        "E10": 0.00199,
        "SP98": 0.00199
      },
      "maj_gouv": {
        "Gazole": "2026-05-10 00:01:00",
        "SP95": "2026-05-06 07:12:21",
        "E10": "2026-05-10 00:01:00",
        "SP98": "2026-05-10 00:01:00"
      }
    },
    {
      "id": "69870001",
      "lat": 46.06,
      "lon": 4.49,
      "cp": "69870",
      "ville": "LAMURE-SUR-AZERGUES",
      "prix": {},
      "maj_gouv": {}
    },
    {
      "id": "69400008",
      "lat": 45.979,
      "lon": 4.69,
      "cp": "69400",
      "ville": "GLEIZE",
      "prix": {
        "Gazole": 0.002249,
        "E85": 0.0008179999999999999,
        "E10": 0.002077,
        "SP98": 0.002146
      },
      "maj_gouv": {
        "Gazole": "2026-05-10 01:15:00",
        "E85": "2026-05-10 01:15:00",
        "E10": "2026-05-10 01:15:00",
        "SP98": "2026-05-10 01:15:00"
      }
    },
    {
      "id": "69100028",
      "lat": 45.779,
      "lon": 4.871,
      "cp": "69100",
      "ville": "VILLEURBANNE",
      "prix": {
        "Gazole": 0.002199,
        "E85": 0.000999,
        "E10": 0.002079,
        "SP98": 0.002249
      },
      "maj_gouv": {
        "Gazole": "2026-05-08 11:47:39",
        "E85": "2026-05-08 11:47:39",
        "E10": "2026-05-08 11:47:39",
        "SP98": "2026-05-08 11:47:39"
      }
    },
    {
      "id": "69220003",
      "lat": 46.107,
      "lon": 4.733,
      "cp": "69220",
      "ville": "Belleville",
      "prix": {
        "Gazole": 0.0021669999999999997,
        "E10": 0.00199,
        "SP98": 0.00199
      },
      "maj_gouv": {
        "Gazole": "2026-05-07 07:45:02",
        "E10": "2026-05-07 07:45:02",
        "SP98": "2026-05-07 07:45:02"
      }
    },
    {
      "id": "69330006",
      "lat": 45.765282433257994,
      "lon": 5.0757425322646,
      "cp": "69330",
      "ville": "PUSIGNAN",
      "prix": {
        "Gazole": 0.002166,
        "E85": 0.000819,
        "E10": 0.002021,
        "SP98": 0.002141
      },
      "maj_gouv": {
        "Gazole": "2026-05-07 08:44:34",
        "E85": "2026-05-07 08:44:34",
        "E10": "2026-05-07 08:44:34",
        "SP98": "2026-05-07 08:44:34"
      }
    },
    {
      "id": "69882001",
      "lat": 45.769,
      "lon": 4.987,
      "cp": "69330",
      "ville": "Meyzieu",
      "prix": {
        "Gazole": 0.002105,
        "SP95": 0.002055,
        "E10": 0.0020150000000000003
      },
      "maj_gouv": {
        "Gazole": "2026-05-07 11:26:58",
        "SP95": "2026-05-07 05:30:00",
        "E10": "2026-05-04 08:30:00"
      }
    },
    {
      "id": "69360018",
      "lat": 45.631,
      "lon": 4.819,
      "cp": "69360",
      "ville": "SEREZIN DU RHONE",
      "prix": {
        "Gazole": 0.002339,
        "E85": 0.001055,
        "GPLc": 0.00113,
        "E10": 0.0021190000000000002,
        "SP98": 0.002199
      },
      "maj_gouv": {
        "Gazole": "2026-04-24 14:40:56",
        "E85": "2026-04-24 14:40:56",
        "GPLc": "2026-04-24 14:40:56",
        "E10": "2026-04-25 06:00:00",
        "SP98": "2026-04-24 14:40:56"
      }
    },
    {
      "id": "69930001",
      "lat": 45.738,
      "lon": 4.467,
      "cp": "69930",
      "ville": "Saint-Laurent-de-Chamousset",
      "prix": {
        "Gazole": 0.00225,
        "SP95": 0.00199
      },
      "maj_gouv": {
        "Gazole": "2026-04-27 17:41:41",
        "SP95": "2026-04-27 17:41:41"
      }
    },
    {
      "id": "69430004",
      "lat": 46.13965793122,
      "lon": 4.60822098476,
      "cp": "69430",
      "ville": "Quincié-en-Beaujolais",
      "prix": {
        "Gazole": 0.0024100000000000002,
        "SP95": 0.00226,
        "E85": 0.0009599999999999999,
        "SP98": 0.00213
      },
      "maj_gouv": {
        "Gazole": "2026-04-02 14:50:20",
        "SP95": "2026-04-02 14:50:20",
        "E85": "2026-04-02 14:50:20",
        "SP98": "2026-04-02 14:50:20"
      }
    },
    {
      "id": "69370002",
      "lat": 45.791,
      "lon": 4.808,
      "cp": "69370",
      "ville": "Saint-Didier-au-Mont-d'Or",
      "prix": {
        "Gazole": 0.00209,
        "E85": 0.000929
      },
      "maj_gouv": {
        "Gazole": "2026-05-10 00:01:00",
        "E85": "2026-05-10 00:01:00"
      }
    },
    {
      "id": "69550002",
      "lat": 45.981,
      "lon": 4.334,
      "cp": "69550",
      "ville": "AMPLEPUIS",
      "prix": {
        "Gazole": 0.00216,
        "E10": 0.00199
      },
      "maj_gouv": {
        "Gazole": "2026-05-07 08:43:52",
        "E10": "2026-05-07 08:43:52"
      }
    },
    {
      "id": "69210003",
      "lat": 45.838,
      "lon": 4.611,
      "cp": "69210",
      "ville": "L'Arbresle",
      "prix": {
        "Gazole": 0.00209,
        "E85": 0.0009130000000000001,
        "E10": 0.00199
      },
      "maj_gouv": {
        "Gazole": "2026-05-08 00:12:20",
        "E85": "2026-05-07 00:01:00",
        "E10": "2026-05-09 13:25:51"
      }
    },
    {
      "id": "69600002",
      "lat": 45.721,
      "lon": 4.795,
      "cp": "69600",
      "ville": "Oullins",
      "prix": {
        "Gazole": 0.002139,
        "E10": 0.002009,
        "SP98": 0.0021190000000000002
      },
      "maj_gouv": {
        "Gazole": "2026-05-09 08:30:00",
        "E10": "2026-05-05 08:31:25",
        "SP98": "2026-05-07 08:07:48"
      }
    },
    {
      "id": "69490004",
      "lat": 45.877529,
      "lon": 4.4784120000000005,
      "cp": "69490",
      "ville": "PONTCHARRA SUR TURDINE",
      "prix": {
        "Gazole": 0.00228,
        "SP95": 0.0020800000000000003,
        "SP98": 0.00214
      },
      "maj_gouv": {
        "Gazole": "2026-05-09 07:23:02",
        "SP95": "2026-05-09 07:23:39",
        "SP98": "2026-05-09 07:24:27"
      }
    },
    {
      "id": "69007009",
      "lat": 45.726,
      "lon": 4.84,
      "cp": "69007",
      "ville": "LYON",
      "prix": {
        "Gazole": 0.00209,
        "E10": 0.00199
      },
      "maj_gouv": {
        "Gazole": "2026-05-10 00:01:00",
        "E10": "2026-05-10 00:01:00"
      }
    },
    {
      "id": "69200007",
      "lat": 45.705,
      "lon": 4.878,
      "cp": "69200",
      "ville": "VENISSIEUX",
      "prix": {
        "Gazole": 0.002189,
        "E10": 0.002029,
        "SP98": 0.002199
      },
      "maj_gouv": {
        "Gazole": "2026-05-09 12:37:23",
        "E10": "2026-05-09 12:37:23",
        "SP98": "2026-05-09 12:37:23"
      }
    },
    {
      "id": "69390008",
      "lat": 45.657810754509,
      "lon": 4.7514731841649,
      "cp": "69390",
      "ville": "VOURLES",
      "prix": {},
      "maj_gouv": {}
    },
    {
      "id": "69170001",
      "lat": 45.892,
      "lon": 4.442,
      "cp": "69170",
      "ville": "Tarare",
      "prix": {
        "Gazole": 0.002195,
        "E10": 0.002079,
        "SP98": 0.002109
      },
      "maj_gouv": {
        "Gazole": "2026-05-07 14:41:36",
        "E10": "2026-05-07 14:43:13",
        "SP98": "2026-05-04 09:05:52"
      }
    },
    {
      "id": "69500012",
      "lat": 45.7503732244,
      "lon": 4.9090133329559,
      "cp": "69500",
      "ville": "BRON",
      "prix": {
        "Gazole": 0.002139,
        "E85": 0.0008179999999999999,
        "E10": 0.002029,
        "SP98": 0.002149
      },
      "maj_gouv": {
        "Gazole": "2026-05-07 16:46:53",
        "E85": "2026-04-17 06:31:56",
        "E10": "2026-05-04 07:27:27",
        "SP98": "2026-05-07 16:46:54"
      }
    },
    {
      "id": "69350003",
      "lat": 45.726,
      "lon": 4.815,
      "cp": "69350",
      "ville": "LA MULATIERE",
      "prix": {
        "Gazole": 0.00209,
        "E10": 0.00199
      },
      "maj_gouv": {
        "Gazole": "2026-05-10 00:01:00",
        "E10": "2026-05-10 00:01:00"
      }
    },
    {
      "id": "69100022",
      "lat": 45.74977,
      "lon": 4.91257,
      "cp": "69100",
      "ville": "VILLEURBANNE",
      "prix": {},
      "maj_gouv": {}
    },
    {
      "id": "69430005",
      "lat": 46.169535,
      "lon": 4.487843,
      "cp": "69430",
      "ville": "CHENELETTE",
      "prix": {
        "Gazole": 0.0022890000000000002,
        "E10": 0.002069,
        "SP98": 0.002149
      },
      "maj_gouv": {
        "Gazole": "2026-05-06 19:10:00",
        "E10": "2026-05-07 19:10:00",
        "SP98": "2026-05-07 19:10:00"
      }
    },
    {
      "id": "69120013",
      "lat": 45.774197,
      "lon": 4.9139409999999994,
      "cp": "69120",
      "ville": "Vaulx-en-Velin",
      "prix": {
        "Gazole": 0.002199,
        "E10": 0.002099,
        "SP98": 0.002199
      },
      "maj_gouv": {
        "Gazole": "2026-05-10 06:00:00",
        "E10": "2026-05-10 06:00:00",
        "SP98": "2026-05-10 06:00:00"
      }
    },
    {
      "id": "69220008",
      "lat": 46.116,
      "lon": 4.74,
      "cp": "69220",
      "ville": "Saint-Jean-d'Ardières",
      "prix": {
        "Gazole": 0.00217,
        "SP95": 0.00209,
        "E10": 0.002019
      },
      "maj_gouv": {
        "Gazole": "2026-05-02 08:31:10",
        "SP95": "2026-05-07 15:36:08",
        "E10": "2026-05-02 08:31:10"
      }
    }
  ]
}