{
  "departement": "38",
  "date": "2026-05-10",
  "stations": [
    {
      "id": "38230003",
      "lat": 45.745,
      "lon": 5.183,
      "cp": "38230",
      "ville": "Tignieu-Jameyzieu",
      "prix": {
        "Gazole": 0.002149,
        "SP95": 0.002039,
        "E85": 0.000757,
        "GPLc": 0.000968,
        "E10": 0.002027,
        "SP98": 0.002099
      },
      "maj_gouv": {
        "Gazole": "2026-05-10 01:16:00",
        "SP95": "2026-05-10 01:16:00",
        "E85": "2026-05-10 01:16:00",
        "GPLc": "2026-05-10 01:16:00",
        "E10": "2026-05-10 01:16:00",
        "SP98": "2026-05-10 01:16:00"
      }
    },
    {
      "id": "38570003",
      "lat": 45.386,
      "lon": 5.998,
      "cp": "38570",
      "ville": "Le Cheylas",
      "prix": {
        "Gazole": 0.0022170000000000002,
        "E10": 0.002095,
        "SP98": 0.0021579999999999998
      },
      "maj_gouv": {
        "Gazole": "2026-04-24 05:56:25",
        "E10": "2026-05-06 15:46:39",
        "SP98": "2026-05-06 15:46:39"
      }
    },
    {
      "id": "38470002",
      "lat": 45.208,
      "lon": 5.414,
      "cp": "38470",
      "ville": "VINAY",
      "prix": {
        "Gazole": 0.002199,
        "E85": 0.000799,
        "GPLc": 0.000995,
        "E10": 0.002049,
        "SP98": 0.002129
      },
      "maj_gouv": {
        "Gazole": "2026-04-21 09:55:42",
        "E85": "2026-04-17 11:06:06",
        "GPLc": "2026-05-04 11:37:21",
        "E10": "2026-04-28 07:00:00",
        "SP98": "2026-05-05 07:00:00"
      }
    },
    {
      "id": "38490013",
      "lat": 45.53252,
      "lon": 5.586953,
      "cp": "38490",
      "ville": "les abrets en dauphine",
      "prix": {
        "Gazole": 0.0022890000000000002,
        "E10": 0.002069,
        "SP98": 0.002149
      },
      "maj_gouv": {
        "Gazole": "2026-05-07 00:00:00",
        "E10": "2026-05-08 00:00:00",
        "SP98": "2026-05-08 00:00:00"
      }
    },
    {
      "id": "38500006",
      "lat": 45.359,
      "lon": 5.595,
      "cp": "38500",
      "ville": "VOIRON",
      "prix": {
        "Gazole": 0.002195,
        "E10": 0.002049,
        "SP98": 0.002139
      },
      "maj_gouv": {
        "Gazole": "2026-05-05 07:35:20",
        "E10": "2026-04-29 08:10:42",
        "SP98": "2026-04-29 08:10:42"
      }
    },
    {
      "id": "38200019",
      "lat": 45.502489078125,
      "lon": 4.8505126269,
      "cp": "38200",
      "ville": "Vienne",
      "prix": {
        "Gazole": 0.002157,
        "SP95": 0.002079,
        "SP98": 0.002134
      },
      "maj_gouv": {
        "Gazole": "2026-05-06 07:38:12",
        "SP95": "2026-05-06 07:38:12",
        "SP98": "2026-05-06 07:38:12"
      }
    },
    {
      "id": "38350005",
      "lat": 44.913,
      "lon": 5.784,
      "cp": "38350",
      "ville": "LA MURE",
      "prix": {
        "Gazole": 0.00209,
        "SP98": 0.00199
      },
      "maj_gouv": {
        "Gazole": "2026-05-07 12:36:21",
        "SP98": "2026-05-07 11:21:10"
      }
    },
    {
      "id": "38200007",
      "lat": 45.519,
      "lon": 4.919,
      "cp": "38200",
      "ville": "Vienne",
      "prix": {
        "Gazole": 0.002179,
        "SP95": 0.002089,
        "SP98": 0.002149
      },
      "maj_gouv": {
        "Gazole": "2026-05-05 06:44:18",
        "SP95": "2026-05-05 06:44:18",
        "SP98": "2026-05-05 06:44:18"
      }
    },
    {
      "id": "38690007",
      "lat": 45.384529100857,
      "lon": 5.4723476793111,
      "cp": "38690",
      "ville": "LE GRAND LEMPS",
      "prix": {
        "SP98": 0.00246
      },
      "maj_gouv": {
        "SP98": "2026-05-09 09:00:00"
      }
    },
    {
      "id": "38640001",
      "lat": 45.119,
      "lon": 5.693,
      "cp": "38640",
      "ville": "CLAIX",
      "prix": {
        "Gazole": 0.002197,
        "SP95": 0.002117,
        "SP98": 0.0022040000000000002
      },
      "maj_gouv": {
        "Gazole": "2026-05-09 08:51:17",
        "SP95": "2026-05-09 08:51:17",
        "SP98": "2026-05-09 08:51:17"
      }
    },
    {
      "id": "38100003",
      "lat": 45.171,
      "lon": 5.724,
      "cp": "38100",
      "ville": "Grenoble",
      "prix": {
        "Gazole": 0.002179,
        "E10": 0.002129,
        "SP98": 0.002299
      },
      "maj_gouv": {
        "Gazole": "2026-05-09 12:38:22",
        "E10": "2026-05-09 12:38:22",
        "SP98": "2026-05-09 12:38:22"
      }
    },
    {
      "id": "38340018",
      "lat": 45.277,
      "lon": 5.623,
      "cp": "38340",
      "ville": "VOREPPE",
      "prix": {
        "Gazole": 0.002399,
        "GPLc": 0.001149,
        "E10": 0.002299,
        "SP98": 0.002399
      },
      "maj_gouv": {
        "Gazole": "2026-05-10 00:01:00",
        "GPLc": "2026-05-10 00:01:00",
        "E10": "2026-05-10 00:01:00",
        "SP98": "2026-05-10 00:01:00"
      }
    },
    {
      "id": "38000015",
      "lat": 45.2,
      "lon": 5.74,
      "cp": "38000",
      "ville": "Grenoble",
      "prix": {
        "Gazole": 0.002199,
        "E10": 0.002079,
        "SP98": 0.002189
      },
      "maj_gouv": {
        "Gazole": "2026-05-06 11:21:02",
        "E10": "2026-05-06 11:21:03",
        "SP98": "2026-05-06 11:21:03"
      }
    },
    {
      "id": "38610001",
      "lat": 45.181,
      "lon": 5.786,
      "cp": "38610",
      "ville": "Gières",
      "prix": {
        "Gazole": 0.002164
      },
      "maj_gouv": {
        "Gazole": "2026-05-07 08:26:08"
      }
    },
    {
      "id": "38300001",
      "lat": 45.589,
      "lon": 5.297,
      "cp": "38300",
      "ville": "RUY-MONTCEAU",
      "prix": {
        "Gazole": 0.002199,
        "E85": 0.00085,
        "E10": 0.002049,
        "SP98": 0.002149
      },
      "maj_gouv": {
        "Gazole": "2026-05-05 09:28:49",
        "E85": "2026-04-13 11:29:54",
        "E10": "2026-05-05 09:28:49",
        "SP98": "2026-05-05 09:28:49"
      }
    },
    {
      "id": "38340011",
      "lat": 45.278,
      "lon": 5.624,
      "cp": "38340",
      "ville": "VOREPPE",
      "prix": {
        "Gazole": 0.00209,
        "E85": 0.000999,
        "GPLc": 0.001149,
        "E10": 0.00199,
        "SP98": 0.00199
      },
      "maj_gouv": {
        "Gazole": "2026-05-10 00:01:00",
        "E85": "2026-05-10 00:01:00",
        "GPLc": "2026-05-10 00:01:00",
        "E10": "2026-05-10 00:01:00",
        "SP98": "2026-05-10 00:01:00"
      }
    },
    {
      "id": "38700003",
      "lat": 45.195,
      "lon": 5.75,
      "cp": "38700",
      "ville": "LA TRONCHE",
      "prix": {
        "E85": 0.000884,
        "GPLc": 0.00107
      },
      "maj_gouv": {
        "E85": "2026-05-08 07:24:26",
        "GPLc": "2026-05-08 07:24:26"
      }
    },
    {
      "id": "38890002",
      "lat": 45.64,
      "lon": 5.358,
      "cp": "38890",
      "ville": "Saint-Chef",
      "prix": {
        "Gazole": 0.002229,
        "SP95": 0.002129,
        "SP98": 0.002219
      },
      "maj_gouv": {
        "Gazole": "2026-04-30 18:14:41",
        "SP95": "2026-04-30 18:14:41",
        "SP98": "2026-04-30 18:14:41"
      }
    },
    {
      "id": "38150011",
      "lat": 45.349,
      "lon": 4.804,
      "cp": "38150",
      "ville": "Salaise-sur-Sanne",
      "prix": {
        "Gazole": 0.0022029999999999997,
        "E10": 0.002034,
        "SP98": 0.002105
      },
      "maj_gouv": {
        "Gazole": "2026-05-07 11:31:00",
        "E10": "2026-05-07 11:31:00",
        "SP98": "2026-05-07 11:31:00"
      }
    },
    {
      "id": "38000018",
      "lat": 45.178892999999995,
      "lon": 5.705118000000001,
      "cp": "38000",
      "ville": "GRENOBLE",
      "prix": {
        "Gazole": 0.002199,
        "E10": 0.002149,
        "SP98": 0.002249
      },
      "maj_gouv": {
        "Gazole": "2026-05-09 21:45:00",
        "E10": "2026-05-09 21:45:00",
        "SP98": "2026-05-09 21:45:00"
      }
    },
    {
      "id": "69340003",
      "lat": 45.406350999999994,
      "lon": 4.815803,
      "cp": "38150",
      "ville": "Roussillon",
      "prix": {
        "Gazole": 0.002451,
        "E10": 0.00248,
        "SP98": 0.00263
      },
      "maj_gouv": {
        "Gazole": "2026-05-09 09:30:00",
        "E10": "2026-05-09 09:30:00",
        "SP98": "2026-05-09 09:30:00"
      }
    },
    {
      "id": "38280001",
      "lat": 45.792312864699994,
      "lon": 5.1321481139500005,
      "cp": "38280",
      "ville": "Villette-d'Anthon",
      "prix": {
        "Gazole": 0.002166,
        "E10": 0.002021,
        "SP98": 0.002141
      },
      "maj_gouv": {
        "Gazole": "2026-05-07 08:48:31",
        "E10": "2026-05-07 08:48:31",
        "SP98": "2026-05-07 08:48:31"
      }
    },
    {
      "id": "38500003",
      "lat": 45.36,
      "lon": 5.6,
      "cp": "38500",
      "ville": "VOIRON",
      "prix": {},
      "maj_gouv": {}
    },
    {
      "id": "38190005",
      "lat": 45.271,
      "lon": 5.893,
      "cp": "38190",
      "ville": "CROLLES",
      "prix": {
        "Gazole": 0.002179,
        "E85": 0.000994,
        "E10": 0.002069
      },
      "maj_gouv": {
        "Gazole": "2026-05-09 08:51:11",
        "E85": "2026-05-09 08:51:11",
        "E10": "2026-05-09 08:51:11"
      }
    },
    {
      "id": "38300027",
      "lat": 45.583253,
      "lon": 5.296745,
      "cp": "38300",
      "ville": "BOURGOIN JALLIEU",
      "prix": {
        "Gazole": 0.00219,
        "SP95": 0.00212,
        "SP98": 0.00218
      },
      "maj_gouv": {
        "Gazole": "2026-05-07 16:43:11",
        "SP95": "2026-05-07 16:43:11",
        "SP98": "2026-05-07 16:43:11"
      }
    },
    {
      "id": "38620002",
      "lat": 45.459,
      "lon": 5.641,
      "cp": "38620",
      "ville": "Saint-Geoire-en-Valdaine",
      "prix": {
        "Gazole": 0.0022480000000000004,
        "SP95": 0.002109
      },
      "maj_gouv": {
        "Gazole": "2026-04-21 12:36:25",
        "SP95": "2026-04-21 12:36:25"
      }
    },
    {
      "id": "38880002",
      "lat": 45.17,
      "lon": 5.537,
      "cp": "38880",
      "ville": "AUTRANS",
      "prix": {
        "Gazole": 0.00209
      },
      "maj_gouv": {
        "Gazole": "2026-05-07 21:36:02"
      }
    },
    {
      "id": "38240006",
      "lat": 45.198,
      "lon": 5.781,
      "cp": "38240",
      "ville": "MEYLAN",
      "prix": {},
      "maj_gouv": {}
    },
    {
      "id": "38150012",
      "lat": 45.3733438,
      "lon": 4.8122397999999995,
      "cp": "38150",
      "ville": "Roussillon",
      "prix": {
        "Gazole": 0.002179,
        "E10": 0.00212,
        "SP98": 0.00219
      },
      "maj_gouv": {
        "Gazole": "2026-05-06 14:36:31",
        "E10": "2026-04-28 11:47:40",
        "SP98": "2026-04-28 11:49:18"
      }
    },
    {
      "id": "38190001",
      "lat": 45.26645,
      "lon": 5.91531,
      "cp": "38190",
      "ville": "Froges",
      "prix": {
        "Gazole": 0.002193,
        "SP95": 0.0021190000000000002,
        "SP98": 0.002163
      },
      "maj_gouv": {
        "Gazole": "2026-05-07 16:19:38",
        "SP95": "2026-05-07 16:19:38",
        "SP98": "2026-05-07 16:19:38"
      }
    },
    {
      "id": "38220003",
      "lat": 45.084,
      "lon": 5.76,
      "cp": "38220",
      "ville": "Vizille",
      "prix": {
        "Gazole": 0.002184,
        "E10": 0.002032,
        "SP98": 0.002129
      },
      "maj_gouv": {
        "Gazole": "2026-05-07 09:26:41",
        "E10": "2026-05-04 14:10:05",
        "SP98": "2026-05-07 09:26:41"
      }
    },
    {
      "id": "38270003",
      "lat": 45.373,
      "lon": 5.027,
      "cp": "38270",
      "ville": "Revel-Tourdan",
      "prix": {
        "Gazole": 0.002179,
        "E85": 0.0008399999999999999,
        "E10": 0.002062,
        "SP98": 0.002159
      },
      "maj_gouv": {
        "Gazole": "2026-05-07 08:38:33",
        "E85": "2026-05-07 08:38:33",
        "E10": "2026-05-07 08:38:33",
        "SP98": "2026-05-07 08:38:33"
      }
    },
    {
      "id": "38510006",
      "lat": 45.667,
      "lon": 5.474,
      "cp": "38510",
      "ville": "VEZERONCE-CURTIN",
      "prix": {
        "Gazole": 0.002148,
        "E85": 0.000799,
        "E10": 0.001999,
        "SP98": 0.002139
      },
      "maj_gouv": {
        "Gazole": "2026-05-06 17:10:13",
        "E85": "2026-04-17 17:34:47",
        "E10": "2026-05-04 08:57:38",
        "SP98": "2026-05-07 18:11:54"
      }
    },
    {
      "id": "38670002",
      "lat": 45.582317,
      "lon": 4.792002,
      "cp": "38670",
      "ville": "CHASSE SUR RHONE",
      "prix": {
        "Gazole": 0.002388
      },
      "maj_gouv": {
        "Gazole": "2026-05-09 00:00:00"
      }
    },
    {
      "id": "38490012",
      "lat": 45.537,
      "lon": 5.577,
      "cp": "38490",
      "ville": "Les Abrets en Dauphiné",
      "prix": {
        "Gazole": 0.002195,
        "E85": 0.000889,
        "E10": 0.002059
      },
      "maj_gouv": {
        "Gazole": "2026-05-07 14:15:17",
        "E85": "2026-04-23 12:32:58",
        "E10": "2026-05-04 08:07:39"
      }
    },
    {
      "id": "38580004",
      "lat": 45.387,
      "lon": 6.069,
      "cp": "38580",
      "ville": "Allevard",
      "prix": {
        "Gazole": 0.002215,
        "E10": 0.002039,
        "SP98": 0.0022389999999999997
      },
      "maj_gouv": {
        "Gazole": "2026-05-05 12:11:56",
        "E10": "2026-05-05 12:11:56",
        "SP98": "2026-05-05 12:11:56"
      }
    },
    {
      "id": "38400005",
      "lat": 45.168,
      "lon": 5.755,
      "cp": "38400",
      "ville": "Saint-Martin-d'Hères",
      "prix": {
        "Gazole": 0.002159,
        "E85": 0.001009,
        "E10": 0.002049,
        "SP98": 0.002199
      },
      "maj_gouv": {
        "Gazole": "2026-05-10 06:22:03",
        "E85": "2026-05-10 06:22:03",
        "E10": "2026-05-10 06:22:03",
        "SP98": "2026-05-10 06:22:02"
      }
    },
    {
      "id": "38670003",
      "lat": 45.574,
      "lon": 4.811,
      "cp": "38670",
      "ville": "Chasse-sur-Rhône",
      "prix": {
        "Gazole": 0.002149,
        "E85": 0.0008179999999999999,
        "GPLc": 0.000999,
        "E10": 0.002029,
        "SP98": 0.002159
      },
      "maj_gouv": {
        "Gazole": "2026-05-09 08:34:17",
        "E85": "2026-04-18 12:52:21",
        "GPLc": "2026-04-10 15:07:53",
        "E10": "2026-05-09 08:34:17",
        "SP98": "2026-05-09 08:34:17"
      }
    },
    {
      "id": "38110001",
      "lat": 45.573,
      "lon": 5.472,
      "cp": "38110",
      "ville": "SAINT-CLAIR-DE-LA-TOUR",
      "prix": {
        "Gazole": 0.0022789999999999998,
        "E10": 0.002049,
        "SP98": 0.002149
      },
      "maj_gouv": {
        "Gazole": "2026-05-06 08:45:15",
        "E10": "2026-05-06 08:45:15",
        "SP98": "2026-05-06 08:45:15"
      }
    },
    {
      "id": "38140005",
      "lat": 45.399,
      "lon": 5.468,
      "cp": "38140",
      "ville": "APPRIEU",
      "prix": {
        "Gazole": 0.0021190000000000002,
        "E85": 0.0008179999999999999,
        "E10": 0.001999,
        "SP98": 0.0021190000000000002
      },
      "maj_gouv": {
        "Gazole": "2026-05-09 08:54:57",
        "E85": "2026-04-16 08:05:27",
        "E10": "2026-05-06 15:30:19",
        "SP98": "2026-05-07 08:25:48"
      }
    },
    {
      "id": "38260007",
      "lat": 45.393,
      "lon": 5.247,
      "cp": "38260",
      "ville": "LA CôTE-SAINT-ANDRé",
      "prix": {
        "Gazole": 0.002109,
        "SP95": 0.002099,
        "E10": 0.002009,
        "SP98": 0.002159
      },
      "maj_gouv": {
        "Gazole": "2026-05-08 08:54:29",
        "SP95": "2026-05-07 06:31:44",
        "E10": "2026-05-08 08:54:29",
        "SP98": "2026-05-07 06:31:44"
      }
    },
    {
      "id": "38400006",
      "lat": 45.185567253516,
      "lon": 5.75784886983,
      "cp": "38400",
      "ville": "Saint-Martin-d'Hères",
      "prix": {
        "Gazole": 0.002154,
        "E85": 0.0008179999999999999,
        "E10": 0.002034,
        "SP98": 0.002149
      },
      "maj_gouv": {
        "Gazole": "2026-05-07 07:53:32",
        "E85": "2026-04-16 07:57:50",
        "E10": "2026-05-07 07:53:32",
        "SP98": "2026-05-07 07:53:33"
      }
    },
    {
      "id": "38130002",
      "lat": 45.148,
      "lon": 5.693,
      "cp": "38130",
      "ville": "Échirolles",
      "prix": {
        "Gazole": 0.00209,
        "SP95": 0.002061,
        "E10": 0.002039,
        "SP98": 0.002114
      },
      "maj_gouv": {
        "Gazole": "2026-05-10 01:16:00",
        "SP95": "2026-05-10 01:16:00",
        "E10": "2026-05-10 01:16:00",
        "SP98": "2026-05-10 01:16:00"
      }
    },
    {
      "id": "38110006",
      "lat": 45.810097973474,
      "lon": 5.4033595557715,
      "cp": "38390",
      "ville": "Montalieu-Vercieu",
      "prix": {
        "Gazole": 0.002169,
        "SP95": 0.002149,
        "SP98": 0.002179
      },
      "maj_gouv": {
        "Gazole": "2026-05-08 08:53:06",
        "SP95": "2026-05-04 19:27:26",
        "SP98": "2026-05-03 10:59:19"
      }
    },
    {
      "id": "38330002",
      "lat": 45.24,
      "lon": 5.814,
      "cp": "38330",
      "ville": "Biviers",
      "prix": {
        "Gazole": 0.002157,
        "E85": 0.000994,
        "E10": 0.002075,
        "SP98": 0.002155
      },
      "maj_gouv": {
        "Gazole": "2026-05-08 06:31:00",
        "E85": "2026-05-08 06:31:00",
        "E10": "2026-05-08 06:31:00",
        "SP98": "2026-05-08 06:31:00"
      }
    },
    {
      "id": "38510005",
      "lat": 45.672,
      "lon": 5.485,
      "cp": "38510",
      "ville": "Morestel",
      "prix": {
        "Gazole": 0.0021190000000000002,
        "E85": 0.000799,
        "GPLc": 0.000919,
        "E10": 0.002029,
        "SP98": 0.002129
      },
      "maj_gouv": {
        "Gazole": "2026-05-09 08:39:21",
        "E85": "2026-04-17 10:53:59",
        "GPLc": "2026-03-03 12:01:12",
        "E10": "2026-05-09 08:39:21",
        "SP98": "2026-05-07 08:53:54"
      }
    },
    {
      "id": "38113001",
      "lat": 45.265,
      "lon": 5.623,
      "cp": "38113",
      "ville": "VEUREY-VOROIZE",
      "prix": {
        "Gazole": 0.0023290000000000003,
        "SP95": 0.0022879999999999997,
        "SP98": 0.002319
      },
      "maj_gouv": {
        "Gazole": "2026-04-30 08:07:13",
        "SP95": "2026-04-03 10:53:58",
        "SP98": "2026-04-03 10:53:58"
      }
    },
    {
      "id": "38430004",
      "lat": 45.324,
      "lon": 5.582,
      "cp": "38430",
      "ville": "Moirans",
      "prix": {
        "Gazole": 0.002139,
        "E85": 0.0008179999999999999,
        "E10": 0.002019,
        "SP98": 0.002129
      },
      "maj_gouv": {
        "Gazole": "2026-05-07 08:25:42",
        "E85": "2026-04-16 08:15:28",
        "E10": "2026-05-07 08:25:42",
        "SP98": "2026-05-05 12:03:10"
      }
    },
    {
      "id": "38530005",
      "lat": 45.428514643902,
      "lon": 5.995516521453901,
      "cp": "38530",
      "ville": "BARRAUX",
      "prix": {
        "Gazole": 0.002221,
        "E85": 0.0008179999999999999,
        "E10": 0.002033,
        "SP98": 0.002145
      },
      "maj_gouv": {
        "Gazole": "2026-04-28 12:51:51",
        "E85": "2026-04-17 16:28:06",
        "E10": "2026-04-28 12:51:51",
        "SP98": "2026-04-28 12:51:51"
      }
    },
    {
      "id": "38470003",
      "lat": 45.22,
      "lon": 5.435,
      "cp": "38470",
      "ville": "Vinay",
      "prix": {
        "Gazole": 0.00209,
        "GPLc": 0.00107,
        "E10": 0.00199,
        "SP98": 0.00199
      },
      "maj_gouv": {
        "Gazole": "2026-05-07 17:45:00",
        "GPLc": "2026-04-01 09:32:01",
        "E10": "2026-05-07 17:45:00",
        "SP98": "2026-04-16 16:45:56"
      }
    },
    {
      "id": "38650003",
      "lat": 44.926,
      "lon": 5.638,
      "cp": "38650",
      "ville": "Monestier-de-Clermont",
      "prix": {
        "Gazole": 0.002366,
        "E85": 0.000984,
        "E10": 0.002189,
        "SP98": 0.002249
      },
      "maj_gouv": {
        "Gazole": "2026-05-06 07:35:27",
        "E85": "2026-05-06 07:35:28",
        "E10": "2026-05-06 07:35:28",
        "SP98": "2026-05-06 07:35:28"
      }
    },
    {
      "id": "38430001",
      "lat": 45.325,
      "lon": 5.567,
      "cp": "38430",
      "ville": "MOIRANS",
      "prix": {
        "Gazole": 0.002219,
        "E10": 0.002099,
        "SP98": 0.002235
      },
      "maj_gouv": {
        "Gazole": "2026-05-05 08:38:17",
        "E10": "2026-05-05 08:38:18",
        "SP98": "2026-05-05 08:38:18"
      }
    },
    {
      "id": "38360001",
      "lat": 45.218,
      "lon": 5.663,
      "cp": "38360",
      "ville": "SASSENAGE",
      "prix": {
        "Gazole": 0.002183,
        "SP95": 0.002121,
        "E85": 0.000934,
        "E10": 0.002054,
        "SP98": 0.0021720000000000003
      },
      "maj_gouv": {
        "Gazole": "2026-05-07 15:47:38",
        "SP95": "2026-05-07 15:47:38",
        "E85": "2026-05-07 15:47:39",
        "E10": "2026-05-07 15:47:39",
        "SP98": "2026-04-30 15:16:09"
      }
    },
    {
      "id": "38460002",
      "lat": 45.723577295853005,
      "lon": 5.2389189620677,
      "cp": "38460",
      "ville": "CREMIEU",
      "prix": {
        "Gazole": 0.002229,
        "E10": 0.002009,
        "SP98": 0.002099
      },
      "maj_gouv": {
        "Gazole": "2026-04-17 13:19:10",
        "E10": "2026-05-04 12:12:40",
        "SP98": "2026-04-17 13:19:10"
      }
    },
    {
      "id": "38250003",
      "lat": 45.074629195705995,
      "lon": 5.553227260991,
      "cp": "38250",
      "ville": "Villard-de-Lans",
      "prix": {
        "Gazole": 0.0022890000000000002,
        "SP95": 0.002069,
        "SP98": 0.002129
      },
      "maj_gouv": {
        "Gazole": "2026-05-07 07:54:58",
        "SP95": "2026-05-07 07:54:58",
        "SP98": "2026-05-07 07:54:58"
      }
    },
    {
      "id": "38540002",
      "lat": 45.585,
      "lon": 5.004,
      "cp": "38540",
      "ville": "Saint-Just-Chaleyssin",
      "prix": {
        "Gazole": 0.002169,
        "SP95": 0.002105,
        "SP98": 0.002133
      },
      "maj_gouv": {
        "Gazole": "2026-05-05 07:11:22",
        "SP95": "2026-05-05 07:11:22",
        "SP98": "2026-05-05 07:11:22"
      }
    },
    {
      "id": "38800003",
      "lat": 45.138,
      "lon": 5.702,
      "cp": "38800",
      "ville": "Pont-de-claix",
      "prix": {
        "Gazole": 0.00209,
        "E85": 0.000869,
        "GPLc": 0.001065,
        "E10": 0.00199
      },
      "maj_gouv": {
        "Gazole": "2026-05-10 00:01:00",
        "E85": "2026-05-10 00:01:00",
        "GPLc": "2026-05-10 00:01:00",
        "E10": "2026-05-10 00:01:00"
      }
    },
    {
      "id": "38150010",
      "lat": 45.326,
      "lon": 4.807,
      "cp": "38150",
      "ville": "Salaise-sur-Sanne",
      "prix": {
        "Gazole": 0.00209,
        "E85": 0.000839,
        "E10": 0.00199
      },
      "maj_gouv": {
        "Gazole": "2026-05-10 00:01:00",
        "E85": "2026-05-10 00:01:00",
        "E10": "2026-05-10 00:01:00"
      }
    },
    {
      "id": "38240003",
      "lat": 45.203,
      "lon": 5.762,
      "cp": "38240",
      "ville": "MEYLAN",
      "prix": {
        "Gazole": 0.002177,
        "SP95": 0.002115,
        "E85": 0.0008950000000000001,
        "GPLc": 0.001029,
        "E10": 0.002061,
        "SP98": 0.002202
      },
      "maj_gouv": {
        "Gazole": "2026-05-06 22:49:00",
        "SP95": "2026-05-06 22:49:00",
        "E85": "2026-05-06 22:49:00",
        "GPLc": "2026-05-06 22:49:00",
        "E10": "2026-05-06 22:49:00",
        "SP98": "2026-05-06 22:49:00"
      }
    },
    {
      "id": "38760004",
      "lat": 45.098,
      "lon": 5.683,
      "cp": "38760",
      "ville": "Varces-Allières-et-Risset",
      "prix": {
        "Gazole": 0.002149,
        "E10": 0.002099,
        "SP98": 0.002199
      },
      "maj_gouv": {
        "Gazole": "2026-05-10 06:00:00",
        "E10": "2026-05-10 06:00:00",
        "SP98": "2026-05-10 06:00:00"
      }
    },
    {
      "id": "38200016",
      "lat": 45.584429922883,
      "lon": 4.914457214061001,
      "cp": "38200",
      "ville": "Villette-de-Vienne",
      "prix": {
        "Gazole": 0.002139,
        "SP95": 0.002049,
        "SP98": 0.002109
      },
      "maj_gouv": {
        "Gazole": "2026-04-28 08:15:57",
        "SP95": "2026-05-05 11:00:14",
        "SP98": "2026-05-05 11:00:15"
      }
    },
    {
      "id": "38790003",
      "lat": 45.597,
      "lon": 5.095,
      "cp": "38790",
      "ville": "diemoz",
      "prix": {
        "Gazole": 0.002199,
        "E10": 0.002069,
        "SP98": 0.002189
      },
      "maj_gouv": {
        "Gazole": "2026-05-06 15:00:42",
        "E10": "2026-05-06 15:00:42",
        "SP98": "2026-05-06 15:00:42"
      }
    },
    {
      "id": "38460005",
      "lat": 45.685869055241,
      "lon": 5.2862573539941,
      "cp": "38460",
      "ville": "SAINT HILAIRE DE BRENS",
      "prix": {
        "Gazole": 0.002219,
        "E85": 0.000919,
        "E10": 0.002069,
        "SP98": 0.002109
      },
      "maj_gouv": {
        "Gazole": "2026-05-04 08:26:37",
        "E85": "2026-05-04 08:26:37",
        "E10": "2026-05-06 11:15:50",
        "SP98": "2026-05-04 08:26:37"
      }
    },
    {
      "id": "38490006",
      "lat": 45.618,
      "lon": 5.611,
      "cp": "38490",
      "ville": "Aoste",
      "prix": {
        "Gazole": 0.002139
      },
      "maj_gouv": {
        "Gazole": "2026-05-06 20:31:00"
      }
    },
    {
      "id": "38320006",
      "lat": 45.151835,
      "lon": 5.739984000000001,
      "cp": "38320",
      "ville": "EYBENS",
      "prix": {
        "E85": 0.000929,
        "GPLc": 0.0010789999999999999
      },
      "maj_gouv": {
        "E85": "2026-05-10 00:01:00",
        "GPLc": "2026-05-10 00:01:00"
      }
    },
    {
      "id": "38150003",
      "lat": 45.32128,
      "lon": 4.80769,
      "cp": "38150",
      "ville": "Chanas",
      "prix": {
        "Gazole": 0.002139,
        "E85": 0.00086,
        "GPLc": 0.00108,
        "E10": 0.001999
      },
      "maj_gouv": {
        "Gazole": "2026-05-07 13:35:42",
        "E85": "2026-04-22 14:55:19",
        "GPLc": "2026-04-14 19:15:02",
        "E10": "2026-05-05 07:57:07"
      }
    },
    {
      "id": "38260005",
      "lat": 45.392,
      "lon": 5.258,
      "cp": "38260",
      "ville": "LA CôTE-SAINT-ANDRé",
      "prix": {
        "Gazole": 0.002179,
        "E10": 0.0020139999999999997,
        "SP98": 0.00215
      },
      "maj_gouv": {
        "Gazole": "2026-04-27 10:49:16",
        "E10": "2026-04-27 10:49:17",
        "SP98": "2026-04-27 10:49:17"
      }
    },
    {
      "id": "38200018",
      "lat": 45.527,
      "lon": 4.903,
      "cp": "38200",
      "ville": "VIENNE",
      "prix": {
        "Gazole": 0.00209,
        "E85": 0.0008489999999999999,
        "E10": 0.00199
      },
      "maj_gouv": {
        "Gazole": "2026-05-09 00:01:00",
        "E85": "2026-05-09 00:01:00",
        "E10": "2026-05-09 00:01:00"
      }
    },
    {
      "id": "38340013",
      "lat": 45.306,
      "lon": 5.624,
      "cp": "38340",
      "ville": "VOREPPE",
      "prix": {
        "E85": 0.000855
      },
      "maj_gouv": {
        "E85": "2026-05-10 00:01:00"
      }
    },
    {
      "id": "38660001",
      "lat": 45.362,
      "lon": 5.955,
      "cp": "38660",
      "ville": "Le Touvet",
      "prix": {
        "Gazole": 0.00209,
        "E85": 0.000886,
        "E10": 0.00199
      },
      "maj_gouv": {
        "Gazole": "2026-05-09 19:42:50",
        "E85": "2026-05-09 19:42:50",
        "E10": "2026-05-09 19:42:50"
      }
    },
    {
      "id": "38290006",
      "lat": 45.668,
      "lon": 5.143,
      "cp": "38290",
      "ville": "Satolas-et-Bonce",
      "prix": {
        "Gazole": 0.0022890000000000002,
        "SP95": 0.002079,
        "SP98": 0.002149
      },
      "maj_gouv": {
        "Gazole": "2026-05-07 23:59:00",
        "SP95": "2026-05-07 23:59:00",
        "SP98": "2026-05-07 23:59:00"
      }
    },
    {
      "id": "38300022",
      "lat": 45.585,
      "lon": 5.285,
      "cp": "38300",
      "ville": "Bourgoin-Jallieu",
      "prix": {
        "Gazole": 0.002199,
        "E85": 0.000949,
        "E10": 0.002129
      },
      "maj_gouv": {
        "Gazole": "2026-05-07 10:39:34",
        "E85": "2026-04-30 11:14:18",
        "E10": "2026-04-30 11:14:18"
      }
    },
    {
      "id": "38300008",
      "lat": 45.594,
      "lon": 5.269,
      "cp": "38300",
      "ville": "BOURGOIN-JALLIEU",
      "prix": {
        "Gazole": 0.002099,
        "SP95": 0.002069,
        "E85": 0.000757,
        "GPLc": 0.000969,
        "E10": 0.002018,
        "SP98": 0.002079
      },
      "maj_gouv": {
        "Gazole": "2026-05-07 16:29:51",
        "SP95": "2026-05-07 16:29:51",
        "E85": "2026-04-16 06:45:00",
        "GPLc": "2026-04-17 14:08:53",
        "E10": "2026-05-09 06:45:00",
        "SP98": "2026-04-27 06:45:00"
      }
    },
    {
      "id": "38490005",
      "lat": 45.592,
      "lon": 5.609,
      "cp": "38490",
      "ville": "Aoste",
      "prix": {
        "Gazole": 0.002169,
        "GPLc": 0.000999,
        "E10": 0.002039,
        "SP98": 0.002149
      },
      "maj_gouv": {
        "Gazole": "2026-05-07 11:02:04",
        "GPLc": "2026-01-30 09:02:19",
        "E10": "2026-05-07 11:02:04",
        "SP98": "2026-05-07 11:02:04"
      }
    },
    {
      "id": "38510004",
      "lat": 45.673,
      "lon": 5.471,
      "cp": "38510",
      "ville": "Morestel",
      "prix": {
        "Gazole": 0.00231,
        "SP95": 0.00211,
        "SP98": 0.00226
      },
      "maj_gouv": {
        "Gazole": "2026-04-23 16:21:46",
        "SP95": "2026-04-23 16:21:46",
        "SP98": "2026-04-08 13:45:28"
      }
    },
    {
      "id": "38200004",
      "lat": 45.542206358718,
      "lon": 4.85130178351,
      "cp": "38200",
      "ville": "Vienne",
      "prix": {
        "Gazole": 0.002159,
        "SP95": 0.002099,
        "E85": 0.000799,
        "E10": 0.002059,
        "SP98": 0.002149
      },
      "maj_gouv": {
        "Gazole": "2026-05-09 10:14:33",
        "SP95": "2026-05-03 07:00:00",
        "E85": "2026-04-24 09:01:40",
        "E10": "2026-05-03 07:00:00",
        "SP98": "2026-05-07 10:34:06"
      }
    },
    {
      "id": "38490004",
      "lat": 45.53021,
      "lon": 5.58917,
      "cp": "38490",
      "ville": "Charancieu",
      "prix": {
        "Gazole": 0.002189,
        "E10": 0.002079,
        "SP98": 0.002159
      },
      "maj_gouv": {
        "Gazole": "2026-04-24 10:07:25",
        "E10": "2026-05-04 07:12:13",
        "SP98": "2026-05-04 07:12:14"
      }
    },
    {
      "id": "38320005",
      "lat": 45.14251,
      "lon": 5.73473,
      "cp": "38320",
      "ville": "Bresson",
      "prix": {
        "Gazole": 0.002159,
        "SP95": 0.002057,
        "E10": 0.002042,
        "SP98": 0.002114
      },
      "maj_gouv": {
        "Gazole": "2026-05-07 10:42:17",
        "SP95": "2026-05-04 14:00:53",
        "E10": "2026-05-04 14:00:53",
        "SP98": "2026-05-04 09:10:00"
      }
    },
    {
      "id": "38230001",
      "lat": 45.752,
      "lon": 5.175,
      "cp": "38230",
      "ville": "PONT-DE-CHéRUY",
      "prix": {
        "Gazole": 0.002179,
        "SP95": 0.002039,
        "SP98": 0.002099
      },
      "maj_gouv": {
        "Gazole": "2026-05-09 09:40:14",
        "SP95": "2026-05-09 09:40:14",
        "SP98": "2026-05-09 09:40:14"
      }
    },
    {
      "id": "38090005",
      "lat": 45.616,
      "lon": 5.144,
      "cp": "38090",
      "ville": "VILLEFONTAINE",
      "prix": {
        "Gazole": 0.002199,
        "SP95": 0.002099,
        "SP98": 0.002179
      },
      "maj_gouv": {
        "Gazole": "2026-05-06 09:32:15",
        "SP95": "2026-05-07 08:49:27",
        "SP98": "2026-05-06 09:32:15"
      }
    },
    {
      "id": "38500001",
      "lat": 45.385,
      "lon": 5.578,
      "cp": "38500",
      "ville": "VOIRON",
      "prix": {
        "Gazole": 0.002125,
        "SP95": 0.00204,
        "SP98": 0.00211
      },
      "maj_gouv": {
        "Gazole": "2026-04-30 12:47:24",
        "SP95": "2026-05-07 12:31:33",
        "SP98": "2026-05-07 12:31:34"
      }
    },
    {
      "id": "38340012",
      "lat": 45.305,
      "lon": 5.623,
      "cp": "38340",
      "ville": "VOREPPE",
      "prix": {},
      "maj_gouv": {}
    },
    {
      "id": "38980001",
      "lat": 45.321,
      "lon": 5.207,
      "cp": "38980",
      "ville": "Viriville",
      "prix": {
        "Gazole": 0.00219,
        "SP95": 0.00199,
        "SP98": 0.00199
      },
      "maj_gouv": {
        "Gazole": "2026-05-06 05:30:00",
        "SP95": "2026-05-06 05:30:00",
        "SP98": "2026-05-06 05:30:00"
      }
    },
    {
      "id": "38250002",
      "lat": 45.088,
      "lon": 5.558,
      "cp": "38250",
      "ville": "VILLARD-DE-LANS",
      "prix": {
        "Gazole": 0.002159,
        "SP95": 0.002068,
        "E10": 0.002021,
        "SP98": 0.002124
      },
      "maj_gouv": {
        "Gazole": "2026-05-07 10:02:13",
        "SP95": "2026-05-07 10:02:13",
        "E10": "2026-05-07 10:02:13",
        "SP98": "2026-05-07 10:02:13"
      }
    },
    {
      "id": "38180001",
      "lat": 45.16,
      "lon": 5.695,
      "cp": "38180",
      "ville": "Seyssins",
      "prix": {
        "Gazole": 0.002153,
        "SP95": 0.002055,
        "E85": 0.0008179999999999999,
        "E10": 0.002039,
        "SP98": 0.002114
      },
      "maj_gouv": {
        "Gazole": "2026-05-08 09:02:36",
        "SP95": "2026-05-08 09:02:36",
        "E85": "2026-04-29 09:27:28",
        "E10": "2026-05-08 09:02:36",
        "SP98": "2026-04-28 09:12:55"
      }
    },
    {
      "id": "38100015",
      "lat": 45.183,
      "lon": 5.734,
      "cp": "38100",
      "ville": "Grenoble",
      "prix": {
        "Gazole": 0.002529,
        "E10": 0.002099,
        "SP98": 0.002199
      },
      "maj_gouv": {
        "Gazole": "2026-04-03 06:00:00",
        "E10": "2026-04-03 06:00:00",
        "SP98": "2026-04-03 06:00:00"
      }
    },
    {
      "id": "38240004",
      "lat": 45.21538,
      "lon": 5.78144,
      "cp": "38240",
      "ville": "MEYLAN",
      "prix": {
        "Gazole": 0.002249,
        "E10": 0.002099,
        "SP98": 0.002199
      },
      "maj_gouv": {
        "Gazole": "2026-05-09 07:00:00",
        "E10": "2026-05-09 07:00:00",
        "SP98": "2026-05-09 07:00:00"
      }
    },
    {
      "id": "38320002",
      "lat": 45.15,
      "lon": 5.75,
      "cp": "38320",
      "ville": "Eybens",
      "prix": {
        "Gazole": 0.0021680000000000002,
        "E85": 0.001008,
        "E10": 0.0020510000000000003,
        "SP98": 0.0021230000000000003
      },
      "maj_gouv": {
        "Gazole": "2026-05-07 15:50:00",
        "E85": "2026-05-07 15:50:00",
        "E10": "2026-05-07 15:50:00",
        "SP98": "2026-05-07 15:50:00"
      }
    },
    {
      "id": "38430002",
      "lat": 45.327,
      "lon": 5.576,
      "cp": "38430",
      "ville": "Moirans",
      "prix": {
        "Gazole": 0.002139,
        "E10": 0.002019,
        "SP98": 0.002099
      },
      "maj_gouv": {
        "Gazole": "2026-05-07 10:00:00",
        "E10": "2026-05-07 10:00:00",
        "SP98": "2026-05-07 10:00:00"
      }
    },
    {
      "id": "38480007",
      "lat": 45.578,
      "lon": 5.634,
      "cp": "38480",
      "ville": "ROMAGNIEU",
      "prix": {
        "Gazole": 0.002395,
        "GPLc": 0.001148,
        "E10": 0.00222,
        "SP98": 0.00232
      },
      "maj_gouv": {
        "Gazole": "2026-05-08 07:41:00",
        "GPLc": "2026-05-08 07:41:00",
        "E10": "2026-05-08 07:41:00",
        "SP98": "2026-05-08 07:41:00"
      }
    },
    {
      "id": "38500005",
      "lat": 45.378,
      "lon": 5.582,
      "cp": "38500",
      "ville": "VOIRON",
      "prix": {
        "Gazole": 0.002125,
        "E10": 0.002049,
        "SP98": 0.002139
      },
      "maj_gouv": {
        "Gazole": "2026-05-07 06:31:00",
        "E10": "2026-05-07 06:31:00",
        "SP98": "2026-05-07 06:31:00"
      }
    },
    {
      "id": "38550001",
      "lat": 45.377714399138,
      "lon": 4.795432297657,
      "cp": "38550",
      "ville": "LE PéAGE-DE-ROUSSILLON",
      "prix": {
        "Gazole": 0.0021360000000000003,
        "E85": 0.000819,
        "E10": 0.001992,
        "SP98": 0.002098
      },
      "maj_gouv": {
        "Gazole": "2026-05-07 08:24:54",
        "E85": "2026-04-17 08:08:02",
        "E10": "2026-05-07 08:24:54",
        "SP98": "2026-05-07 08:24:54"
      }
    },
    {
      "id": "38100013",
      "lat": 45.18,
      "lon": 5.712,
      "cp": "38100",
      "ville": "GRENOBLE",
      "prix": {
        "Gazole": 0.002149,
        "E85": 0.000999,
        "E10": 0.002099,
        "SP98": 0.002269
      },
      "maj_gouv": {
        "Gazole": "2026-05-10 06:20:23",
        "E85": "2026-05-10 06:20:23",
        "E10": "2026-05-10 06:20:23",
        "SP98": "2026-05-10 06:20:23"
      }
    },
    {
      "id": "38450002",
      "lat": 45.048490039600004,
      "lon": 5.66907863013,
      "cp": "38450",
      "ville": "VIF",
      "prix": {
        "Gazole": 0.002369,
        "E85": 0.000919,
        "E10": 0.002169
      },
      "maj_gouv": {
        "Gazole": "2026-05-07 14:00:00",
        "E85": "2026-05-07 14:00:00",
        "E10": "2026-05-07 14:00:00"
      }
    },
    {
      "id": "38920002",
      "lat": 45.274,
      "lon": 5.886,
      "cp": "38920",
      "ville": "Crolles",
      "prix": {
        "Gazole": 0.002169,
        "SP95": 0.002129,
        "E10": 0.002095,
        "SP98": 0.002205
      },
      "maj_gouv": {
        "Gazole": "2026-05-09 07:26:00",
        "SP95": "2026-05-09 07:26:00",
        "E10": "2026-05-09 07:26:00",
        "SP98": "2026-05-08 07:30:00"
      }
    },
    {
      "id": "38350004",
      "lat": 44.934,
      "lon": 5.782,
      "cp": "38350",
      "ville": "La Mure",
      "prix": {
        "Gazole": 0.002179,
        "E85": 0.0008179999999999999,
        "E10": 0.002029,
        "SP98": 0.002117
      },
      "maj_gouv": {
        "Gazole": "2026-05-09 19:18:25",
        "E85": "2026-05-09 19:18:25",
        "E10": "2026-05-09 19:18:25",
        "SP98": "2026-05-09 19:18:25"
      }
    },
    {
      "id": "38930001",
      "lat": 44.823,
      "lon": 5.621,
      "cp": "38930",
      "ville": "CLELLES en TRIEVES",
      "prix": {
        "Gazole": 0.002299,
        "E85": 0.000989,
        "E10": 0.002149,
        "SP98": 0.002246
      },
      "maj_gouv": {
        "Gazole": "2026-05-04 06:57:49",
        "E85": "2026-05-07 08:15:03",
        "E10": "2026-04-29 05:59:32",
        "SP98": "2026-05-07 08:15:03"
      }
    },
    {
      "id": "38630003",
      "lat": 45.61,
      "lon": 5.537,
      "cp": "38630",
      "ville": "Corbelin",
      "prix": {
        "Gazole": 0.002179,
        "E10": 0.002049
      },
      "maj_gouv": {
        "Gazole": "2026-05-06 10:25:45",
        "E10": "2026-05-06 10:25:46"
      }
    },
    {
      "id": "38300018",
      "lat": 45.586,
      "lon": 5.269,
      "cp": "38300",
      "ville": "BOURGOIN JALLIEU",
      "prix": {
        "Gazole": 0.00209,
        "E85": 0.000846,
        "E10": 0.00199
      },
      "maj_gouv": {
        "Gazole": "2026-05-10 00:01:00",
        "E85": "2026-05-10 00:01:00",
        "E10": "2026-05-10 00:01:00"
      }
    },
    {
      "id": "38150001",
      "lat": 45.34,
      "lon": 4.805,
      "cp": "38150",
      "ville": "SALAISE-SUR-SANNE",
      "prix": {
        "Gazole": 0.00204,
        "SP95": 0.0020499999999999997,
        "E85": 0.000839,
        "GPLc": 0.000969,
        "E10": 0.001981,
        "SP98": 0.002105
      },
      "maj_gouv": {
        "Gazole": "2026-05-09 09:03:36",
        "SP95": "2026-05-09 09:03:37",
        "E85": "2026-05-02 11:25:38",
        "GPLc": "2026-05-07 10:43:44",
        "E10": "2026-05-09 09:03:37",
        "SP98": "2026-05-09 09:03:37"
      }
    },
    {
      "id": "38500007",
      "lat": 45.357,
      "lon": 5.593,
      "cp": "38500",
      "ville": "VOIRON",
      "prix": {
        "E85": 0.0008489999999999999,
        "GPLc": 0.001049
      },
      "maj_gouv": {
        "E85": "2026-05-10 00:01:00",
        "GPLc": "2026-05-10 00:01:00"
      }
    },
    {
      "id": "38380002",
      "lat": 45.391,
      "lon": 5.739,
      "cp": "38380",
      "ville": "Saint-Laurent-du-Pont",
      "prix": {
        "Gazole": 0.0022879999999999997,
        "E85": 0.000902,
        "E10": 0.002098,
        "SP98": 0.002209
      },
      "maj_gouv": {
        "Gazole": "2026-04-29 20:18:04",
        "E85": "2026-01-12 19:21:54",
        "E10": "2026-04-29 20:18:04",
        "SP98": "2026-04-29 20:18:04"
      }
    },
    {
      "id": "38700001",
      "lat": 45.196,
      "lon": 5.753,
      "cp": "38700",
      "ville": "La Tronche",
      "prix": {
        "Gazole": 0.002211,
        "E85": 0.001085,
        "E10": 0.002092,
        "SP98": 0.002184
      },
      "maj_gouv": {
        "Gazole": "2026-04-30 07:34:35",
        "E85": "2026-04-30 07:34:35",
        "E10": "2026-05-07 07:50:38",
        "SP98": "2026-05-07 07:50:38"
      }
    },
    {
      "id": "38140009",
      "lat": 45.342,
      "lon": 5.495,
      "cp": "38140",
      "ville": "Renage",
      "prix": {
        "Gazole": 0.002155,
        "SP95": 0.0020800000000000003,
        "SP98": 0.002129
      },
      "maj_gouv": {
        "Gazole": "2026-05-07 07:54:38",
        "SP95": "2026-05-09 09:10:10",
        "SP98": "2026-05-09 09:10:11"
      }
    },
    {
      "id": "38170004",
      "lat": 45.1758,
      "lon": 5.69701,
      "cp": "38170",
      "ville": "SEYSSINET",
      "prix": {
        "Gazole": 0.00209
      },
      "maj_gouv": {
        "Gazole": "2026-05-10 00:01:00"
      }
    },
    {
      "id": "38460004",
      "lat": 45.72364366177,
      "lon": 5.22386299933,
      "cp": "38460",
      "ville": "Villemoirieu",
      "prix": {
        "Gazole": 0.002169,
        "E85": 0.000879,
        "E10": 0.002018,
        "SP98": 0.002099
      },
      "maj_gouv": {
        "Gazole": "2026-05-07 16:43:04",
        "E85": "2026-04-29 16:31:24",
        "E10": "2026-04-29 16:31:24",
        "SP98": "2026-04-29 16:31:24"
      }
    },
    {
      "id": "38290003",
      "lat": 45.641,
      "lon": 5.137,
      "cp": "38290",
      "ville": "La Verpillière",
      "prix": {
        "Gazole": 0.00209,
        "E85": 0.000891,
        "E10": 0.00199,
        "SP98": 0.00199
      },
      "maj_gouv": {
        "Gazole": "2026-05-08 00:10:00",
        "E85": "2026-04-30 16:35:04",
        "E10": "2026-05-07 15:15:06",
        "SP98": "2026-05-07 07:22:54"
      }
    },
    {
      "id": "38090004",
      "lat": 45.615,
      "lon": 5.158,
      "cp": "38090",
      "ville": "Villefontaine",
      "prix": {
        "Gazole": 0.0022890000000000002,
        "SP95": 0.002089,
        "SP98": 0.002149
      },
      "maj_gouv": {
        "Gazole": "2026-05-07 06:15:00",
        "SP95": "2026-05-07 19:19:00",
        "SP98": "2026-05-07 19:19:00"
      }
    },
    {
      "id": "38142001",
      "lat": 45.046,
      "lon": 6.127,
      "cp": "38142",
      "ville": "Le Freney-d'Oisans",
      "prix": {
        "Gazole": 0.0023490000000000004,
        "SP95": 0.002079,
        "SP98": 0.002139
      },
      "maj_gouv": {
        "Gazole": "2026-05-07 08:50:34",
        "SP95": "2026-05-08 08:10:11",
        "SP98": "2026-05-08 08:10:11"
      }
    },
    {
      "id": "38370003",
      "lat": 45.438,
      "lon": 4.77,
      "cp": "38370",
      "ville": "Saint-Clair-du-Rhône",
      "prix": {
        "Gazole": 0.002199,
        "SP95": 0.002129,
        "E85": 0.000769,
        "E10": 0.002089
      },
      "maj_gouv": {
        "Gazole": "2026-05-06 12:17:06",
        "SP95": "2026-05-06 12:17:06",
        "E85": "2026-02-21 23:59:00",
        "E10": "2026-05-06 12:17:06"
      }
    },
    {
      "id": "38540001",
      "lat": 45.639,
      "lon": 5.044,
      "cp": "38540",
      "ville": "HEYRIEUX",
      "prix": {
        "Gazole": 0.0021579999999999998,
        "E85": 0.000819,
        "E10": 0.001998,
        "SP98": 0.002099
      },
      "maj_gouv": {
        "Gazole": "2026-04-28 07:08:51",
        "E85": "2026-04-16 07:07:28",
        "E10": "2026-05-04 11:43:57",
        "SP98": "2026-04-28 07:08:51"
      }
    },
    {
      "id": "38200017",
      "lat": 45.538,
      "lon": 4.874,
      "cp": "38200",
      "ville": "Vienne",
      "prix": {
        "Gazole": 0.002169,
        "SP95": 0.002085,
        "SP98": 0.002159
      },
      "maj_gouv": {
        "Gazole": "2026-05-08 07:46:17",
        "SP95": "2026-05-08 07:46:17",
        "SP98": "2026-05-08 07:46:17"
      }
    },
    {
      "id": "38480006",
      "lat": 45.536,
      "lon": 5.645,
      "cp": "38480",
      "ville": "PONT DE BEAUVOISIN",
      "prix": {
        "Gazole": 0.002169,
        "E10": 0.002079,
        "SP98": 0.002179
      },
      "maj_gouv": {
        "Gazole": "2026-05-06 11:02:05",
        "E10": "2026-04-28 11:57:58",
        "SP98": "2026-04-28 11:57:58"
      }
    },
    {
      "id": "38750001",
      "lat": 45.088,
      "lon": 6.073,
      "cp": "38750",
      "ville": "ALPE D'HUEZ",
      "prix": {
        "Gazole": 0.0024500000000000004,
        "SP95": 0.00228,
        "SP98": 0.0023
      },
      "maj_gouv": {
        "Gazole": "2026-04-28 07:12:21",
        "SP95": "2026-04-03 13:07:00",
        "SP98": "2026-04-03 13:07:00"
      }
    },
    {
      "id": "38550002",
      "lat": 45.421,
      "lon": 4.817,
      "cp": "38550",
      "ville": "Auberives sur Vareze",
      "prix": {
        "Gazole": 0.002149,
        "E10": 0.002033,
        "SP98": 0.002121
      },
      "maj_gouv": {
        "Gazole": "2026-05-07 11:33:24",
        "E10": "2026-05-07 11:33:24",
        "SP98": "2026-05-07 11:33:24"
      }
    },
    {
      "id": "38780003",
      "lat": 45.5669888,
      "lon": 5.0081483,
      "cp": "38780",
      "ville": "OYTIER ST OBLAS",
      "prix": {
        "Gazole": 0.002199,
        "E10": 0.002059,
        "SP98": 0.002179
      },
      "maj_gouv": {
        "Gazole": "2026-05-06 08:13:05",
        "E10": "2026-04-28 08:25:28",
        "SP98": "2026-04-28 08:25:28"
      }
    },
    {
      "id": "38710003",
      "lat": 44.815,
      "lon": 5.751,
      "cp": "38710",
      "ville": "MENS",
      "prix": {
        "Gazole": 0.00225,
        "SP95": 0.00199
      },
      "maj_gouv": {
        "Gazole": "2026-04-09 13:38:22",
        "SP95": "2026-04-09 13:38:22"
      }
    },
    {
      "id": "38260003",
      "lat": 45.387,
      "lon": 5.368,
      "cp": "38260",
      "ville": "La Frette",
      "prix": {
        "Gazole": 0.00209,
        "E10": 0.00199,
        "SP98": 0.00199
      },
      "maj_gouv": {
        "Gazole": "2026-05-08 00:02:00",
        "E10": "2026-04-21 09:20:21",
        "SP98": "2026-04-13 13:00:10"
      }
    },
    {
      "id": "38210001",
      "lat": 45.294,
      "lon": 5.509,
      "cp": "38210",
      "ville": "Tullins",
      "prix": {
        "Gazole": 0.002229,
        "E10": 0.002069,
        "SP98": 0.002199
      },
      "maj_gouv": {
        "Gazole": "2026-05-06 08:00:00",
        "E10": "2026-05-06 08:00:00",
        "SP98": "2026-05-06 08:00:00"
      }
    },
    {
      "id": "38350001",
      "lat": 44.913,
      "lon": 5.798,
      "cp": "38350",
      "ville": "La Mure",
      "prix": {
        "Gazole": 0.002178,
        "GPLc": 0.00109,
        "E10": 0.002069,
        "SP98": 0.0021160000000000003
      },
      "maj_gouv": {
        "Gazole": "2026-05-07 08:49:22",
        "GPLc": "2026-05-07 08:49:22",
        "E10": "2026-05-07 08:49:22",
        "SP98": "2026-05-07 08:49:22"
      }
    },
    {
      "id": "38660002",
      "lat": 45.349,
      "lon": 5.946,
      "cp": "38660",
      "ville": "Le Touvet",
      "prix": {
        "Gazole": 0.002359,
        "E85": 0.000909,
        "E10": 0.002179,
        "SP98": 0.002299
      },
      "maj_gouv": {
        "Gazole": "2026-05-05 14:00:59",
        "E85": "2026-05-04 14:03:08",
        "E10": "2026-05-05 14:00:59",
        "SP98": "2026-05-05 14:00:59"
      }
    },
    {
      "id": "38970000",
      "lat": 44.817248642167,
      "lon": 5.948428225132,
      "cp": "38970",
      "ville": "Corps",
      "prix": {
        "Gazole": 0.00209,
        "SP95": 0.0019890000000000003
      },
      "maj_gouv": {
        "Gazole": "2026-05-09 07:46:04",
        "SP95": "2026-05-09 07:46:05"
      }
    },
    {
      "id": "38210003",
      "lat": 45.297,
      "lon": 5.502,
      "cp": "38210",
      "ville": "TULLINS",
      "prix": {
        "Gazole": 0.002299,
        "E10": 0.002189,
        "SP98": 0.002269
      },
      "maj_gouv": {
        "Gazole": "2026-05-09 07:02:14",
        "E10": "2026-05-09 07:02:15",
        "SP98": "2026-05-09 07:02:15"
      }
    },
    {
      "id": "38860001",
      "lat": 45.019,
      "lon": 6.125,
      "cp": "38860",
      "ville": "Les Deux-Alpes",
      "prix": {
        "Gazole": 0.00239,
        "SP95": 0.00219,
        "SP98": 0.0022400000000000002
      },
      "maj_gouv": {
        "Gazole": "2026-04-30 08:25:45",
        "SP95": "2026-04-22 07:09:13",
        "SP98": "2026-04-22 07:09:13"
      }
    },
    {
      "id": "38290005",
      "lat": 45.641913325291,
      "lon": 5.1311499421142,
      "cp": "38290",
      "ville": "La Verpillière",
      "prix": {
        "Gazole": 0.002199,
        "E85": 0.000819,
        "GPLc": 0.001039,
        "E10": 0.002099,
        "SP98": 0.002179
      },
      "maj_gouv": {
        "Gazole": "2026-05-05 07:55:37",
        "E85": "2026-04-22 08:46:11",
        "GPLc": "2026-04-18 09:16:33",
        "E10": "2026-05-07 08:11:04",
        "SP98": "2026-05-04 08:47:07"
      }
    },
    {
      "id": "38850002",
      "lat": 45.427,
      "lon": 5.516,
      "cp": "38850",
      "ville": "CHARAVINES",
      "prix": {
        "Gazole": 0.00209,
        "SP95": 0.00199,
        "E10": 0.00199,
        "SP98": 0.00199
      },
      "maj_gouv": {
        "Gazole": "2026-05-07 17:37:04",
        "SP95": "2026-04-23 14:06:40",
        "E10": "2026-05-07 17:37:04",
        "SP98": "2026-05-07 17:37:04"
      }
    },
    {
      "id": "38300020",
      "lat": 45.584,
      "lon": 5.297,
      "cp": "38300",
      "ville": "Bourgoin-Jallieu",
      "prix": {
        "Gazole": 0.002457,
        "SP95": 0.002068,
        "SP98": 0.001999
      },
      "maj_gouv": {
        "Gazole": "2026-04-13 09:54:19",
        "SP95": "2026-04-13 09:54:20",
        "SP98": "2026-03-23 17:58:33"
      }
    },
    {
      "id": "38630005",
      "lat": 45.629,
      "lon": 5.577,
      "cp": "38630",
      "ville": "LES AVENIERES VEYRINS THUELLIN",
      "prix": {
        "Gazole": 0.002169,
        "E85": 0.000819,
        "E10": 0.002039,
        "SP98": 0.002149
      },
      "maj_gouv": {
        "Gazole": "2026-05-07 11:02:58",
        "E85": "2026-04-16 09:53:41",
        "E10": "2026-05-07 11:02:58",
        "SP98": "2026-05-07 11:02:59"
      }
    },
    {
      "id": "38080007",
      "lat": 45.612,
      "lon": 5.21,
      "cp": "38080",
      "ville": "L'Isle-d'Abeau",
      "prix": {
        "Gazole": 0.002339,
        "E85": 0.001055,
        "GPLc": 0.00113,
        "E10": 0.0021190000000000002,
        "SP98": 0.002199
      },
      "maj_gouv": {
        "Gazole": "2026-04-25 06:00:00",
        "E85": "2026-04-25 06:00:00",
        "GPLc": "2026-04-25 06:00:00",
        "E10": "2026-04-25 06:00:00",
        "SP98": "2026-04-25 06:00:00"
      }
    },
    {
      "id": "38140001",
      "lat": 45.358,
      "lon": 5.493,
      "cp": "38140",
      "ville": "RIVES",
      "prix": {
        "Gazole": 0.0022029999999999997,
        "E10": 0.0020499999999999997,
        "SP98": 0.002184
      },
      "maj_gouv": {
        "Gazole": "2026-05-08 08:04:37",
        "E10": "2026-05-08 08:04:37",
        "SP98": "2026-05-08 08:04:37"
      }
    },
    {
      "id": "38510003",
      "lat": 45.684,
      "lon": 5.451,
      "cp": "38510",
      "ville": "Passins",
      "prix": {
        "Gazole": 0.002099,
        "E85": 0.000799,
        "GPLc": 0.000909,
        "E10": 0.0019790000000000003
      },
      "maj_gouv": {
        "Gazole": "2026-05-07 09:30:12",
        "E85": "2026-04-17 10:03:28",
        "GPLc": "2026-04-24 10:49:39",
        "E10": "2026-05-07 09:30:25"
      }
    },
    {
      "id": "38230002",
      "lat": 45.752,
      "lon": 5.193,
      "cp": "38230",
      "ville": "Tignieu-Jameyzieu",
      "prix": {
        "Gazole": 0.002149,
        "E10": 0.00199
      },
      "maj_gouv": {
        "Gazole": "2026-05-07 07:24:12",
        "E10": "2026-05-07 07:24:13"
      }
    },
    {
      "id": "38480005",
      "lat": 45.577923957245,
      "lon": 5.6305877865600005,
      "cp": "38480",
      "ville": "Le Pont-de-Beauvoisin",
      "prix": {
        "Gazole": 0.002339,
        "E85": 0.001055,
        "GPLc": 0.00113,
        "E10": 0.0021190000000000002,
        "SP98": 0.002199
      },
      "maj_gouv": {
        "Gazole": "2026-04-25 11:13:05",
        "E85": "2026-03-19 07:05:35",
        "GPLc": "2026-04-08 13:18:33",
        "E10": "2026-04-25 11:13:05",
        "SP98": "2026-04-25 11:13:05"
      }
    },
    {
      "id": "38300021",
      "lat": 45.59,
      "lon": 5.242,
      "cp": "38300",
      "ville": "BOURGOIN",
      "prix": {
        "Gazole": 0.002199,
        "E10": 0.002049,
        "SP98": 0.002159
      },
      "maj_gouv": {
        "Gazole": "2026-05-05 09:06:23",
        "E10": "2026-05-05 09:06:23",
        "SP98": "2026-05-05 09:06:24"
      }
    },
    {
      "id": "38780001",
      "lat": 45.528,
      "lon": 4.915,
      "cp": "38780",
      "ville": "PONT-ÉVêQUE",
      "prix": {
        "Gazole": 0.002197,
        "E10": 0.0020440000000000002,
        "SP98": 0.002179
      },
      "maj_gouv": {
        "Gazole": "2026-05-06 07:53:43",
        "E10": "2026-05-06 07:53:44",
        "SP98": "2026-05-06 07:53:44"
      }
    },
    {
      "id": "38260004",
      "lat": 45.352,
      "lon": 5.254,
      "cp": "38260",
      "ville": "La Côte-Saint-André",
      "prix": {
        "Gazole": 0.00209,
        "GPLc": 0.00107
      },
      "maj_gouv": {
        "Gazole": "2026-05-08 00:00:00",
        "GPLc": "2026-05-07 15:17:34"
      }
    },
    {
      "id": "38870001",
      "lat": 45.335058085041,
      "lon": 5.2656225241942005,
      "cp": "38870",
      "ville": "Saint-Siméon-de-Bressieux",
      "prix": {
        "Gazole": 0.002109,
        "E85": 0.000819,
        "E10": 0.002009,
        "SP98": 0.002159
      },
      "maj_gouv": {
        "Gazole": "2026-05-08 08:55:42",
        "E85": "2026-04-17 08:14:24",
        "E10": "2026-05-08 09:02:22",
        "SP98": "2026-05-07 07:05:16"
      }
    },
    {
      "id": "38120002",
      "lat": 45.248,
      "lon": 5.667,
      "cp": "38120",
      "ville": "Fontanil-Cornillon",
      "prix": {
        "Gazole": 0.00209,
        "E85": 0.000884,
        "E10": 0.00199
      },
      "maj_gouv": {
        "Gazole": "2026-05-08 23:59:00",
        "E85": "2026-04-16 23:59:00",
        "E10": "2026-05-09 11:52:00"
      }
    },
    {
      "id": "38330006",
      "lat": 45.243577289359,
      "lon": 5.8607648908294,
      "cp": "38330",
      "ville": "Saint-Nazaire-les-Eymes",
      "prix": {
        "Gazole": 0.002339,
        "GPLc": 0.00113,
        "E10": 0.0021190000000000002,
        "SP98": 0.002199
      },
      "maj_gouv": {
        "Gazole": "2026-04-25 06:00:00",
        "GPLc": "2026-04-24 13:12:37",
        "E10": "2026-04-25 06:00:00",
        "SP98": "2026-04-25 06:00:00"
      }
    },
    {
      "id": "38520005",
      "lat": 45.059,
      "lon": 6.032,
      "cp": "38520",
      "ville": "Le Bourg-d'Oisans",
      "prix": {
        "Gazole": 0.002169,
        "E85": 0.0008179999999999999,
        "E10": 0.0020510000000000003,
        "SP98": 0.002166
      },
      "maj_gouv": {
        "Gazole": "2026-05-07 11:33:31",
        "E85": "2026-05-07 11:33:31",
        "E10": "2026-05-07 11:33:31",
        "SP98": "2026-05-07 11:33:31"
      }
    },
    {
      "id": "38200014",
      "lat": 45.52,
      "lon": 4.87,
      "cp": "38200",
      "ville": "Vienne",
      "prix": {
        "Gazole": 0.00209
      },
      "maj_gouv": {
        "Gazole": "2026-05-08 08:05:56"
      }
    },
    {
      "id": "38260002",
      "lat": 45.387,
      "lon": 5.369,
      "cp": "38260",
      "ville": "LA FRETTE",
      "prix": {
        "Gazole": 0.00209,
        "E10": 0.00199,
        "SP98": 0.00199
      },
      "maj_gouv": {
        "Gazole": "2026-05-08 00:02:00",
        "E10": "2026-05-08 00:02:00",
        "SP98": "2026-05-08 00:02:00"
      }
    },
    {
      "id": "38160002",
      "lat": 45.144,
      "lon": 5.305,
      "cp": "38160",
      "ville": "Chatte",
      "prix": {
        "Gazole": 0.002154,
        "SP95": 0.0020729999999999998,
        "GPLc": 0.001,
        "E10": 0.002034,
        "SP98": 0.002109
      },
      "maj_gouv": {
        "Gazole": "2026-05-10 01:15:00",
        "SP95": "2026-05-10 01:15:00",
        "GPLc": "2026-05-10 01:15:00",
        "E10": "2026-05-10 01:15:00",
        "SP98": "2026-05-10 01:15:00"
      }
    },
    {
      "id": "38600003",
      "lat": 45.197,
      "lon": 5.673,
      "cp": "38600",
      "ville": "Fontaine",
      "prix": {
        "Gazole": 0.00218,
        "E85": 0.000879,
        "GPLc": 0.00108,
        "E10": 0.0020259999999999996,
        "SP98": 0.00219
      },
      "maj_gouv": {
        "Gazole": "2026-05-05 09:41:29",
        "E85": "2026-05-05 09:41:29",
        "GPLc": "2026-05-05 09:41:29",
        "E10": "2026-05-05 09:41:29",
        "SP98": "2026-05-05 09:41:29"
      }
    },
    {
      "id": "38420003",
      "lat": 45.207,
      "lon": 5.828,
      "cp": "38420",
      "ville": "Domene",
      "prix": {
        "Gazole": 0.002069,
        "E10": 0.002029,
        "SP98": 0.002169
      },
      "maj_gouv": {
        "Gazole": "2026-05-09 08:49:26",
        "E10": "2026-05-09 08:49:26",
        "SP98": "2026-05-09 08:49:26"
      }
    },
    {
      "id": "38530001",
      "lat": 45.435356491454,
      "lon": 6.0059225038886,
      "cp": "38530",
      "ville": "PONTCHARRA",
      "prix": {
        "Gazole": 0.0022080000000000003,
        "GPLc": 0.001139,
        "E10": 0.002095,
        "SP98": 0.0021579999999999998
      },
      "maj_gouv": {
        "Gazole": "2026-05-04 08:59:36",
        "GPLc": "2026-04-13 08:32:34",
        "E10": "2026-05-04 08:59:36",
        "SP98": "2026-05-04 08:59:36"
      }
    },
    {
      "id": "38530004",
      "lat": 45.47,
      "lon": 5.993,
      "cp": "38530",
      "ville": "Chapareillan",
      "prix": {
        "Gazole": 0.0022080000000000003,
        "E85": 0.0008179999999999999,
        "E10": 0.002095,
        "SP98": 0.0021579999999999998
      },
      "maj_gouv": {
        "Gazole": "2026-05-04 09:12:05",
        "E85": "2026-04-17 07:44:58",
        "E10": "2026-05-04 09:12:05",
        "SP98": "2026-05-04 09:12:05"
      }
    },
    {
      "id": "38080003",
      "lat": 45.61432,
      "lon": 5.2251,
      "cp": "38080",
      "ville": "L'ISLE-D'ABEAU",
      "prix": {
        "Gazole": 0.002179,
        "SP95": 0.002089,
        "E85": 0.000829,
        "GPLc": 0.000989,
        "E10": 0.002049,
        "SP98": 0.002129
      },
      "maj_gouv": {
        "Gazole": "2026-05-07 09:02:12",
        "SP95": "2026-05-05 09:35:02",
        "E85": "2026-05-07 09:02:12",
        "GPLc": "2026-05-04 08:45:40",
        "E10": "2026-05-07 09:03:06",
        "SP98": "2026-05-04 08:45:40"
      }
    },
    {
      "id": "38114002",
      "lat": 45.126,
      "lon": 6.033,
      "cp": "38114",
      "ville": "ALLEMOND",
      "prix": {
        "Gazole": 0.00232,
        "SP95": 0.00202
      },
      "maj_gouv": {
        "Gazole": "2026-04-25 10:30:37",
        "SP95": "2026-04-25 10:30:37"
      }
    },
    {
      "id": "38270006",
      "lat": 45.341649573689004,
      "lon": 5.0652477531786,
      "cp": "38270",
      "ville": "ST BARTHELEMY DE BEAUREPAIRE",
      "prix": {
        "Gazole": 0.002109,
        "E10": 0.002009,
        "SP98": 0.002159
      },
      "maj_gouv": {
        "Gazole": "2026-05-08 08:57:07",
        "E10": "2026-05-08 08:57:07",
        "SP98": "2026-05-07 07:24:21"
      }
    },
    {
      "id": "38830002",
      "lat": 45.374469000000005,
      "lon": 6.051571999999999,
      "cp": "38830",
      "ville": "CRETS EN BELLEDONNE",
      "prix": {
        "Gazole": 0.0022170000000000002,
        "E85": 0.0008179999999999999,
        "E10": 0.002023
      },
      "maj_gouv": {
        "Gazole": "2026-04-23 09:25:46",
        "E85": "2026-04-21 11:15:49",
        "E10": "2026-04-23 09:25:46"
      }
    },
    {
      "id": "38300004",
      "lat": 45.586,
      "lon": 5.264,
      "cp": "38300",
      "ville": "Bourgoin-Jallieu",
      "prix": {
        "Gazole": 0.002199,
        "E10": 0.002049,
        "SP98": 0.002129
      },
      "maj_gouv": {
        "Gazole": "2026-05-05 15:56:00",
        "E10": "2026-05-05 15:56:00",
        "SP98": "2026-05-05 15:56:00"
      }
    },
    {
      "id": "38190004",
      "lat": 45.247,
      "lon": 5.868,
      "cp": "38330",
      "ville": "Saint-Nazaire-les-Eymes",
      "prix": {
        "Gazole": 0.0023650000000000003,
        "E10": 0.002186,
        "SP98": 0.002286
      },
      "maj_gouv": {
        "Gazole": "2026-05-07 06:31:00",
        "E10": "2026-05-07 06:31:00",
        "SP98": "2026-05-07 06:31:00"
      }
    },
    {
      "id": "38160003",
      "lat": 45.161,
      "lon": 5.35,
      "cp": "38160",
      "ville": "SAINT-SAUVEUR",
      "prix": {
        "Gazole": 0.002154,
        "E85": 0.000819,
        "E10": 0.002029,
        "SP98": 0.002109
      },
      "maj_gouv": {
        "Gazole": "2026-05-07 12:15:13",
        "E85": "2026-04-17 10:52:06",
        "E10": "2026-05-05 10:57:32",
        "SP98": "2026-05-07 12:15:14"
      }
    },
    {
      "id": "38380003",
      "lat": 45.388,
      "lon": 5.73,
      "cp": "38380",
      "ville": "Saint-Laurent-du-Pont",
      "prix": {
        "Gazole": 0.002169,
        "E85": 0.000819,
        "E10": 0.002009,
        "SP98": 0.002109
      },
      "maj_gouv": {
        "Gazole": "2026-05-05 08:12:07",
        "E85": "2026-04-16 08:34:46",
        "E10": "2026-05-05 08:12:07",
        "SP98": "2026-05-05 08:12:07"
      }
    },
    {
      "id": "38440004",
      "lat": 45.496,
      "lon": 5.143,
      "cp": "38440",
      "ville": "SAINT JEAN DE BOURNAY",
      "prix": {
        "Gazole": 0.002159,
        "E85": 0.0008179999999999999,
        "E10": 0.002019
      },
      "maj_gouv": {
        "Gazole": "2026-05-05 15:29:01",
        "E85": "2026-04-21 09:14:46",
        "E10": "2026-05-07 16:37:30"
      }
    },
    {
      "id": "38350006",
      "lat": 44.941,
      "lon": 5.763,
      "cp": "38350",
      "ville": "SUSVILLE",
      "prix": {},
      "maj_gouv": {}
    },
    {
      "id": "38420004",
      "lat": 45.212,
      "lon": 5.857,
      "cp": "38420",
      "ville": "LE VERSOUD",
      "prix": {
        "Gazole": 0.00209,
        "E10": 0.00199
      },
      "maj_gouv": {
        "Gazole": "2026-05-08 07:58:05",
        "E10": "2026-05-08 07:58:05"
      }
    },
    {
      "id": "38380001",
      "lat": 45.423,
      "lon": 5.773,
      "cp": "38380",
      "ville": "Entre-deux-Guiers",
      "prix": {
        "Gazole": 0.002169,
        "E10": 0.002009,
        "SP98": 0.002109
      },
      "maj_gouv": {
        "Gazole": "2026-05-05 08:48:11",
        "E10": "2026-05-05 08:48:11",
        "SP98": "2026-05-05 08:48:11"
      }
    },
    {
      "id": "38340015",
      "lat": 45.289,
      "lon": 5.639,
      "cp": "38340",
      "ville": "Voreppe",
      "prix": {
        "Gazole": 0.002163,
        "E85": 0.0008990000000000001,
        "E10": 0.0020659999999999997
      },
      "maj_gouv": {
        "Gazole": "2026-05-09 08:46:27",
        "E85": "2026-04-20 09:17:32",
        "E10": "2026-05-09 08:46:27"
      }
    },
    {
      "id": "38500008",
      "lat": 45.363782,
      "lon": 5.5911230000000005,
      "cp": "38500",
      "ville": "VOIRON",
      "prix": {
        "Gazole": 0.002195,
        "SP95": 0.002094,
        "SP98": 0.002155
      },
      "maj_gouv": {
        "Gazole": "2026-05-07 14:24:07",
        "SP95": "2026-05-07 14:24:07",
        "SP98": "2026-05-07 14:24:07"
      }
    },
    {
      "id": "38690006",
      "lat": 45.397578329194005,
      "lon": 5.466751273971799,
      "cp": "38690",
      "ville": "COLOMBE",
      "prix": {
        "Gazole": 0.002139,
        "SP95": 0.002079,
        "E10": 0.002039,
        "SP98": 0.0021190000000000002
      },
      "maj_gouv": {
        "Gazole": "2026-05-07 09:21:45",
        "SP95": "2026-05-07 09:03:02",
        "E10": "2026-04-28 09:38:01",
        "SP98": "2026-05-07 09:03:03"
      }
    },
    {
      "id": "38630006",
      "lat": 45.630258,
      "lon": 5.548851999999999,
      "cp": "38630",
      "ville": "VEYRINS THUELLIN",
      "prix": {
        "Gazole": 0.002159,
        "E10": 0.002039,
        "SP98": 0.002159
      },
      "maj_gouv": {
        "Gazole": "2026-05-09 20:18:00",
        "E10": "2026-05-09 20:18:01",
        "SP98": "2026-05-09 20:18:01"
      }
    },
    {
      "id": "38340006",
      "lat": 45.3,
      "lon": 5.628,
      "cp": "38340",
      "ville": "VOREPPE",
      "prix": {
        "Gazole": 0.002142,
        "E10": 0.0020659999999999997,
        "SP98": 0.002159
      },
      "maj_gouv": {
        "Gazole": "2026-05-09 08:45:41",
        "E10": "2026-05-09 08:45:41",
        "SP98": "2026-05-09 08:45:42"
      }
    },
    {
      "id": "38520001",
      "lat": 45.067,
      "lon": 6.022,
      "cp": "38520",
      "ville": "Le Bourg-d'Oisans",
      "prix": {
        "Gazole": 0.00209,
        "E10": 0.00199,
        "SP98": 0.00199
      },
      "maj_gouv": {
        "Gazole": "2026-05-09 18:46:26",
        "E10": "2026-05-09 18:46:26",
        "SP98": "2026-05-09 18:46:26"
      }
    },
    {
      "id": "38270005",
      "lat": 45.341,
      "lon": 5.048,
      "cp": "38270",
      "ville": "Beaurepaire",
      "prix": {
        "Gazole": 0.002179,
        "E85": 0.0008399999999999999,
        "E10": 0.002029,
        "SP98": 0.002159
      },
      "maj_gouv": {
        "Gazole": "2026-05-05 15:54:37",
        "E85": "2026-05-05 15:54:37",
        "E10": "2026-05-05 15:54:37",
        "SP98": "2026-05-05 15:54:37"
      }
    },
    {
      "id": "38570005",
      "lat": 45.302,
      "lon": 5.952,
      "cp": "38570",
      "ville": "TENCIN",
      "prix": {
        "Gazole": 0.0022080000000000003,
        "E10": 0.0021190000000000002,
        "SP98": 0.002195
      },
      "maj_gouv": {
        "Gazole": "2026-05-07 11:38:28",
        "E10": "2026-05-07 11:38:28",
        "SP98": "2026-05-07 11:38:29"
      }
    },
    {
      "id": "38440003",
      "lat": 45.499,
      "lon": 5.138,
      "cp": "38440",
      "ville": "Saint-Jean-de-Bournay",
      "prix": {
        "Gazole": 0.002159,
        "E85": 0.0008179999999999999,
        "E10": 0.002019
      },
      "maj_gouv": {
        "Gazole": "2026-05-05 10:05:16",
        "E85": "2026-04-21 13:43:34",
        "E10": "2026-05-07 09:19:46"
      }
    },
    {
      "id": "38300024",
      "lat": 45.627446928568,
      "lon": 5.3053724861477,
      "cp": "38300",
      "ville": "st savin",
      "prix": {},
      "maj_gouv": {}
    },
    {
      "id": "38590001",
      "lat": 45.354,
      "lon": 5.334,
      "cp": "38590",
      "ville": "SAINT-ÉTIENNE-DE-SAINT-GEOIRS",
      "prix": {
        "Gazole": 0.002169,
        "E85": 0.000799,
        "E10": 0.002059,
        "SP98": 0.0021190000000000002
      },
      "maj_gouv": {
        "Gazole": "2026-05-06 12:56:11",
        "E85": "2026-04-17 19:38:13",
        "E10": "2026-05-04 08:25:00",
        "SP98": "2026-05-06 12:56:12"
      }
    },
    {
      "id": "38110004",
      "lat": 45.568,
      "lon": 5.425,
      "cp": "38110",
      "ville": "SAINT-JEAN-DE-SOUDAIN",
      "prix": {
        "Gazole": 0.002129,
        "E85": 0.0008179999999999999,
        "E10": 0.002019,
        "SP98": 0.002139
      },
      "maj_gouv": {
        "Gazole": "2026-05-09 08:44:18",
        "E85": "2026-05-09 08:44:18",
        "E10": "2026-05-09 08:44:18",
        "SP98": "2026-05-09 08:44:18"
      }
    },
    {
      "id": "38260009",
      "lat": 45.439745,
      "lon": 5.295729000000001,
      "cp": "38260",
      "ville": "CHAMPIER",
      "prix": {
        "Gazole": 0.00209,
        "SP95": 0.00199,
        "SP98": 0.00199
      },
      "maj_gouv": {
        "Gazole": "2026-05-07 23:59:00",
        "SP95": "2026-05-07 23:59:00",
        "SP98": "2026-05-07 23:59:00"
      }
    },
    {
      "id": "38220002",
      "lat": 45.083,
      "lon": 5.766,
      "cp": "38220",
      "ville": "VIZILLE",
      "prix": {
        "E85": 0.000879,
        "GPLc": 0.00107
      },
      "maj_gouv": {
        "E85": "2026-05-05 08:08:06",
        "GPLc": "2026-04-01 06:00:00"
      }
    },
    {
      "id": "38070001",
      "lat": 45.637,
      "lon": 5.108,
      "cp": "38070",
      "ville": "SAINT-QUENTIN-FALLAVIER",
      "prix": {
        "Gazole": 0.002195,
        "E10": 0.002069,
        "SP98": 0.002169
      },
      "maj_gouv": {
        "Gazole": "2026-05-05 12:00:14",
        "E10": "2026-05-04 10:07:46",
        "SP98": "2026-05-04 10:07:47"
      }
    },
    {
      "id": "38431001",
      "lat": 45.157919426704005,
      "lon": 5.7239079849312,
      "cp": "38130",
      "ville": "ÉCHIROLLES",
      "prix": {
        "Gazole": 0.002162,
        "SP95": 0.002068,
        "E85": 0.000889,
        "E10": 0.002042,
        "SP98": 0.002159
      },
      "maj_gouv": {
        "Gazole": "2026-05-07 08:24:07",
        "SP95": "2026-05-07 08:24:07",
        "E85": "2026-05-07 08:24:07",
        "E10": "2026-05-07 08:24:07",
        "SP98": "2026-05-07 08:24:07"
      }
    },
    {
      "id": "38210004",
      "lat": 45.29804,
      "lon": 5.48762,
      "cp": "38210",
      "ville": "TULLINS",
      "prix": {
        "Gazole": 0.002199,
        "E10": 0.002055,
        "SP98": 0.002159
      },
      "maj_gouv": {
        "Gazole": "2026-05-07 09:55:34",
        "E10": "2026-05-08 12:08:50",
        "SP98": "2026-05-08 12:08:50"
      }
    },
    {
      "id": "38300026",
      "lat": 45.585676,
      "lon": 5.262491,
      "cp": "38300",
      "ville": "BOURGOIN",
      "prix": {
        "Gazole": 0.002199,
        "E85": 0.000869,
        "E10": 0.002099,
        "SP98": 0.002199
      },
      "maj_gouv": {
        "Gazole": "2026-05-10 06:00:00",
        "E85": "2026-05-10 06:00:00",
        "E10": "2026-05-10 06:00:00",
        "SP98": "2026-05-10 06:00:00"
      }
    },
    {
      "id": "38120001",
      "lat": 45.24,
      "lon": 5.664,
      "cp": "38120",
      "ville": "SAINT-ÉGRèVE",
      "prix": {
        "Gazole": 0.002088,
        "E10": 0.001982,
        "SP98": 0.002129
      },
      "maj_gouv": {
        "Gazole": "2026-05-09 00:40:00",
        "E10": "2026-05-09 00:40:00",
        "SP98": "2026-05-09 00:40:00"
      }
    },
    {
      "id": "38230005",
      "lat": 45.751,
      "lon": 5.145,
      "cp": "38230",
      "ville": "Charvieu-Chavagneux",
      "prix": {
        "Gazole": 0.00213,
        "E85": 0.000757,
        "E10": 0.002034,
        "SP98": 0.0021070000000000004
      },
      "maj_gouv": {
        "Gazole": "2026-05-10 01:15:00",
        "E85": "2026-05-10 01:15:00",
        "E10": "2026-05-10 01:15:00",
        "SP98": "2026-05-10 01:15:00"
      }
    },
    {
      "id": "38260008",
      "lat": 45.341,
      "lon": 5.197,
      "cp": "38260",
      "ville": "MARCILLOLES",
      "prix": {
        "Gazole": 0.00219,
        "SP95": 0.00199
      },
      "maj_gouv": {
        "Gazole": "2026-05-06 05:30:00",
        "SP95": "2026-05-06 05:30:00"
      }
    },
    {
      "id": "38680001",
      "lat": 45.064875311603,
      "lon": 5.2674007162912,
      "cp": "38680",
      "ville": "Saint-Just-de-Claix",
      "prix": {
        "Gazole": 0.002169,
        "E10": 0.002054
      },
      "maj_gouv": {
        "Gazole": "2026-05-07 09:26:32",
        "E10": "2026-05-07 09:26:32"
      }
    },
    {
      "id": "38110002",
      "lat": 45.56,
      "lon": 5.453,
      "cp": "38110",
      "ville": "La Tour-du-Pin",
      "prix": {
        "Gazole": 0.00209,
        "E85": 0.000846,
        "E10": 0.00199
      },
      "maj_gouv": {
        "Gazole": "2026-05-08 00:03:00",
        "E85": "2026-05-07 09:38:57",
        "E10": "2026-05-07 09:38:58"
      }
    },
    {
      "id": "38360006",
      "lat": 45.205,
      "lon": 5.664,
      "cp": "38360",
      "ville": "SASSENAGE",
      "prix": {
        "Gazole": 0.00209
      },
      "maj_gouv": {
        "Gazole": "2026-05-10 00:01:00"
      }
    },
    {
      "id": "38300025",
      "lat": 45.504,
      "lon": 5.303,
      "cp": "38300",
      "ville": "ECLOSE BADINIERES",
      "prix": {
        "Gazole": 0.002159,
        "E85": 0.0008179999999999999,
        "E10": 0.002019,
        "SP98": 0.002149
      },
      "maj_gouv": {
        "Gazole": "2026-05-07 09:33:12",
        "E85": "2026-04-16 07:36:36",
        "E10": "2026-05-07 09:33:12",
        "SP98": "2026-05-07 09:33:12"
      }
    },
    {
      "id": "38150005",
      "lat": 45.324650795146006,
      "lon": 4.8082875238038,
      "cp": "38150",
      "ville": "CHANAS",
      "prix": {
        "Gazole": 0.002139,
        "SP95": 0.002063,
        "E10": 0.002009
      },
      "maj_gouv": {
        "Gazole": "2026-05-07 11:59:21",
        "SP95": "2026-05-06 12:03:05",
        "E10": "2026-05-09 09:38:32"
      }
    },
    {
      "id": "38350007",
      "lat": 44.923592169504,
      "lon": 5.782743239123801,
      "cp": "38350",
      "ville": "SUSVILLE",
      "prix": {
        "Gazole": 0.002198,
        "E10": 0.002058
      },
      "maj_gouv": {
        "Gazole": "2026-05-05 08:44:34",
        "E10": "2026-05-05 08:44:35"
      }
    },
    {
      "id": "38430003",
      "lat": 45.348,
      "lon": 5.597,
      "cp": "38430",
      "ville": "Saint-Jean-de-Moirans",
      "prix": {
        "Gazole": 0.0022789999999999998,
        "E10": 0.002049,
        "SP98": 0.002182
      },
      "maj_gouv": {
        "Gazole": "2026-04-24 14:36:36",
        "E10": "2026-04-24 14:36:36",
        "SP98": "2026-04-24 14:36:36"
      }
    },
    {
      "id": "38080006",
      "lat": 45.613,
      "lon": 5.213,
      "cp": "38080",
      "ville": "L'Isle-d'Abeau",
      "prix": {
        "Gazole": 0.00209,
        "E85": 0.000998,
        "GPLc": 0.001148,
        "E10": 0.00199,
        "SP98": 0.00199
      },
      "maj_gouv": {
        "Gazole": "2026-05-10 00:01:00",
        "E85": "2026-05-10 00:01:00",
        "GPLc": "2026-05-10 00:01:00",
        "E10": "2026-05-10 00:01:00",
        "SP98": "2026-05-10 00:01:00"
      }
    },
    {
      "id": "38300009",
      "lat": 45.59,
      "lon": 5.244,
      "cp": "38300",
      "ville": "Domarin",
      "prix": {
        "Gazole": 0.002199,
        "SP95": 0.002109,
        "E10": 0.002049
      },
      "maj_gouv": {
        "Gazole": "2026-05-05 13:06:59",
        "SP95": "2026-05-05 13:06:59",
        "E10": "2026-05-05 13:06:59"
      }
    },
    {
      "id": "38000019",
      "lat": 45.182628,
      "lon": 5.7342569999999995,
      "cp": "38000",
      "ville": "GRENOBLE",
      "prix": {
        "Gazole": 0.002199,
        "E10": 0.002149
      },
      "maj_gouv": {
        "Gazole": "2026-05-10 06:00:00",
        "E10": "2026-05-10 06:00:00"
      }
    },
    {
      "id": "38160007",
      "lat": 45.155,
      "lon": 5.311,
      "cp": "38160",
      "ville": "SAINT MARCELLIN",
      "prix": {
        "Gazole": 0.0022890000000000002,
        "E10": 0.002069,
        "SP98": 0.002139
      },
      "maj_gouv": {
        "Gazole": "2026-05-07 20:00:00",
        "E10": "2026-05-07 20:00:00",
        "SP98": "2026-05-07 20:00:00"
      }
    }
  ]
}