{
  "departement": "55",
  "date": "2026-06-03",
  "stations": [
    {
      "id": "55700006",
      "lat": 49.483853119268,
      "lon": 5.2033975146027,
      "cp": "55700",
      "ville": "STENAY",
      "prix": {
        "Gazole": 0.001967,
        "SP95": 0.001976,
        "SP98": 0.0021190000000000002
      },
      "maj_gouv": {
        "Gazole": "2026-06-01 08:52:16",
        "SP95": "2026-06-01 08:52:16",
        "SP98": "2026-05-28 08:23:15"
      }
    },
    {
      "id": "55200004",
      "lat": 48.756,
      "lon": 5.585,
      "cp": "55200",
      "ville": "Commercy",
      "prix": {
        "Gazole": 0.001967,
        "E85": 0.000798,
        "E10": 0.001928,
        "SP98": 0.002038
      },
      "maj_gouv": {
        "Gazole": "2026-06-02 07:50:01",
        "E85": "2026-05-18 07:54:56",
        "E10": "2026-06-02 07:50:01",
        "SP98": "2026-06-02 07:50:01"
      }
    },
    {
      "id": "55160014",
      "lat": 49.120326,
      "lon": 5.5083983,
      "cp": "55160",
      "ville": "HAUDIOMONT",
      "prix": {
        "Gazole": 0.00218,
        "GPLc": 0.001211,
        "E10": 0.0021579999999999998,
        "SP98": 0.0022440000000000003
      },
      "maj_gouv": {
        "Gazole": "2026-06-02 11:08:45",
        "GPLc": "2026-06-02 11:08:45",
        "E10": "2026-06-02 11:08:45",
        "SP98": "2026-06-02 11:08:45"
      }
    },
    {
      "id": "55000005",
      "lat": 48.787,
      "lon": 5.14,
      "cp": "55000",
      "ville": "Fains-Véel",
      "prix": {
        "Gazole": 0.0019790000000000003,
        "GPLc": 0.00113,
        "E10": 0.001929,
        "SP98": 0.002039
      },
      "maj_gouv": {
        "Gazole": "2026-06-02 12:25:25",
        "GPLc": "2026-04-27 10:33:41",
        "E10": "2026-06-02 12:25:25",
        "SP98": "2026-06-02 12:25:26"
      }
    },
    {
      "id": "55110003",
      "lat": 49.391,
      "lon": 5.183,
      "cp": "55110",
      "ville": "Dun-sur-Meuse",
      "prix": {
        "Gazole": 0.002225,
        "E85": 0.000898,
        "E10": 0.002089
      },
      "maj_gouv": {
        "Gazole": "2026-05-28 16:40:47",
        "E85": "2026-05-28 16:40:47",
        "E10": "2026-05-28 16:40:47"
      }
    },
    {
      "id": "55320001",
      "lat": 49.077,
      "lon": 5.448,
      "cp": "55320",
      "ville": "Dieue-sur-Meuse",
      "prix": {
        "Gazole": 0.002055,
        "E10": 0.0019890000000000003,
        "SP98": 0.002059
      },
      "maj_gouv": {
        "Gazole": "2026-06-01 10:20:44",
        "E10": "2026-06-01 10:20:44",
        "SP98": "2026-06-01 10:20:44"
      }
    },
    {
      "id": "55200003",
      "lat": 48.79,
      "lon": 5.549,
      "cp": "55200",
      "ville": "Lérouville",
      "prix": {},
      "maj_gouv": {}
    },
    {
      "id": "55800002",
      "lat": 48.825,
      "lon": 4.993,
      "cp": "55800",
      "ville": "REVIGNY-SUR-ORNAIN",
      "prix": {
        "Gazole": 0.001975,
        "SP95": 0.001983,
        "E10": 0.0019299999999999999,
        "SP98": 0.002041
      },
      "maj_gouv": {
        "Gazole": "2026-06-01 08:55:41",
        "SP95": "2026-06-01 08:55:42",
        "E10": "2026-06-01 08:55:42",
        "SP98": "2026-06-01 08:55:42"
      }
    },
    {
      "id": "55160013",
      "lat": 49.118,
      "lon": 5.508,
      "cp": "55160",
      "ville": "HAUDIOMONT",
      "prix": {
        "Gazole": 0.002124,
        "GPLc": 0.001211,
        "E10": 0.002137,
        "SP98": 0.002242
      },
      "maj_gouv": {
        "Gazole": "2026-06-02 11:06:23",
        "GPLc": "2026-06-02 11:06:24",
        "E10": "2026-06-02 11:06:23",
        "SP98": "2026-06-02 11:06:24"
      }
    },
    {
      "id": "55200002",
      "lat": 48.76069,
      "lon": 5.60211,
      "cp": "55200",
      "ville": "COMMERCY",
      "prix": {
        "Gazole": 0.002144,
        "E10": 0.0020710000000000004,
        "SP98": 0.002199
      },
      "maj_gouv": {
        "Gazole": "2026-05-22 12:00:06",
        "E10": "2026-05-26 11:43:39",
        "SP98": "2026-05-22 12:00:06"
      }
    },
    {
      "id": "55110002",
      "lat": 49.286111095592,
      "lon": 5.2884110553228005,
      "cp": "55110",
      "ville": "Consenvoye",
      "prix": {
        "Gazole": 0.00225,
        "SP95": 0.00199,
        "SP98": 0.00199
      },
      "maj_gouv": {
        "Gazole": "2026-05-26 10:46:04",
        "SP95": "2026-04-30 09:32:55",
        "SP98": "2026-04-30 09:32:55"
      }
    },
    {
      "id": "55000003",
      "lat": 48.79,
      "lon": 5.137,
      "cp": "55000",
      "ville": "FAINS-VéEL",
      "prix": {
        "Gazole": 0.002049,
        "E85": 0.0008489999999999999,
        "E10": 0.001999,
        "SP98": 0.002099
      },
      "maj_gouv": {
        "Gazole": "2026-06-02 23:30:00",
        "E85": "2026-06-02 23:30:00",
        "E10": "2026-06-02 23:30:00",
        "SP98": "2026-06-02 23:30:00"
      }
    },
    {
      "id": "55130002",
      "lat": 48.55,
      "lon": 5.481,
      "cp": "55130",
      "ville": "Houdelaincourt",
      "prix": {
        "Gazole": 0.002199,
        "SP95": 0.002199,
        "SP98": 0.002249
      },
      "maj_gouv": {
        "Gazole": "2026-05-30 08:38:50",
        "SP95": "2026-05-30 08:38:50",
        "SP98": "2026-05-30 08:38:50"
      }
    },
    {
      "id": "55100004",
      "lat": 49.165,
      "lon": 5.38,
      "cp": "55100",
      "ville": "VERDUN",
      "prix": {
        "Gazole": 0.0019890000000000003,
        "GPLc": 0.000989,
        "E10": 0.001914,
        "SP98": 0.0019890000000000003
      },
      "maj_gouv": {
        "Gazole": "2026-06-03 01:15:00",
        "GPLc": "2026-06-03 01:15:00",
        "E10": "2026-06-03 01:15:00",
        "SP98": "2026-06-03 01:15:00"
      }
    },
    {
      "id": "55100007",
      "lat": 49.165,
      "lon": 5.38,
      "cp": "55100",
      "ville": "VERDUN",
      "prix": {
        "Gazole": 0.002068,
        "E85": 0.000829,
        "E10": 0.00199
      },
      "maj_gouv": {
        "Gazole": "2026-06-03 00:01:00",
        "E85": "2026-06-03 00:01:00",
        "E10": "2026-06-03 00:01:00"
      }
    },
    {
      "id": "55140001",
      "lat": 48.60362,
      "lon": 5.66686,
      "cp": "55140",
      "ville": "VAUCOULEURS",
      "prix": {
        "Gazole": 0.002074,
        "SP95": 0.002085,
        "E10": 0.002039
      },
      "maj_gouv": {
        "Gazole": "2026-05-30 19:43:23",
        "SP95": "2026-05-30 19:43:23",
        "E10": "2026-05-30 19:43:23"
      }
    },
    {
      "id": "55400003",
      "lat": 49.217,
      "lon": 5.643,
      "cp": "55400",
      "ville": "ÉTAIN",
      "prix": {
        "Gazole": 0.002039,
        "E10": 0.001929,
        "SP98": 0.002109
      },
      "maj_gouv": {
        "Gazole": "2026-05-30 10:28:28",
        "E10": "2026-06-02 11:41:49",
        "SP98": "2026-05-30 10:28:28"
      }
    },
    {
      "id": "55120001",
      "lat": 49.10482979203601,
      "lon": 5.0684536033295,
      "cp": "55120",
      "ville": "Clermont-en-Argonne",
      "prix": {
        "Gazole": 0.002099,
        "SP95": 0.002079,
        "E10": 0.001999,
        "SP98": 0.002109
      },
      "maj_gouv": {
        "Gazole": "2026-05-30 15:32:24",
        "SP95": "2026-05-30 15:32:24",
        "E10": "2026-05-30 15:32:36",
        "SP98": "2026-05-30 15:32:25"
      }
    },
    {
      "id": "55190003",
      "lat": 48.686,
      "lon": 5.726,
      "cp": "55190",
      "ville": "PAGNY SUR MEUSE",
      "prix": {
        "Gazole": 0.001993,
        "E10": 0.001936
      },
      "maj_gouv": {
        "Gazole": "2026-06-03 00:01:00",
        "E10": "2026-06-03 00:01:00"
      }
    },
    {
      "id": "55600001",
      "lat": 49.513,
      "lon": 5.375,
      "cp": "55600",
      "ville": "Montmédy",
      "prix": {
        "Gazole": 0.002109,
        "SP95": 0.002129,
        "SP98": 0.002159
      },
      "maj_gouv": {
        "Gazole": "2026-05-26 07:40:22",
        "SP95": "2026-05-26 07:40:22",
        "SP98": "2026-05-26 07:40:22"
      }
    },
    {
      "id": "55300004",
      "lat": 48.889,
      "lon": 5.543,
      "cp": "55300",
      "ville": "SAINT MIHIEL",
      "prix": {
        "Gazole": 0.002029,
        "E10": 0.0019850000000000002,
        "SP98": 0.002079
      },
      "maj_gouv": {
        "Gazole": "2026-06-01 15:12:28",
        "E10": "2026-06-01 15:12:28",
        "SP98": "2026-06-01 15:12:28"
      }
    },
    {
      "id": "55700005",
      "lat": 49.483,
      "lon": 5.202,
      "cp": "55700",
      "ville": "STENAY",
      "prix": {
        "Gazole": 0.001967,
        "SP95": 0.001976,
        "E85": 0.000798,
        "E10": 0.001923
      },
      "maj_gouv": {
        "Gazole": "2026-06-01 08:51:00",
        "SP95": "2026-06-01 08:51:01",
        "E85": "2026-05-15 08:00:00",
        "E10": "2026-06-01 08:51:01"
      }
    },
    {
      "id": "55210001",
      "lat": 48.98,
      "lon": 5.713,
      "cp": "55210",
      "ville": "VIGNEULLES-LèS-HATTONCHâTEL",
      "prix": {
        "Gazole": 0.002098,
        "E85": 0.000859,
        "E10": 0.00199,
        "SP98": 0.00199
      },
      "maj_gouv": {
        "Gazole": "2026-06-02 08:42:37",
        "E85": "2026-06-02 08:42:37",
        "E10": "2026-06-02 08:42:37",
        "SP98": "2026-06-02 08:42:37"
      }
    },
    {
      "id": "55000004",
      "lat": 48.757,
      "lon": 5.192,
      "cp": "55000",
      "ville": "BAR-LE-DUC",
      "prix": {
        "Gazole": 0.001974,
        "E85": 0.0007880000000000001,
        "E10": 0.001929,
        "SP98": 0.002039
      },
      "maj_gouv": {
        "Gazole": "2026-06-03 01:15:00",
        "E85": "2026-06-03 01:15:00",
        "E10": "2026-06-03 01:15:00",
        "SP98": "2026-06-03 01:15:00"
      }
    },
    {
      "id": "55270002",
      "lat": 49.228469477017995,
      "lon": 5.04075420096,
      "cp": "55270",
      "ville": "Varennes-en-Argonne",
      "prix": {
        "Gazole": 0.00226,
        "SP95": 0.00215,
        "SP98": 0.002235
      },
      "maj_gouv": {
        "Gazole": "2026-05-08 15:47:31",
        "SP95": "2026-05-08 15:47:32",
        "SP98": "2026-05-08 15:47:32"
      }
    },
    {
      "id": "55500001",
      "lat": 48.677,
      "lon": 5.326,
      "cp": "55500",
      "ville": "Ligny-en-Barrois",
      "prix": {
        "Gazole": 0.002029,
        "SP95": 0.001999,
        "SP98": 0.002149
      },
      "maj_gouv": {
        "Gazole": "2026-06-01 11:45:48",
        "SP95": "2026-06-01 11:45:48",
        "SP98": "2026-04-08 08:58:33"
      }
    },
    {
      "id": "55500003",
      "lat": 48.699,
      "lon": 5.306,
      "cp": "55500",
      "ville": "Velaines",
      "prix": {
        "Gazole": 0.002079,
        "SP95": 0.002149,
        "E85": 0.0008990000000000001
      },
      "maj_gouv": {
        "Gazole": "2026-06-02 22:00:00",
        "SP95": "2026-05-18 08:34:08",
        "E85": "2026-04-17 22:00:00"
      }
    },
    {
      "id": "55500002",
      "lat": 48.68769,
      "lon": 5.32119,
      "cp": "55500",
      "ville": "Ligny-en-Barrois",
      "prix": {
        "Gazole": 0.002141,
        "E10": 0.00199,
        "SP98": 0.00199
      },
      "maj_gouv": {
        "Gazole": "2026-06-02 19:08:58",
        "E10": "2026-06-02 19:08:58",
        "SP98": "2026-06-02 19:08:58"
      }
    },
    {
      "id": "55160015",
      "lat": 49.1,
      "lon": 5.624,
      "cp": "55160",
      "ville": "FRESNES EN WOEVRE",
      "prix": {
        "Gazole": 0.002148,
        "E10": 0.002079,
        "SP98": 0.002199
      },
      "maj_gouv": {
        "Gazole": "2026-05-26 06:54:07",
        "E10": "2026-05-26 06:54:07",
        "SP98": "2026-05-26 06:54:07"
      }
    },
    {
      "id": "55300003",
      "lat": 48.902,
      "lon": 5.515,
      "cp": "55300",
      "ville": "Chauvoncourt",
      "prix": {
        "Gazole": 0.002055,
        "E85": 0.000798,
        "E10": 0.0019890000000000003,
        "SP98": 0.002099
      },
      "maj_gouv": {
        "Gazole": "2026-06-01 12:49:52",
        "E85": "2026-06-01 12:49:53",
        "E10": "2026-06-01 12:49:53",
        "SP98": "2026-06-01 12:49:53"
      }
    },
    {
      "id": "55290001",
      "lat": 48.489,
      "lon": 5.355,
      "cp": "55290",
      "ville": "BURE",
      "prix": {
        "Gazole": 0.0019890000000000003,
        "E85": 0.000923,
        "E10": 0.001975
      },
      "maj_gouv": {
        "Gazole": "2026-06-02 18:00:29",
        "E85": "2026-04-03 19:38:32",
        "E10": "2026-06-02 18:00:29"
      }
    },
    {
      "id": "55100003",
      "lat": 49.168,
      "lon": 5.387,
      "cp": "55100",
      "ville": "Verdun",
      "prix": {
        "Gazole": 0.0020459999999999996,
        "E10": 0.0019890000000000003,
        "SP98": 0.0021030000000000003
      },
      "maj_gouv": {
        "Gazole": "2026-06-02 15:41:00",
        "E10": "2026-06-02 15:41:00",
        "SP98": "2026-06-02 15:41:00"
      }
    },
    {
      "id": "55210003",
      "lat": 48.976837,
      "lon": 5.701371999999999,
      "cp": "55210",
      "ville": "VIGNEULLES-LES-HATTONCHATEL",
      "prix": {
        "Gazole": 0.002109,
        "E10": 0.001999,
        "SP98": 0.002127
      },
      "maj_gouv": {
        "Gazole": "2026-05-19 09:32:47",
        "E10": "2026-05-19 09:32:47",
        "SP98": "2026-05-19 09:32:47"
      }
    },
    {
      "id": "55100001",
      "lat": 49.142,
      "lon": 5.408,
      "cp": "55100",
      "ville": "VERDUN",
      "prix": {
        "Gazole": 0.002025,
        "E85": 0.000798,
        "GPLc": 0.00099,
        "E10": 0.0019950000000000002,
        "SP98": 0.002121
      },
      "maj_gouv": {
        "Gazole": "2026-06-02 10:09:50",
        "E85": "2026-06-01 10:03:51",
        "GPLc": "2026-06-01 10:03:51",
        "E10": "2026-06-02 10:09:50",
        "SP98": "2026-06-01 10:03:51"
      }
    },
    {
      "id": "55300002",
      "lat": 48.888,
      "lon": 5.54,
      "cp": "55300",
      "ville": "Saint-Mihiel",
      "prix": {
        "Gazole": 0.00209,
        "E85": 0.000829,
        "E10": 0.00199,
        "SP98": 0.00199
      },
      "maj_gouv": {
        "Gazole": "2026-05-30 09:23:06",
        "E85": "2026-05-30 09:23:07",
        "E10": "2026-05-30 09:23:07",
        "SP98": "2026-05-30 09:23:07"
      }
    },
    {
      "id": "55000010",
      "lat": 48.767,
      "lon": 5.173,
      "cp": "55000",
      "ville": "Bar-le-Duc",
      "prix": {
        "Gazole": 0.0020710000000000004
      },
      "maj_gouv": {
        "Gazole": "2026-06-03 00:01:00"
      }
    },
    {
      "id": "55430001",
      "lat": 49.16840340999,
      "lon": 5.386790042283,
      "cp": "55430",
      "ville": "Belleville-sur-Meuse",
      "prix": {
        "Gazole": 0.00199,
        "E10": 0.001915,
        "SP98": 0.002085
      },
      "maj_gouv": {
        "Gazole": "2026-06-02 08:49:49",
        "E10": "2026-06-02 08:49:49",
        "SP98": "2026-06-02 08:49:49"
      }
    }
  ]
}