{
  "departement": "49",
  "date": "2026-06-03",
  "stations": [
    {
      "id": "49123002",
      "lat": 47.41024334305,
      "lon": -0.93675465665287,
      "cp": "49123",
      "ville": "INGRANDES LE FRESNE SUR LOIRE",
      "prix": {
        "Gazole": 0.0019790000000000003,
        "E85": 0.000798,
        "E10": 0.0019590000000000002,
        "SP98": 0.002059
      },
      "maj_gouv": {
        "Gazole": "2026-06-01 19:47:14",
        "E85": "2026-05-22 07:52:49",
        "E10": "2026-06-01 19:47:14",
        "SP98": "2026-06-01 19:47:14"
      }
    },
    {
      "id": "49150001",
      "lat": 47.54522912429,
      "lon": -0.11035160149824,
      "cp": "49150",
      "ville": "Baugé-en-Anjou",
      "prix": {
        "Gazole": 0.001966,
        "SP95": 0.002049,
        "E85": 0.000799,
        "E10": 0.001928
      },
      "maj_gouv": {
        "Gazole": "2026-06-02 10:31:36",
        "SP95": "2026-06-02 10:31:37",
        "E85": "2026-06-01 11:03:58",
        "E10": "2026-06-02 10:31:37"
      }
    },
    {
      "id": "49330004",
      "lat": 47.664215062238,
      "lon": -0.5604599008804501,
      "cp": "49330",
      "ville": "CHAMPIGNE",
      "prix": {
        "Gazole": 0.00212,
        "SP95": 0.00197
      },
      "maj_gouv": {
        "Gazole": "2026-06-02 14:11:34",
        "SP95": "2026-06-02 14:11:34"
      }
    },
    {
      "id": "49300007",
      "lat": 47.075,
      "lon": -0.843,
      "cp": "49300",
      "ville": "Cholet",
      "prix": {
        "Gazole": 0.001949,
        "SP95": 0.002079,
        "E85": 0.0008449999999999999,
        "GPLc": 0.001029,
        "E10": 0.001958
      },
      "maj_gouv": {
        "Gazole": "2026-06-02 07:37:58",
        "SP95": "2026-06-02 07:37:58",
        "E85": "2026-06-02 07:37:58",
        "GPLc": "2026-06-02 07:37:58",
        "E10": "2026-06-02 20:57:33"
      }
    },
    {
      "id": "49000004",
      "lat": 47.485,
      "lon": -0.548,
      "cp": "49100",
      "ville": "Angers",
      "prix": {
        "Gazole": 0.002072,
        "E85": 0.000944
      },
      "maj_gouv": {
        "Gazole": "2026-06-02 08:01:04",
        "E85": "2026-05-20 07:51:37"
      }
    },
    {
      "id": "49000012",
      "lat": 47.454,
      "lon": -0.554,
      "cp": "49000",
      "ville": "ANGERS",
      "prix": {
        "Gazole": 0.001973,
        "E85": 0.000859,
        "E10": 0.001913
      },
      "maj_gouv": {
        "Gazole": "2026-06-03 00:01:00",
        "E85": "2026-06-03 00:01:00",
        "E10": "2026-06-03 00:01:00"
      }
    },
    {
      "id": "49125001",
      "lat": 47.61508,
      "lon": -0.46414,
      "cp": "49125",
      "ville": "Tiercé",
      "prix": {
        "Gazole": 0.0019590000000000002,
        "E85": 0.000799,
        "E10": 0.00206,
        "SP98": 0.002094
      },
      "maj_gouv": {
        "Gazole": "2026-06-02 18:03:30",
        "E85": "2026-04-15 08:02:43",
        "E10": "2026-06-02 18:03:31",
        "SP98": "2026-06-02 18:03:31"
      }
    },
    {
      "id": "49700001",
      "lat": 47.19,
      "lon": -0.291,
      "cp": "49700",
      "ville": "Doué-la-Fontaine",
      "prix": {
        "Gazole": 0.0019790000000000003,
        "GPLc": 0.001049,
        "E10": 0.0019890000000000003,
        "SP98": 0.002029
      },
      "maj_gouv": {
        "Gazole": "2026-06-02 07:59:04",
        "GPLc": "2026-04-07 10:03:09",
        "E10": "2026-06-02 07:59:04",
        "SP98": "2026-06-02 07:59:04"
      }
    },
    {
      "id": "49124001",
      "lat": 47.48298,
      "lon": -0.51446,
      "cp": "49124",
      "ville": "SAINT BARTHéLéMY D'ANJOU",
      "prix": {
        "Gazole": 0.001999,
        "E10": 0.001975,
        "SP98": 0.002099
      },
      "maj_gouv": {
        "Gazole": "2026-06-01 09:06:38",
        "E10": "2026-06-02 09:17:28",
        "SP98": "2026-06-02 09:17:28"
      }
    },
    {
      "id": "49110004",
      "lat": 47.262,
      "lon": -1.038,
      "cp": "49110",
      "ville": "Montrevault sur Evre",
      "prix": {
        "Gazole": 0.002039,
        "E85": 0.000798,
        "E10": 0.001999,
        "SP98": 0.002129
      },
      "maj_gouv": {
        "Gazole": "2026-06-01 10:36:21",
        "E85": "2026-05-29 10:20:13",
        "E10": "2026-06-01 10:36:21",
        "SP98": "2026-06-01 10:36:22"
      }
    },
    {
      "id": "49450001",
      "lat": 47.114305886000004,
      "lon": -0.991832348626,
      "cp": "49450",
      "ville": "SAINT-MACAIRE-EN-MAUGES",
      "prix": {
        "Gazole": 0.001939,
        "E85": 0.0007880000000000001,
        "E10": 0.001928,
        "SP98": 0.002038
      },
      "maj_gouv": {
        "Gazole": "2026-06-02 11:03:04",
        "E85": "2026-04-30 09:08:02",
        "E10": "2026-06-02 11:03:04",
        "SP98": "2026-06-02 11:03:04"
      }
    },
    {
      "id": "49450005",
      "lat": 47.15263,
      "lon": -1.05815,
      "cp": "49450",
      "ville": "Villedieu-la-Blouère",
      "prix": {
        "Gazole": 0.001915,
        "E10": 0.001875,
        "SP98": 0.001981
      },
      "maj_gouv": {
        "Gazole": "2026-06-02 07:02:30",
        "E10": "2026-06-02 07:02:31",
        "SP98": "2026-06-02 07:02:31"
      }
    },
    {
      "id": "49690001",
      "lat": 47.128,
      "lon": -0.638,
      "cp": "49690",
      "ville": "CORON",
      "prix": {
        "Gazole": 0.0021190000000000002,
        "SP95": 0.00199
      },
      "maj_gouv": {
        "Gazole": "2026-06-01 17:10:51",
        "SP95": "2026-06-01 17:10:51"
      }
    },
    {
      "id": "49250001",
      "lat": 47.441,
      "lon": -0.194,
      "cp": "49250",
      "ville": "Beaufort-en-Vallée",
      "prix": {
        "Gazole": 0.0019690000000000003,
        "E10": 0.001999,
        "SP98": 0.002099
      },
      "maj_gouv": {
        "Gazole": "2026-06-02 09:15:00",
        "E10": "2026-06-02 09:15:00",
        "SP98": "2026-05-29 10:04:41"
      }
    },
    {
      "id": "49370002",
      "lat": 47.52,
      "lon": -0.88,
      "cp": "49370",
      "ville": "LE LOUROUX-BéCONNAIS",
      "prix": {
        "Gazole": 0.002049,
        "E10": 0.002049,
        "SP98": 0.002099
      },
      "maj_gouv": {
        "Gazole": "2026-05-29 17:18:22",
        "E10": "2026-05-29 17:18:22",
        "SP98": "2026-05-29 17:18:22"
      }
    },
    {
      "id": "49300014",
      "lat": 47.059,
      "lon": -0.89,
      "cp": "49300",
      "ville": "CHOLET",
      "prix": {
        "Gazole": 0.002039,
        "E10": 0.001999,
        "SP98": 0.002149
      },
      "maj_gouv": {
        "Gazole": "2026-06-02 11:22:46",
        "E10": "2026-06-02 11:22:46",
        "SP98": "2026-06-02 11:22:46"
      }
    },
    {
      "id": "49650003",
      "lat": 47.293117300000006,
      "lon": 0.0242089,
      "cp": "49650",
      "ville": "Allonnes",
      "prix": {
        "Gazole": 0.0021190000000000002,
        "SP95": 0.002129,
        "SP98": 0.002199
      },
      "maj_gouv": {
        "Gazole": "2026-05-13 09:03:50",
        "SP95": "2026-05-22 14:42:08",
        "SP98": "2026-05-22 14:42:08"
      }
    },
    {
      "id": "49240003",
      "lat": 47.503893800361,
      "lon": -0.58604066482388,
      "cp": "49240",
      "ville": "Avrillé",
      "prix": {
        "Gazole": 0.002099,
        "E10": 0.002029
      },
      "maj_gouv": {
        "Gazole": "2026-06-02 08:50:46",
        "E10": "2026-05-13 11:15:27"
      }
    },
    {
      "id": "49230002",
      "lat": 47.155,
      "lon": -1.21,
      "cp": "49230",
      "ville": "SEVREMOINE",
      "prix": {
        "Gazole": 0.001999,
        "SP95": 0.002099,
        "SP98": 0.002199
      },
      "maj_gouv": {
        "Gazole": "2026-06-01 09:54:39",
        "SP95": "2026-05-21 11:12:51",
        "SP98": "2026-03-28 07:42:42"
      }
    },
    {
      "id": "49480007",
      "lat": 47.5,
      "lon": -0.491,
      "cp": "49480",
      "ville": "Saint-Sylvain-d'Anjou",
      "prix": {
        "Gazole": 0.0023490000000000004,
        "E85": 0.000929,
        "GPLc": 0.001064,
        "E10": 0.002199,
        "SP98": 0.002299
      },
      "maj_gouv": {
        "Gazole": "2026-05-29 09:34:16",
        "E85": "2026-05-28 09:15:12",
        "GPLc": "2026-05-28 09:15:12",
        "E10": "2026-05-28 09:15:12",
        "SP98": "2026-05-28 09:15:12"
      }
    },
    {
      "id": "49150002",
      "lat": 47.53837,
      "lon": -0.10628,
      "cp": "49150",
      "ville": "BAUGé",
      "prix": {
        "Gazole": 0.001967,
        "E10": 0.001928,
        "SP98": 0.00199
      },
      "maj_gouv": {
        "Gazole": "2026-06-02 19:20:51",
        "E10": "2026-06-01 19:20:41",
        "SP98": "2026-05-26 19:28:08"
      }
    },
    {
      "id": "49400007",
      "lat": 47.252,
      "lon": -0.082,
      "cp": "49400",
      "ville": "SAUMUR",
      "prix": {
        "Gazole": 0.001972,
        "E10": 0.001908,
        "SP98": 0.00199
      },
      "maj_gouv": {
        "Gazole": "2026-06-03 00:01:00",
        "E10": "2026-06-03 00:01:00",
        "SP98": "2026-06-03 00:01:00"
      }
    },
    {
      "id": "49170002",
      "lat": 47.401,
      "lon": -0.756,
      "cp": "49170",
      "ville": "ST GEORGES SUR LOIRE",
      "prix": {
        "Gazole": 0.001975,
        "E85": 0.000799,
        "GPLc": 0.001089,
        "E10": 0.0019890000000000003,
        "SP98": 0.002075
      },
      "maj_gouv": {
        "Gazole": "2026-06-01 09:26:48",
        "E85": "2026-04-23 11:56:59",
        "GPLc": "2026-04-29 09:22:05",
        "E10": "2026-06-01 09:26:48",
        "SP98": "2026-06-01 09:26:48"
      }
    },
    {
      "id": "49260001",
      "lat": 47.13,
      "lon": -0.153,
      "cp": "49260",
      "ville": "MONTREUIL-BELLAY",
      "prix": {
        "Gazole": 0.0019890000000000003,
        "E10": 0.001999,
        "SP98": 0.002199
      },
      "maj_gouv": {
        "Gazole": "2026-06-02 10:45:51",
        "E10": "2026-06-01 11:58:14",
        "SP98": "2026-05-25 07:40:55"
      }
    },
    {
      "id": "49480005",
      "lat": 47.5,
      "lon": -0.491,
      "cp": "49480",
      "ville": "saint sylvain d'anjou",
      "prix": {
        "Gazole": 0.0023889999999999996,
        "E85": 0.000999,
        "GPLc": 0.001339,
        "E10": 0.002359,
        "SP98": 0.002499
      },
      "maj_gouv": {
        "Gazole": "2026-06-03 06:27:25",
        "E85": "2026-06-03 06:27:25",
        "GPLc": "2026-06-03 06:27:25",
        "E10": "2026-06-03 06:27:25",
        "SP98": "2026-06-03 06:27:25"
      }
    },
    {
      "id": "49630007",
      "lat": 47.474777682196006,
      "lon": -0.34718305429679996,
      "cp": "49630",
      "ville": "Loire-Authion",
      "prix": {
        "Gazole": 0.002139,
        "SP95": 0.002099,
        "SP98": 0.0021720000000000003
      },
      "maj_gouv": {
        "Gazole": "2026-05-16 12:00:45",
        "SP95": "2026-05-16 12:00:45",
        "SP98": "2026-05-16 12:00:45"
      }
    },
    {
      "id": "49122003",
      "lat": 47.132,
      "lon": -0.943,
      "cp": "49122",
      "ville": "BEGROLLES EN MAUGES",
      "prix": {
        "Gazole": 0.00209
      },
      "maj_gouv": {
        "Gazole": "2026-05-30 07:45:00"
      }
    },
    {
      "id": "49310001",
      "lat": 47.147,
      "lon": -0.522,
      "cp": "49310",
      "ville": "VIHIERS",
      "prix": {
        "Gazole": 0.001998,
        "SP95": 0.002009,
        "E85": 0.000799,
        "E10": 0.0019890000000000003,
        "SP98": 0.002099
      },
      "maj_gouv": {
        "Gazole": "2026-05-29 07:48:00",
        "SP95": "2026-05-29 07:48:00",
        "E85": "2026-04-30 08:07:40",
        "E10": "2026-06-01 09:35:04",
        "SP98": "2026-06-01 09:35:04"
      }
    },
    {
      "id": "49123001",
      "lat": 47.406,
      "lon": -0.926,
      "cp": "49123",
      "ville": "INGRANDES-SUR-LOIRE",
      "prix": {
        "Gazole": 0.0019790000000000003,
        "E10": 0.0019590000000000002,
        "SP98": 0.002059
      },
      "maj_gouv": {
        "Gazole": "2026-06-01 19:48:23",
        "E10": "2026-06-01 19:48:23",
        "SP98": "2026-06-01 19:48:23"
      }
    },
    {
      "id": "49220001",
      "lat": 47.614,
      "lon": -0.707,
      "cp": "49220",
      "ville": "grez neuville",
      "prix": {
        "Gazole": 0.0019890000000000003,
        "SP95": 0.002179,
        "E10": 0.0019690000000000003,
        "SP98": 0.002199
      },
      "maj_gouv": {
        "Gazole": "2026-06-01 09:24:25",
        "SP95": "2026-06-01 09:24:25",
        "E10": "2026-06-02 09:40:21",
        "SP98": "2026-06-01 09:24:25"
      }
    },
    {
      "id": "49000015",
      "lat": 47.455,
      "lon": -0.534,
      "cp": "49000",
      "ville": "ANGERS",
      "prix": {
        "Gazole": 0.001914,
        "E85": 0.000798,
        "E10": 0.0019190000000000001
      },
      "maj_gouv": {
        "Gazole": "2026-06-02 17:23:00",
        "E85": "2026-05-19 05:59:38",
        "E10": "2026-06-02 10:22:14"
      }
    },
    {
      "id": "49800002",
      "lat": 47.46273129595,
      "lon": -0.40783444519358003,
      "cp": "49800",
      "ville": "Brain-sur-l'Authion",
      "prix": {
        "Gazole": 0.002069,
        "E85": 0.000759,
        "E10": 0.001949,
        "SP98": 0.002049
      },
      "maj_gouv": {
        "Gazole": "2026-06-01 10:07:18",
        "E85": "2026-05-07 10:50:12",
        "E10": "2026-06-02 10:25:37",
        "SP98": "2026-06-01 10:07:18"
      }
    },
    {
      "id": "49110003",
      "lat": 47.267088063570995,
      "lon": -1.0249368373938,
      "cp": "49110",
      "ville": "Saint-Pierre-Montlimart",
      "prix": {
        "Gazole": 0.0019590000000000002,
        "SP98": 0.002029
      },
      "maj_gouv": {
        "Gazole": "2026-06-02 11:42:28",
        "SP98": "2026-06-02 11:42:29"
      }
    },
    {
      "id": "49490001",
      "lat": 47.511,
      "lon": 0.113,
      "cp": "49490",
      "ville": "NOYANT",
      "prix": {
        "Gazole": 0.002059,
        "E10": 0.001999,
        "SP98": 0.002099
      },
      "maj_gouv": {
        "Gazole": "2026-05-29 10:39:13",
        "E10": "2026-05-29 10:39:13",
        "SP98": "2026-05-29 10:39:13"
      }
    },
    {
      "id": "49400004",
      "lat": 47.277,
      "lon": -0.075,
      "cp": "49400",
      "ville": "SAUMUR",
      "prix": {
        "Gazole": 0.001939,
        "E85": 0.000798,
        "GPLc": 0.001119,
        "E10": 0.0019190000000000001,
        "SP98": 0.001999
      },
      "maj_gouv": {
        "Gazole": "2026-06-02 09:02:21",
        "E85": "2026-06-02 09:02:21",
        "GPLc": "2026-04-30 12:42:27",
        "E10": "2026-06-02 09:02:21",
        "SP98": "2026-06-02 09:02:21"
      }
    },
    {
      "id": "49420001",
      "lat": 47.743,
      "lon": -1.166,
      "cp": "49420",
      "ville": "POUANCE, OMBREE D'ANJOU",
      "prix": {
        "Gazole": 0.001999,
        "SP95": 0.002099,
        "E85": 0.000759,
        "E10": 0.002029
      },
      "maj_gouv": {
        "Gazole": "2026-06-02 07:59:35",
        "SP95": "2026-05-29 09:13:38",
        "E85": "2026-06-02 07:59:35",
        "E10": "2026-06-01 10:38:54"
      }
    },
    {
      "id": "49070005",
      "lat": 47.468,
      "lon": -0.626,
      "cp": "49070",
      "ville": "BEAUCOUZE",
      "prix": {
        "Gazole": 0.0019370000000000001,
        "E85": 0.0007790000000000001,
        "E10": 0.001941,
        "SP98": 0.002024
      },
      "maj_gouv": {
        "Gazole": "2026-06-02 15:42:33",
        "E85": "2026-05-29 17:39:00",
        "E10": "2026-06-02 15:42:33",
        "SP98": "2026-06-02 15:42:33"
      }
    },
    {
      "id": "49370001",
      "lat": 47.503,
      "lon": -0.793,
      "cp": "49370",
      "ville": "BECON-LES-GRANITS",
      "prix": {
        "Gazole": 0.002049,
        "SP95": 0.002109,
        "E10": 0.002069,
        "SP98": 0.002079
      },
      "maj_gouv": {
        "Gazole": "2026-05-29 09:54:35",
        "SP95": "2026-05-29 09:54:35",
        "E10": "2026-05-29 09:54:36",
        "SP98": "2026-05-29 14:03:52"
      }
    },
    {
      "id": "49130004",
      "lat": 47.437,
      "lon": -0.514,
      "cp": "49130",
      "ville": "LES PONTS-DE-Cé",
      "prix": {
        "Gazole": 0.001909,
        "SP95": 0.0019790000000000003,
        "E10": 0.0019190000000000001
      },
      "maj_gouv": {
        "Gazole": "2026-06-02 16:32:57",
        "SP95": "2026-06-01 11:35:57",
        "E10": "2026-06-01 11:35:57"
      }
    },
    {
      "id": "49240002",
      "lat": 47.5173224504,
      "lon": -0.608072819189,
      "cp": "49240",
      "ville": "AVRILLé",
      "prix": {
        "Gazole": 0.0019590000000000002,
        "E85": 0.0007790000000000001,
        "GPLc": 0.001029,
        "E10": 0.001939,
        "SP98": 0.002039
      },
      "maj_gouv": {
        "Gazole": "2026-06-02 08:51:41",
        "E85": "2026-05-18 10:02:00",
        "GPLc": "2026-05-18 10:02:00",
        "E10": "2026-06-02 08:51:41",
        "SP98": "2026-06-02 08:51:41"
      }
    },
    {
      "id": "49300018",
      "lat": 47.042585385517,
      "lon": -0.9002721116539301,
      "cp": "49300",
      "ville": "CHOLET",
      "prix": {
        "Gazole": 0.0019190000000000001,
        "E85": 0.000785,
        "E10": 0.001928
      },
      "maj_gouv": {
        "Gazole": "2026-06-01 08:11:29",
        "E85": "2026-06-01 08:11:29",
        "E10": "2026-06-01 08:11:29"
      }
    },
    {
      "id": "49360003",
      "lat": 47.01,
      "lon": -0.756,
      "cp": "49360",
      "ville": "Maulévrier",
      "prix": {
        "Gazole": 0.0019890000000000003,
        "SP95": 0.002079,
        "E10": 0.001928,
        "SP98": 0.002129
      },
      "maj_gouv": {
        "Gazole": "2026-06-01 11:42:26",
        "SP95": "2026-06-01 11:42:26",
        "E10": "2026-06-02 08:16:23",
        "SP98": "2026-06-01 11:42:26"
      }
    },
    {
      "id": "49800006",
      "lat": 47.4521142,
      "lon": -0.4683908,
      "cp": "49800",
      "ville": "Trélazé",
      "prix": {
        "Gazole": 0.001999,
        "E10": 0.002089,
        "SP98": 0.002169
      },
      "maj_gouv": {
        "Gazole": "2026-06-02 16:16:10",
        "E10": "2026-05-28 07:33:27",
        "SP98": "2026-05-28 07:33:27"
      }
    },
    {
      "id": "49124003",
      "lat": 47.4773034,
      "lon": -0.4911358,
      "cp": "49124",
      "ville": "St Barthélemy d'Anjou",
      "prix": {
        "Gazole": 0.0019590000000000002,
        "E10": 0.001955,
        "SP98": 0.002129
      },
      "maj_gouv": {
        "Gazole": "2026-06-02 09:12:51",
        "E10": "2026-06-02 09:12:51",
        "SP98": "2026-05-30 09:28:37"
      }
    },
    {
      "id": "49400006",
      "lat": 47.231,
      "lon": -0.117,
      "cp": "49400",
      "ville": "DISTRE",
      "prix": {
        "Gazole": 0.001999,
        "E85": 0.000829,
        "GPLc": 0.001119,
        "E10": 0.001929,
        "SP98": 0.001999
      },
      "maj_gouv": {
        "Gazole": "2026-06-02 15:05:09",
        "E85": "2026-06-02 15:05:09",
        "GPLc": "2026-06-02 15:05:09",
        "E10": "2026-06-02 15:05:09",
        "SP98": "2026-06-02 15:05:09"
      }
    },
    {
      "id": "49100003",
      "lat": 47.483,
      "lon": -0.527,
      "cp": "49100",
      "ville": "ANGERS",
      "prix": {
        "Gazole": 0.0020659999999999997,
        "E10": 0.00199
      },
      "maj_gouv": {
        "Gazole": "2026-06-03 00:01:00",
        "E10": "2026-06-03 00:01:00"
      }
    },
    {
      "id": "49140001",
      "lat": 47.571,
      "lon": -0.358,
      "cp": "49140",
      "ville": "Corzé",
      "prix": {
        "Gazole": 0.0019590000000000002,
        "SP95": 0.001999,
        "E85": 0.000839,
        "SP98": 0.002099
      },
      "maj_gouv": {
        "Gazole": "2026-06-01 09:22:39",
        "SP95": "2026-06-01 09:22:40",
        "E85": "2026-04-23 14:51:53",
        "SP98": "2026-06-01 09:22:40"
      }
    },
    {
      "id": "49710001",
      "lat": 47.023,
      "lon": -1.056,
      "cp": "49710",
      "ville": "LE LONGERON",
      "prix": {
        "Gazole": 0.0022400000000000002
      },
      "maj_gouv": {
        "Gazole": "2026-06-01 15:15:59"
      }
    },
    {
      "id": "49160004",
      "lat": 47.418922120054,
      "lon": -0.13178209154551,
      "cp": "49160",
      "ville": "Longué-Jumelles",
      "prix": {
        "Gazole": 0.002375,
        "E10": 0.002331,
        "SP98": 0.0024809999999999997
      },
      "maj_gouv": {
        "Gazole": "2026-06-02 09:30:00",
        "E10": "2026-06-02 09:30:00",
        "SP98": "2026-06-02 09:30:00"
      }
    },
    {
      "id": "49120001",
      "lat": 47.208,
      "lon": -0.715,
      "cp": "49120",
      "ville": "CHEMILLE",
      "prix": {
        "Gazole": 0.001961,
        "E85": 0.000747,
        "GPLc": 0.001099,
        "E10": 0.001967,
        "SP98": 0.0020710000000000004
      },
      "maj_gouv": {
        "Gazole": "2026-06-02 07:55:32",
        "E85": "2026-06-01 14:42:43",
        "GPLc": "2026-04-27 13:34:57",
        "E10": "2026-06-02 07:55:32",
        "SP98": "2026-06-02 07:55:32"
      }
    },
    {
      "id": "49440001",
      "lat": 47.568,
      "lon": -1.033,
      "cp": "49440",
      "ville": "Candé",
      "prix": {
        "Gazole": 0.0019790000000000003,
        "E85": 0.000789,
        "GPLc": 0.0010789999999999999,
        "E10": 0.0019790000000000003,
        "SP98": 0.002049
      },
      "maj_gouv": {
        "Gazole": "2026-06-01 16:04:11",
        "E85": "2026-05-05 08:20:01",
        "GPLc": "2026-05-13 06:52:21",
        "E10": "2026-06-01 16:04:11",
        "SP98": "2026-06-01 16:04:11"
      }
    },
    {
      "id": "49540002",
      "lat": 47.23,
      "lon": -0.438,
      "cp": "49540",
      "ville": "Martigné-Briand",
      "prix": {
        "Gazole": 0.002298,
        "SP95": 0.00218,
        "SP98": 0.00226
      },
      "maj_gouv": {
        "Gazole": "2026-05-22 20:14:25",
        "SP95": "2026-05-22 20:14:25",
        "SP98": "2026-05-22 20:14:25"
      }
    },
    {
      "id": "49112001",
      "lat": 47.522,
      "lon": -0.442,
      "cp": "49112",
      "ville": "PELLOUAILLES-LES-VIGNES",
      "prix": {
        "Gazole": 0.002099,
        "E10": 0.002089,
        "SP98": 0.002179
      },
      "maj_gouv": {
        "Gazole": "2026-05-23 07:40:12",
        "E10": "2026-05-23 07:40:12",
        "SP98": "2026-05-23 07:40:12"
      }
    },
    {
      "id": "49290002",
      "lat": 47.346,
      "lon": -0.761,
      "cp": "49290",
      "ville": "CHALONNES-SUR-LOIRE",
      "prix": {
        "Gazole": 0.001915,
        "E85": 0.000798,
        "E10": 0.001925,
        "SP98": 0.002045
      },
      "maj_gouv": {
        "Gazole": "2026-06-02 09:18:00",
        "E85": "2026-06-02 09:18:00",
        "E10": "2026-06-02 09:18:00",
        "SP98": "2026-06-02 09:18:00"
      }
    },
    {
      "id": "49340001",
      "lat": 47.135,
      "lon": -0.826,
      "cp": "49340",
      "ville": "TREMENTINES",
      "prix": {
        "Gazole": 0.002099,
        "E85": 0.000929,
        "E10": 0.002069,
        "SP98": 0.002144
      },
      "maj_gouv": {
        "Gazole": "2026-06-02 20:00:00",
        "E85": "2026-06-02 20:00:00",
        "E10": "2026-06-02 20:00:00",
        "SP98": "2026-06-02 20:00:00"
      }
    },
    {
      "id": "49070009",
      "lat": 47.466,
      "lon": -0.63,
      "cp": "49070",
      "ville": "BEAUCOUZE",
      "prix": {
        "Gazole": 0.001976
      },
      "maj_gouv": {
        "Gazole": "2026-06-03 00:01:00"
      }
    },
    {
      "id": "49300017",
      "lat": 47.032,
      "lon": -0.934,
      "cp": "49300",
      "ville": "Cholet",
      "prix": {
        "Gazole": 0.002099,
        "SP98": 0.002339
      },
      "maj_gouv": {
        "Gazole": "2026-06-02 14:14:59",
        "SP98": "2026-05-29 14:39:14"
      }
    },
    {
      "id": "49300010",
      "lat": 47.002,
      "lon": -0.891,
      "cp": "49300",
      "ville": "Le Puy-Saint-Bonnet",
      "prix": {
        "Gazole": 0.00209,
        "E85": 0.0008900000000000001,
        "E10": 0.00215
      },
      "maj_gouv": {
        "Gazole": "2026-05-26 07:16:49",
        "E85": "2026-04-28 08:06:14",
        "E10": "2026-05-26 07:16:49"
      }
    },
    {
      "id": "49140003",
      "lat": 47.569,
      "lon": -0.42,
      "cp": "49140",
      "ville": "SOUCELLES",
      "prix": {
        "Gazole": 0.0019590000000000002,
        "SP95": 0.001999,
        "SP98": 0.002099
      },
      "maj_gouv": {
        "Gazole": "2026-06-02 11:42:45",
        "SP95": "2026-06-02 11:42:45",
        "SP98": "2026-06-02 11:42:45"
      }
    },
    {
      "id": "49390001",
      "lat": 47.39,
      "lon": 0.07,
      "cp": "49390",
      "ville": "Vernoil-le-Fourrier",
      "prix": {
        "Gazole": 0.002049,
        "E10": 0.002039,
        "SP98": 0.002099
      },
      "maj_gouv": {
        "Gazole": "2026-05-30 07:31:25",
        "E10": "2026-05-30 07:31:25",
        "SP98": "2026-05-30 07:31:25"
      }
    },
    {
      "id": "49120004",
      "lat": 47.235,
      "lon": -0.723,
      "cp": "49120",
      "ville": "CHEMILLE",
      "prix": {
        "Gazole": 0.0019590000000000002,
        "E85": 0.000747,
        "E10": 0.001978,
        "SP98": 0.0021070000000000004
      },
      "maj_gouv": {
        "Gazole": "2026-06-03 07:27:24",
        "E85": "2026-05-30 11:12:28",
        "E10": "2026-06-02 07:43:56",
        "SP98": "2026-05-30 11:12:28"
      }
    },
    {
      "id": "49280003",
      "lat": 47.005,
      "lon": -0.851,
      "cp": "49280",
      "ville": "La Tessoualle",
      "prix": {
        "Gazole": 0.0019590000000000002,
        "SP95": 0.002029,
        "SP98": 0.002089
      },
      "maj_gouv": {
        "Gazole": "2026-06-02 09:01:19",
        "SP95": "2026-06-02 09:01:19",
        "SP98": "2026-06-02 09:01:19"
      }
    },
    {
      "id": "49410002",
      "lat": 47.359,
      "lon": -1.016,
      "cp": "49410",
      "ville": "Saint-Florent-le-Vieil",
      "prix": {
        "Gazole": 0.002129,
        "E10": 0.002069,
        "SP98": 0.002169
      },
      "maj_gouv": {
        "Gazole": "2026-05-22 08:16:49",
        "E10": "2026-05-22 08:16:49",
        "SP98": "2026-05-22 08:16:49"
      }
    },
    {
      "id": "49300016",
      "lat": 47.071855132799996,
      "lon": -0.856768078224,
      "cp": "49300",
      "ville": "CHOLET",
      "prix": {
        "Gazole": 0.001961,
        "GPLc": 0.001009,
        "E10": 0.0019019999999999998
      },
      "maj_gouv": {
        "Gazole": "2026-06-03 00:01:00",
        "GPLc": "2026-06-03 00:01:00",
        "E10": "2026-06-03 00:01:00"
      }
    },
    {
      "id": "49800003",
      "lat": 47.449,
      "lon": -0.505,
      "cp": "49800",
      "ville": "Trélazé",
      "prix": {
        "Gazole": 0.002009,
        "E85": 0.000929,
        "E10": 0.002019,
        "SP98": 0.002099
      },
      "maj_gouv": {
        "Gazole": "2026-05-30 09:59:21",
        "E85": "2026-05-30 09:59:21",
        "E10": "2026-05-30 09:59:21",
        "SP98": "2026-05-30 09:59:21"
      }
    },
    {
      "id": "49000014",
      "lat": 47.456,
      "lon": -0.571,
      "cp": "49000",
      "ville": "ANGERS",
      "prix": {},
      "maj_gouv": {}
    },
    {
      "id": "49412001",
      "lat": 47.264,
      "lon": -0.092,
      "cp": "49400",
      "ville": "Saumur",
      "prix": {
        "Gazole": 0.001939,
        "SP95": 0.0019890000000000003,
        "E10": 0.0019190000000000001,
        "SP98": 0.001999
      },
      "maj_gouv": {
        "Gazole": "2026-06-03 01:17:00",
        "SP95": "2026-06-03 01:17:00",
        "E10": "2026-06-03 01:17:00",
        "SP98": "2026-06-03 01:17:00"
      }
    },
    {
      "id": "49500001",
      "lat": 47.697,
      "lon": -0.871,
      "cp": "49500",
      "ville": "Segré en Anjou Bleu",
      "prix": {
        "Gazole": 0.001939,
        "SP95": 0.0019890000000000003,
        "GPLc": 0.0010789999999999999,
        "E10": 0.001999,
        "SP98": 0.001999
      },
      "maj_gouv": {
        "Gazole": "2026-06-01 09:00:00",
        "SP95": "2026-06-02 09:00:00",
        "GPLc": "2026-04-29 16:00:00",
        "E10": "2026-06-01 09:00:00",
        "SP98": "2026-06-02 09:00:00"
      }
    },
    {
      "id": "49306001",
      "lat": 47.052,
      "lon": -0.85,
      "cp": "49300",
      "ville": "Cholet",
      "prix": {
        "Gazole": 0.0019190000000000001,
        "E10": 0.001928,
        "SP98": 0.002139
      },
      "maj_gouv": {
        "Gazole": "2026-06-03 01:17:00",
        "E10": "2026-06-03 01:17:00",
        "SP98": "2026-06-03 01:17:00"
      }
    },
    {
      "id": "49380001",
      "lat": 47.2698,
      "lon": -0.50396,
      "cp": "49380",
      "ville": "Thouarcé",
      "prix": {
        "Gazole": 0.0019890000000000003,
        "E10": 0.002029,
        "SP98": 0.002059
      },
      "maj_gouv": {
        "Gazole": "2026-06-02 07:35:33",
        "E10": "2026-06-02 07:35:33",
        "SP98": "2026-06-02 07:35:33"
      }
    },
    {
      "id": "49290001",
      "lat": 47.347873868522,
      "lon": -0.75958487000826,
      "cp": "49290",
      "ville": "CHALONNES-SUR-LOIRE",
      "prix": {
        "Gazole": 0.002029,
        "E10": 0.001999,
        "SP98": 0.0021190000000000002
      },
      "maj_gouv": {
        "Gazole": "2026-05-30 08:49:13",
        "E10": "2026-05-30 08:49:13",
        "SP98": "2026-05-30 08:49:13"
      }
    },
    {
      "id": "49600004",
      "lat": 47.204,
      "lon": -0.977,
      "cp": "49600",
      "ville": "Beaupréau",
      "prix": {
        "Gazole": 0.001909,
        "GPLc": 0.000995,
        "E10": 0.0018700000000000001,
        "SP98": 0.001975
      },
      "maj_gouv": {
        "Gazole": "2026-06-02 08:52:03",
        "GPLc": "2026-03-02 10:58:20",
        "E10": "2026-06-02 08:52:03",
        "SP98": "2026-06-02 08:52:03"
      }
    },
    {
      "id": "49610002",
      "lat": 47.4034397,
      "lon": -0.527389,
      "cp": "49610",
      "ville": "Mûrs-Erigné",
      "prix": {
        "Gazole": 0.00218,
        "SP95": 0.00199,
        "SP98": 0.00199
      },
      "maj_gouv": {
        "Gazole": "2026-06-03 07:21:51",
        "SP95": "2026-06-03 07:21:51",
        "SP98": "2026-06-03 07:21:51"
      }
    },
    {
      "id": "49510001",
      "lat": 47.2,
      "lon": -0.873,
      "cp": "49510",
      "ville": "JALLAIS",
      "prix": {
        "Gazole": 0.001949,
        "SP95": 0.0019399999999999999,
        "SP98": 0.002019
      },
      "maj_gouv": {
        "Gazole": "2026-06-02 21:15:26",
        "SP95": "2026-06-02 21:15:26",
        "SP98": "2026-06-02 21:15:26"
      }
    },
    {
      "id": "49000002",
      "lat": 47.468,
      "lon": -0.594,
      "cp": "49000",
      "ville": "ANGERS",
      "prix": {
        "Gazole": 0.002006,
        "SP95": 0.001965,
        "E85": 0.00078,
        "E10": 0.0019119999999999999,
        "SP98": 0.0020459999999999996
      },
      "maj_gouv": {
        "Gazole": "2026-06-02 22:39:00",
        "SP95": "2026-06-02 22:39:00",
        "E85": "2026-06-02 22:39:00",
        "E10": "2026-06-02 22:39:00",
        "SP98": "2026-06-02 22:39:00"
      }
    },
    {
      "id": "49000013",
      "lat": 47.458,
      "lon": -0.573,
      "cp": "49000",
      "ville": "ANGERS",
      "prix": {
        "Gazole": 0.00197,
        "GPLc": 0.001035
      },
      "maj_gouv": {
        "Gazole": "2026-06-03 00:01:00",
        "GPLc": "2026-06-03 00:01:00"
      }
    },
    {
      "id": "49630004",
      "lat": 47.456,
      "lon": -0.274,
      "cp": "49630",
      "ville": "MAZé",
      "prix": {
        "Gazole": 0.001949,
        "E85": 0.000829,
        "E10": 0.001949,
        "SP98": 0.002099
      },
      "maj_gouv": {
        "Gazole": "2026-06-02 08:45:17",
        "E85": "2026-04-23 08:39:51",
        "E10": "2026-06-02 08:45:17",
        "SP98": "2026-05-30 09:28:37"
      }
    },
    {
      "id": "49430001",
      "lat": 47.66238,
      "lon": -0.24573,
      "cp": "49430",
      "ville": "DURTAL",
      "prix": {
        "Gazole": 0.0019690000000000003,
        "E85": 0.000789,
        "GPLc": 0.001082,
        "E10": 0.001999,
        "SP98": 0.002059
      },
      "maj_gouv": {
        "Gazole": "2026-06-02 08:37:14",
        "E85": "2026-06-02 08:37:14",
        "GPLc": "2026-05-21 08:28:27",
        "E10": "2026-06-02 08:37:14",
        "SP98": "2026-06-02 08:37:14"
      }
    },
    {
      "id": "49600001",
      "lat": 47.211,
      "lon": -0.984,
      "cp": "49600",
      "ville": "BEAUPRéAU",
      "prix": {
        "Gazole": 0.001949,
        "E85": 0.000829,
        "GPLc": 0.000995,
        "E10": 0.001949,
        "SP98": 0.002019
      },
      "maj_gouv": {
        "Gazole": "2026-06-02 10:44:21",
        "E85": "2026-05-21 10:06:32",
        "GPLc": "2026-04-23 11:45:29",
        "E10": "2026-06-02 10:44:22",
        "SP98": "2026-06-02 10:44:22"
      }
    },
    {
      "id": "49630003",
      "lat": 47.463,
      "lon": -0.29,
      "cp": "49630",
      "ville": "MAZé",
      "prix": {
        "Gazole": 0.002069
      },
      "maj_gouv": {
        "Gazole": "2026-06-02 07:56:58"
      }
    },
    {
      "id": "49700003",
      "lat": 47.196,
      "lon": -0.265,
      "cp": "49700",
      "ville": "DOUÉ LA FONTAINE",
      "prix": {
        "Gazole": 0.0019790000000000003,
        "E85": 0.000798,
        "E10": 0.0019890000000000003,
        "SP98": 0.002029
      },
      "maj_gouv": {
        "Gazole": "2026-06-01 12:57:11",
        "E85": "2026-06-01 12:57:11",
        "E10": "2026-06-01 12:57:11",
        "SP98": "2026-06-01 12:57:11"
      }
    },
    {
      "id": "49500002",
      "lat": 47.68,
      "lon": -0.878,
      "cp": "49500",
      "ville": "Sainte-Gemmes-d'Andigné",
      "prix": {
        "Gazole": 0.001939,
        "E10": 0.001929,
        "SP98": 0.001999
      },
      "maj_gouv": {
        "Gazole": "2026-06-02 08:42:44",
        "E10": "2026-06-02 08:42:44",
        "SP98": "2026-06-02 08:42:44"
      }
    },
    {
      "id": "49350001",
      "lat": 47.334,
      "lon": -0.232,
      "cp": "49350",
      "ville": "GENNES VAL DE LOIRE",
      "prix": {
        "Gazole": 0.00199,
        "E10": 0.00199,
        "SP98": 0.002099
      },
      "maj_gouv": {
        "Gazole": "2026-05-29 09:01:29",
        "E10": "2026-05-29 09:01:29",
        "SP98": "2026-05-29 09:01:29"
      }
    },
    {
      "id": "49300015",
      "lat": 47.063302520743,
      "lon": -0.86637975752196,
      "cp": "49300",
      "ville": "CHOLET",
      "prix": {},
      "maj_gouv": {}
    },
    {
      "id": "49620001",
      "lat": 47.349,
      "lon": -0.859,
      "cp": "49620",
      "ville": "La Pommeraye",
      "prix": {
        "Gazole": 0.0019690000000000003,
        "SP95": 0.002039,
        "SP98": 0.002069
      },
      "maj_gouv": {
        "Gazole": "2026-06-02 08:00:08",
        "SP95": "2026-06-02 08:00:16",
        "SP98": "2026-06-02 08:00:17"
      }
    },
    {
      "id": "49450006",
      "lat": 47.121,
      "lon": -0.984,
      "cp": "49450",
      "ville": "Saint-Macaire-en-Mauges",
      "prix": {
        "Gazole": 0.002058,
        "E10": 0.001988
      },
      "maj_gouv": {
        "Gazole": "2026-06-02 08:39:26",
        "E10": "2026-06-02 08:39:26"
      }
    },
    {
      "id": "49003001",
      "lat": 47.489,
      "lon": -0.544,
      "cp": "49100",
      "ville": "ANGERS",
      "prix": {
        "Gazole": 0.001968,
        "GPLc": 0.001035,
        "E10": 0.001925,
        "SP98": 0.002053
      },
      "maj_gouv": {
        "Gazole": "2026-06-02 09:11:32",
        "GPLc": "2026-04-28 08:08:54",
        "E10": "2026-06-02 09:11:32",
        "SP98": "2026-06-02 09:11:33"
      }
    },
    {
      "id": "49000011",
      "lat": 47.461,
      "lon": -0.616,
      "cp": "49000",
      "ville": "ANGERS",
      "prix": {
        "Gazole": 0.001999,
        "E85": 0.000798,
        "E10": 0.001957
      },
      "maj_gouv": {
        "Gazole": "2026-06-02 10:52:35",
        "E85": "2026-05-14 10:02:12",
        "E10": "2026-06-02 10:12:25"
      }
    },
    {
      "id": "49122001",
      "lat": 47.143,
      "lon": -0.893,
      "cp": "49122",
      "ville": "LE MAY-SUR-ÈVRE",
      "prix": {
        "Gazole": 0.0019590000000000002,
        "E85": 0.000798,
        "E10": 0.001888,
        "SP98": 0.002018
      },
      "maj_gouv": {
        "Gazole": "2026-06-02 12:08:26",
        "E85": "2026-05-19 10:53:17",
        "E10": "2026-06-02 12:08:26",
        "SP98": "2026-06-02 12:08:27"
      }
    },
    {
      "id": "49450003",
      "lat": 47.096,
      "lon": -1.005,
      "cp": "49450",
      "ville": "Saint-André-de-la-Marche",
      "prix": {
        "Gazole": 0.0019019999999999998,
        "E85": 0.000798,
        "E10": 0.001888,
        "SP98": 0.002008
      },
      "maj_gouv": {
        "Gazole": "2026-06-02 08:50:03",
        "E85": "2026-05-18 09:00:32",
        "E10": "2026-06-02 08:50:03",
        "SP98": "2026-06-02 08:50:04"
      }
    },
    {
      "id": "49100002",
      "lat": 47.481405992726,
      "lon": -0.57363141293442,
      "cp": "49100",
      "ville": "ANGERS",
      "prix": {
        "Gazole": 0.001999,
        "E85": 0.00078,
        "E10": 0.0019450000000000001,
        "SP98": 0.002081
      },
      "maj_gouv": {
        "Gazole": "2026-06-01 14:15:17",
        "E85": "2026-05-27 13:06:22",
        "E10": "2026-06-01 14:15:18",
        "SP98": "2026-05-29 08:01:23"
      }
    },
    {
      "id": "49320003",
      "lat": 47.341,
      "lon": -0.432,
      "cp": "49320",
      "ville": "Brissac-Quincé",
      "prix": {
        "Gazole": 0.0019590000000000002,
        "E10": 0.0019790000000000003,
        "SP98": 0.002029
      },
      "maj_gouv": {
        "Gazole": "2026-06-02 10:02:01",
        "E10": "2026-06-02 10:02:01",
        "SP98": "2026-06-02 10:02:01"
      }
    },
    {
      "id": "49280001",
      "lat": 47.06,
      "lon": -0.941,
      "cp": "49280",
      "ville": "LA SéGUINIèRE",
      "prix": {
        "Gazole": 0.002088,
        "E10": 0.00199
      },
      "maj_gouv": {
        "Gazole": "2026-06-02 06:39:34",
        "E10": "2026-06-02 06:39:35"
      }
    },
    {
      "id": "49220003",
      "lat": 47.618,
      "lon": -0.721,
      "cp": "49220",
      "ville": "LE LION D ANGERS",
      "prix": {
        "Gazole": 0.0021000000000000003,
        "SP95": 0.00199
      },
      "maj_gouv": {
        "Gazole": "2026-06-01 18:25:44",
        "SP95": "2026-06-01 18:25:44"
      }
    },
    {
      "id": "49000016",
      "lat": 47.469,
      "lon": -0.525,
      "cp": "49100",
      "ville": "Angers",
      "prix": {
        "Gazole": 0.001955,
        "E85": 0.000769,
        "GPLc": 0.001035,
        "E10": 0.0019590000000000002,
        "SP98": 0.002045
      },
      "maj_gouv": {
        "Gazole": "2026-06-02 09:30:44",
        "E85": "2026-05-26 09:40:36",
        "GPLc": "2026-04-29 09:50:35",
        "E10": "2026-06-02 09:30:44",
        "SP98": "2026-06-02 09:30:44"
      }
    },
    {
      "id": "49420002",
      "lat": 47.742,
      "lon": -1.168,
      "cp": "49420",
      "ville": "POUANCé",
      "prix": {
        "Gazole": 0.002056,
        "E10": 0.001984
      },
      "maj_gouv": {
        "Gazole": "2026-06-02 08:20:44",
        "E10": "2026-06-02 08:20:45"
      }
    },
    {
      "id": "49070006",
      "lat": 47.466,
      "lon": -0.674,
      "cp": "49070",
      "ville": "ST LEGER DE LINIERES",
      "prix": {
        "Gazole": 0.0019790000000000003,
        "E10": 0.0019690000000000003,
        "SP98": 0.002045
      },
      "maj_gouv": {
        "Gazole": "2026-06-02 15:43:28",
        "E10": "2026-06-02 15:43:28",
        "SP98": "2026-06-02 15:43:28"
      }
    },
    {
      "id": "49570001",
      "lat": 47.39,
      "lon": -0.862,
      "cp": "49570",
      "ville": "MONTJEAN SUR LOIRE",
      "prix": {
        "Gazole": 0.002062
      },
      "maj_gouv": {
        "Gazole": "2026-06-03 00:01:00"
      }
    },
    {
      "id": "49300009",
      "lat": 47.054,
      "lon": -0.875,
      "cp": "49300",
      "ville": "CHOLET",
      "prix": {
        "Gazole": 0.001981,
        "SP95": 0.002079,
        "SP98": 0.002129
      },
      "maj_gouv": {
        "Gazole": "2026-05-30 10:10:53",
        "SP95": "2026-05-30 10:10:53",
        "SP98": "2026-05-30 10:10:53"
      }
    },
    {
      "id": "49330001",
      "lat": 47.68082732668999,
      "lon": -0.49924631937853997,
      "cp": "49330",
      "ville": "Châteauneuf-sur-Sarthe",
      "prix": {
        "Gazole": 0.0019890000000000003,
        "SP95": 0.002081,
        "E10": 0.002039,
        "SP98": 0.0021190000000000002
      },
      "maj_gouv": {
        "Gazole": "2026-06-02 10:56:48",
        "SP95": "2026-06-02 10:56:48",
        "E10": "2026-06-02 10:56:48",
        "SP98": "2026-06-02 10:56:48"
      }
    },
    {
      "id": "49270001",
      "lat": 47.333,
      "lon": -1.261,
      "cp": "49270",
      "ville": "CHAMPTOCEAUX",
      "prix": {
        "Gazole": 0.002129,
        "SP95": 0.002099,
        "SP98": 0.002159
      },
      "maj_gouv": {
        "Gazole": "2026-06-02 20:00:00",
        "SP95": "2026-06-02 20:00:00",
        "SP98": "2026-06-02 20:00:00"
      }
    },
    {
      "id": "49230003",
      "lat": 47.118181477917005,
      "lon": -1.0997591906432,
      "cp": "49230",
      "ville": "SEVREMOINE",
      "prix": {
        "Gazole": 0.0019690000000000003,
        "E85": 0.000829,
        "E10": 0.0019590000000000002
      },
      "maj_gouv": {
        "Gazole": "2026-06-02 09:39:57",
        "E85": "2026-04-27 10:55:57",
        "E10": "2026-06-02 09:39:57"
      }
    },
    {
      "id": "49160001",
      "lat": 47.371,
      "lon": -0.098,
      "cp": "49160",
      "ville": "LONGUé-JUMELLES",
      "prix": {
        "Gazole": 0.001949,
        "E85": 0.000799,
        "GPLc": 0.001119,
        "E10": 0.001949,
        "SP98": 0.002089
      },
      "maj_gouv": {
        "Gazole": "2026-06-02 09:35:09",
        "E85": "2026-06-02 09:35:10",
        "GPLc": "2026-06-02 09:35:10",
        "E10": "2026-06-02 09:35:10",
        "SP98": "2026-06-02 09:35:10"
      }
    },
    {
      "id": "49700002",
      "lat": 47.197,
      "lon": -0.275,
      "cp": "49700",
      "ville": "DOUé-LA-FONTAINE",
      "prix": {
        "Gazole": 0.00207,
        "E10": 0.00199,
        "SP98": 0.00199
      },
      "maj_gouv": {
        "Gazole": "2026-06-02 22:58:51",
        "E10": "2026-06-02 15:35:26",
        "SP98": "2026-06-02 15:35:26"
      }
    },
    {
      "id": "49480001",
      "lat": 47.514,
      "lon": -0.473,
      "cp": "49480",
      "ville": "Saint-Sylvain-d'Anjou",
      "prix": {
        "Gazole": 0.0019590000000000002,
        "E10": 0.0019450000000000001,
        "SP98": 0.002069
      },
      "maj_gouv": {
        "Gazole": "2026-06-02 08:52:47",
        "E10": "2026-06-02 08:52:48",
        "SP98": "2026-06-02 08:52:48"
      }
    },
    {
      "id": "49680001",
      "lat": 47.311,
      "lon": -0.021,
      "cp": "49680",
      "ville": "NEUILLE",
      "prix": {
        "Gazole": 0.002099,
        "E10": 0.002145
      },
      "maj_gouv": {
        "Gazole": "2026-06-02 15:19:23",
        "E10": "2026-06-02 15:19:51"
      }
    },
    {
      "id": "49160003",
      "lat": 47.418894168087995,
      "lon": -0.13452322125889998,
      "cp": "49160",
      "ville": "Longué-Jumelles",
      "prix": {
        "Gazole": 0.0023650000000000003,
        "E10": 0.002331,
        "SP98": 0.0024809999999999997
      },
      "maj_gouv": {
        "Gazole": "2026-06-02 09:30:00",
        "E10": "2026-06-02 09:30:00",
        "SP98": "2026-06-02 09:30:00"
      }
    },
    {
      "id": "49610001",
      "lat": 47.397,
      "lon": -0.529,
      "cp": "49610",
      "ville": "MûRS-ERIGNé",
      "prix": {
        "Gazole": 0.001955,
        "E85": 0.000769,
        "E10": 0.0019590000000000002,
        "SP98": 0.002045
      },
      "maj_gouv": {
        "Gazole": "2026-06-02 08:05:47",
        "E85": "2026-05-19 08:05:44",
        "E10": "2026-06-02 08:05:47",
        "SP98": "2026-06-02 08:05:47"
      }
    },
    {
      "id": "49220004",
      "lat": 47.59855161734,
      "lon": -0.83399382209015,
      "cp": "49220",
      "ville": "VERN D ANJOU",
      "prix": {
        "Gazole": 0.00225,
        "SP95": 0.00199
      },
      "maj_gouv": {
        "Gazole": "2026-04-20 11:16:14",
        "SP95": "2026-05-29 15:25:02"
      }
    }
  ]
}