{
  "departement": "73",
  "date": "2026-06-03",
  "stations": [
    {
      "id": "73600010",
      "lat": 45.487973282321,
      "lon": 6.529250635582001,
      "cp": "73600",
      "ville": "MOUTIERS",
      "prix": {
        "Gazole": 0.001999,
        "E85": 0.000839,
        "E10": 0.001939,
        "SP98": 0.001999
      },
      "maj_gouv": {
        "Gazole": "2026-06-03 00:01:00",
        "E85": "2026-06-03 00:01:00",
        "E10": "2026-06-03 00:01:00",
        "SP98": "2026-06-03 00:01:00"
      }
    },
    {
      "id": "73420001",
      "lat": 45.657,
      "lon": 5.911,
      "cp": "73420",
      "ville": "Drumettaz-Clarafond",
      "prix": {
        "Gazole": 0.0019690000000000003,
        "E85": 0.000799,
        "GPLc": 0.001055,
        "E10": 0.001939,
        "SP98": 0.0020350000000000004
      },
      "maj_gouv": {
        "Gazole": "2026-05-29 08:45:00",
        "E85": "2026-05-15 08:00:00",
        "GPLc": "2026-04-14 08:00:00",
        "E10": "2026-06-01 16:58:28",
        "SP98": "2026-06-02 08:00:07"
      }
    },
    {
      "id": "73000012",
      "lat": 45.609640912985,
      "lon": 5.886971258695,
      "cp": "73000",
      "ville": "CHAMBERY",
      "prix": {
        "Gazole": 0.001977,
        "GPLc": 0.001049,
        "E10": 0.001931,
        "SP98": 0.00199
      },
      "maj_gouv": {
        "Gazole": "2026-06-03 00:01:00",
        "GPLc": "2026-06-03 00:01:00",
        "E10": "2026-06-03 00:01:00",
        "SP98": "2026-06-03 00:01:00"
      }
    },
    {
      "id": "73300002",
      "lat": 45.269,
      "lon": 6.367,
      "cp": "73300",
      "ville": "Saint-Jean-de-Maurienne",
      "prix": {
        "Gazole": 0.002099,
        "E10": 0.002069,
        "SP98": 0.002169
      },
      "maj_gouv": {
        "Gazole": "2026-06-03 07:00:00",
        "E10": "2026-06-03 07:00:00",
        "SP98": "2026-06-03 07:00:00"
      }
    },
    {
      "id": "73310002",
      "lat": 45.846422494013005,
      "lon": 5.837168340167101,
      "cp": "73310",
      "ville": "RUFFIEUX",
      "prix": {
        "Gazole": 0.001999,
        "E10": 0.002099,
        "SP98": 0.002199
      },
      "maj_gouv": {
        "Gazole": "2026-06-02 11:38:37",
        "E10": "2026-05-28 08:14:37",
        "SP98": "2026-05-23 10:12:34"
      }
    },
    {
      "id": "73390007",
      "lat": 45.548889302926,
      "lon": 6.157508723526,
      "cp": "73390",
      "ville": "Châteauneuf",
      "prix": {
        "Gazole": 0.002359,
        "GPLc": 0.001149,
        "E10": 0.0022589999999999997,
        "SP98": 0.0023290000000000003
      },
      "maj_gouv": {
        "Gazole": "2026-06-03 05:00:00",
        "GPLc": "2026-06-03 05:00:00",
        "E10": "2026-06-03 05:00:00",
        "SP98": "2026-06-03 05:00:00"
      }
    },
    {
      "id": "73490003",
      "lat": 45.57,
      "lon": 5.962,
      "cp": "73490",
      "ville": "LA RAVOIRE",
      "prix": {
        "Gazole": 0.001976,
        "E85": 0.000829,
        "GPLc": 0.001055,
        "E10": 0.001934,
        "SP98": 0.00199
      },
      "maj_gouv": {
        "Gazole": "2026-06-03 00:01:00",
        "E85": "2026-06-03 00:01:00",
        "GPLc": "2026-06-03 00:01:00",
        "E10": "2026-06-03 00:01:00",
        "SP98": "2026-06-03 00:01:00"
      }
    },
    {
      "id": "73140008",
      "lat": 45.217721060879,
      "lon": 6.461941830136801,
      "cp": "73140",
      "ville": "Saint-Martin-d'Arc",
      "prix": {
        "Gazole": 0.002379,
        "GPLc": 0.001199,
        "E10": 0.0022789999999999998,
        "SP98": 0.002379
      },
      "maj_gouv": {
        "Gazole": "2026-06-03 00:01:00",
        "GPLc": "2026-06-03 00:01:00",
        "E10": "2026-06-03 00:01:00",
        "SP98": "2026-06-03 00:01:00"
      }
    },
    {
      "id": "73024001",
      "lat": 45.589,
      "lon": 5.89,
      "cp": "73000",
      "ville": "CHAMBERY",
      "prix": {
        "Gazole": 0.00215,
        "SP95": 0.002186
      },
      "maj_gouv": {
        "Gazole": "2026-05-27 09:04:31",
        "SP95": "2026-05-27 09:04:32"
      }
    },
    {
      "id": "73140003",
      "lat": 45.22,
      "lon": 6.459,
      "cp": "73140",
      "ville": "SAINT-MICHEL-DE-MAURIENNE",
      "prix": {
        "Gazole": 0.0021379999999999997,
        "SP95": 0.00199,
        "SP98": 0.00199
      },
      "maj_gouv": {
        "Gazole": "2026-05-28 10:42:25",
        "SP95": "2026-04-08 08:49:27",
        "SP98": "2026-04-08 08:49:27"
      }
    },
    {
      "id": "73600007",
      "lat": 45.475,
      "lon": 6.528,
      "cp": "73600",
      "ville": "Salins-les-Thermes",
      "prix": {
        "Gazole": 0.002099,
        "E10": 0.002069,
        "SP98": 0.002169
      },
      "maj_gouv": {
        "Gazole": "2026-06-02 22:00:00",
        "E10": "2026-06-02 22:00:00",
        "SP98": "2026-06-02 22:00:00"
      }
    },
    {
      "id": "73700005",
      "lat": 45.624,
      "lon": 6.78,
      "cp": "73700",
      "ville": "BOURG-SAINT-MAURICE",
      "prix": {
        "Gazole": 0.002069,
        "E10": 0.001999,
        "SP98": 0.002129
      },
      "maj_gouv": {
        "Gazole": "2026-05-29 11:44:45",
        "E10": "2026-06-01 11:01:32",
        "SP98": "2026-05-29 11:44:45"
      }
    },
    {
      "id": "73160003",
      "lat": 45.552,
      "lon": 6.648,
      "cp": "73210",
      "ville": "Aime",
      "prix": {
        "Gazole": 0.002069,
        "E10": 0.0020299999999999997,
        "SP98": 0.002129
      },
      "maj_gouv": {
        "Gazole": "2026-06-03 01:15:00",
        "E10": "2026-06-03 01:15:00",
        "SP98": "2026-06-03 01:15:00"
      }
    },
    {
      "id": "73660001",
      "lat": 45.4,
      "lon": 6.276,
      "cp": "73660",
      "ville": "LES-CHAVANNES-EN-MAURIENNE",
      "prix": {},
      "maj_gouv": {}
    },
    {
      "id": "73130002",
      "lat": 45.349,
      "lon": 6.302,
      "cp": "73130",
      "ville": "SAINTE MARIE DE CUINES",
      "prix": {
        "Gazole": 0.001933,
        "SP95": 0.0019890000000000003,
        "E85": 0.000798,
        "E10": 0.0019690000000000003
      },
      "maj_gouv": {
        "Gazole": "2026-06-01 09:13:41",
        "SP95": "2026-06-01 09:13:41",
        "E85": "2026-05-18 10:41:59",
        "E10": "2026-06-01 09:13:41"
      }
    },
    {
      "id": "73730008",
      "lat": 45.474768729990004,
      "lon": 6.528103179596201,
      "cp": "73730",
      "ville": "CEVINS",
      "prix": {
        "Gazole": 0.00219,
        "E10": 0.00214,
        "SP98": 0.0022400000000000002
      },
      "maj_gouv": {
        "Gazole": "2026-06-03 06:00:00",
        "E10": "2026-06-03 06:00:00",
        "SP98": "2026-06-03 06:00:00"
      }
    },
    {
      "id": "73182003",
      "lat": 45.67436,
      "lon": 5.929938000000001,
      "cp": "73182",
      "ville": "MOUXY",
      "prix": {
        "Gazole": 0.002369,
        "GPLc": 0.001149,
        "E10": 0.002299,
        "SP98": 0.002369
      },
      "maj_gouv": {
        "Gazole": "2026-06-02 08:30:00",
        "GPLc": "2026-06-02 08:30:00",
        "E10": "2026-06-02 08:30:00",
        "SP98": "2026-06-02 08:30:00"
      }
    },
    {
      "id": "73290008",
      "lat": 45.592636,
      "lon": 5.88386,
      "cp": "73290",
      "ville": "La Motte-Servolex",
      "prix": {
        "Gazole": 0.002099,
        "E85": 0.0008990000000000001,
        "E10": 0.002069,
        "SP98": 0.002169
      },
      "maj_gouv": {
        "Gazole": "2026-06-02 21:00:00",
        "E85": "2026-06-02 21:00:00",
        "E10": "2026-06-02 21:00:00",
        "SP98": "2026-06-02 21:00:00"
      }
    },
    {
      "id": "73450001",
      "lat": 45.166,
      "lon": 6.432,
      "cp": "73450",
      "ville": "VALLOIRE",
      "prix": {
        "Gazole": 0.00225,
        "SP95": 0.00199,
        "SP98": 0.00199
      },
      "maj_gouv": {
        "Gazole": "2026-04-16 09:16:43",
        "SP95": "2026-04-16 09:16:43",
        "SP98": "2026-04-16 09:16:43"
      }
    },
    {
      "id": "73150003",
      "lat": 45.450357003981,
      "lon": 6.9771820312743005,
      "cp": "73150",
      "ville": "Val-d'Isère",
      "prix": {
        "Gazole": 0.002299,
        "SP95": 0.002199,
        "E85": 0.00099,
        "SP98": 0.002399
      },
      "maj_gouv": {
        "Gazole": "2026-05-13 16:55:48",
        "SP95": "2026-05-13 16:55:48",
        "E85": "2025-11-14 11:11:40",
        "SP98": "2026-05-13 16:55:48"
      }
    },
    {
      "id": "73330002",
      "lat": 45.52956,
      "lon": 5.68477,
      "cp": "73330",
      "ville": "Le Pont-de-Beauvoisin",
      "prix": {
        "Gazole": 0.0019850000000000002,
        "E10": 0.0019890000000000003,
        "SP98": 0.002059
      },
      "maj_gouv": {
        "Gazole": "2026-06-02 08:42:11",
        "E10": "2026-06-02 08:42:11",
        "SP98": "2026-06-02 08:42:11"
      }
    },
    {
      "id": "73420004",
      "lat": 45.63899019721801,
      "lon": 5.8915436274,
      "cp": "73420",
      "ville": "Voglans",
      "prix": {
        "Gazole": 0.0019690000000000003,
        "E10": 0.001939
      },
      "maj_gouv": {
        "Gazole": "2026-05-29 08:45:00",
        "E10": "2026-06-01 08:45:00"
      }
    },
    {
      "id": "73320002",
      "lat": 45.46061,
      "lon": 6.90144,
      "cp": "73320",
      "ville": "Tignes",
      "prix": {
        "Gazole": 0.00219,
        "E10": 0.0021000000000000003,
        "SP98": 0.0022
      },
      "maj_gouv": {
        "Gazole": "2026-06-03 00:01:00",
        "E10": "2026-06-03 00:01:00",
        "SP98": "2026-06-03 00:01:00"
      }
    },
    {
      "id": "73200008",
      "lat": 45.655,
      "lon": 6.364,
      "cp": "73200",
      "ville": "Albertville",
      "prix": {
        "Gazole": 0.001903,
        "E85": 0.000798,
        "GPLc": 0.0010249999999999999,
        "E10": 0.0019190000000000001,
        "SP98": 0.002045
      },
      "maj_gouv": {
        "Gazole": "2026-06-02 18:01:27",
        "E85": "2026-06-01 08:12:16",
        "GPLc": "2026-06-01 08:12:16",
        "E10": "2026-06-02 08:08:44",
        "SP98": "2026-06-02 08:08:44"
      }
    },
    {
      "id": "73200005",
      "lat": 45.661,
      "lon": 6.382,
      "cp": "73200",
      "ville": "ALBERTVILLE",
      "prix": {
        "Gazole": 0.001965,
        "E10": 0.0019190000000000001,
        "SP98": 0.0021190000000000002
      },
      "maj_gouv": {
        "Gazole": "2026-06-02 09:14:47",
        "E10": "2026-06-02 09:14:48",
        "SP98": "2026-06-02 09:14:48"
      }
    },
    {
      "id": "73470001",
      "lat": 45.594,
      "lon": 5.777,
      "cp": "73470",
      "ville": "Novalaise",
      "prix": {
        "Gazole": 0.002159,
        "SP95": 0.002149,
        "SP98": 0.002199
      },
      "maj_gouv": {
        "Gazole": "2026-05-29 09:01:19",
        "SP95": "2026-05-20 21:15:52",
        "SP98": "2026-05-20 21:15:52"
      }
    },
    {
      "id": "73460002",
      "lat": 45.646,
      "lon": 6.33,
      "cp": "73460",
      "ville": "TOURNON",
      "prix": {
        "Gazole": 0.001964,
        "SP95": 0.002078,
        "E85": 0.0007970000000000001,
        "E10": 0.001918
      },
      "maj_gouv": {
        "Gazole": "2026-06-02 09:17:31",
        "SP95": "2026-05-29 08:21:49",
        "E85": "2026-05-28 09:00:07",
        "E10": "2026-06-02 08:13:58"
      }
    },
    {
      "id": "73120001",
      "lat": 45.41515,
      "lon": 6.63731,
      "cp": "73120",
      "ville": "Courchevel",
      "prix": {
        "Gazole": 0.00225,
        "SP95": 0.00199,
        "SP98": 0.00199
      },
      "maj_gouv": {
        "Gazole": "2026-04-08 08:22:23",
        "SP95": "2026-03-10 10:53:32",
        "SP98": "2026-03-10 10:53:33"
      }
    },
    {
      "id": "73170001",
      "lat": 45.705,
      "lon": 5.769,
      "cp": "73170",
      "ville": "Yenne",
      "prix": {
        "Gazole": 0.0019890000000000003,
        "SP95": 0.001999,
        "E85": 0.000829
      },
      "maj_gouv": {
        "Gazole": "2026-05-29 09:03:23",
        "SP95": "2026-05-29 09:03:24",
        "E85": "2026-05-29 09:03:24"
      }
    },
    {
      "id": "73500006",
      "lat": 45.197,
      "lon": 6.624,
      "cp": "73500",
      "ville": "Freney",
      "prix": {
        "Gazole": 0.00231,
        "SP98": 0.0023889999999999996
      },
      "maj_gouv": {
        "Gazole": "2026-06-02 09:30:00",
        "SP98": "2026-06-02 09:30:00"
      }
    },
    {
      "id": "73200003",
      "lat": 45.48660814510401,
      "lon": 6.5253310822173,
      "cp": "73600",
      "ville": "MOûTIERS",
      "prix": {
        "Gazole": 0.002029,
        "SP95": 0.002029,
        "E85": 0.0008489999999999999,
        "E10": 0.001999,
        "SP98": 0.002155
      },
      "maj_gouv": {
        "Gazole": "2026-06-02 09:19:01",
        "SP95": "2026-06-02 09:20:16",
        "E85": "2026-06-02 09:19:01",
        "E10": "2026-06-02 09:19:01",
        "SP98": "2026-06-02 09:19:01"
      }
    },
    {
      "id": "73800001",
      "lat": 45.526,
      "lon": 5.975,
      "cp": "73800",
      "ville": "Myans",
      "prix": {
        "Gazole": 0.002399,
        "GPLc": 0.001369,
        "E10": 0.002299,
        "SP98": 0.002469
      },
      "maj_gouv": {
        "Gazole": "2026-06-03 06:24:04",
        "GPLc": "2026-06-03 06:24:03",
        "E10": "2026-06-03 06:24:03",
        "SP98": "2026-06-03 06:24:03"
      }
    },
    {
      "id": "73190002",
      "lat": 45.525,
      "lon": 5.977,
      "cp": "73190",
      "ville": "Saint-Jeoire-Prieuré",
      "prix": {
        "Gazole": 0.002399,
        "GPLc": 0.001259,
        "E10": 0.002299,
        "SP98": 0.0024089999999999997
      },
      "maj_gouv": {
        "Gazole": "2026-06-03 06:26:05",
        "GPLc": "2026-06-03 06:26:05",
        "E10": "2026-06-03 06:26:05",
        "SP98": "2026-06-03 06:26:05"
      }
    },
    {
      "id": "73870003",
      "lat": 45.245935454489,
      "lon": 6.4243876383603,
      "cp": "73870",
      "ville": "Saint-Julien-Mont-Denis",
      "prix": {
        "Gazole": 0.002379,
        "GPLc": 0.0011610000000000001,
        "E10": 0.0023290000000000003,
        "SP98": 0.002399
      },
      "maj_gouv": {
        "Gazole": "2026-06-02 14:00:00",
        "GPLc": "2026-06-02 14:00:00",
        "E10": "2026-06-02 14:00:00",
        "SP98": "2026-06-02 14:00:00"
      }
    },
    {
      "id": "73800003",
      "lat": 45.504,
      "lon": 6.038,
      "cp": "73800",
      "ville": "FRANCIN",
      "prix": {
        "Gazole": 0.002089,
        "SP95": 0.0019790000000000003
      },
      "maj_gouv": {
        "Gazole": "2026-06-01 18:18:08",
        "SP95": "2026-06-01 18:18:08"
      }
    },
    {
      "id": "73600002",
      "lat": 45.466096289751,
      "lon": 6.526213528983299,
      "cp": "73600",
      "ville": "SALINS FONTAINE",
      "prix": {
        "Gazole": 0.002055,
        "E85": 0.000839,
        "E10": 0.002019,
        "SP98": 0.002129
      },
      "maj_gouv": {
        "Gazole": "2026-06-01 18:39:55",
        "E85": "2026-05-22 12:14:03",
        "E10": "2026-06-01 18:39:55",
        "SP98": "2026-05-29 08:41:40"
      }
    },
    {
      "id": "73610002",
      "lat": 45.544,
      "lon": 5.763,
      "cp": "73610",
      "ville": "Saint-Alban-de-Montbel",
      "prix": {
        "Gazole": 0.002089,
        "E10": 0.002075,
        "SP98": 0.002165
      },
      "maj_gouv": {
        "Gazole": "2026-06-02 12:00:46",
        "E10": "2026-06-02 12:00:46",
        "SP98": "2026-06-02 12:00:46"
      }
    },
    {
      "id": "73500007",
      "lat": 45.2,
      "lon": 6.669,
      "cp": "73500",
      "ville": "MODANE",
      "prix": {
        "Gazole": 0.002099,
        "E85": 0.000798,
        "E10": 0.002059
      },
      "maj_gouv": {
        "Gazole": "2026-05-27 09:29:43",
        "E85": "2026-05-18 15:11:19",
        "E10": "2026-05-27 09:29:43"
      }
    },
    {
      "id": "73330001",
      "lat": 45.53,
      "lon": 5.69,
      "cp": "73330",
      "ville": "Le Pont-de-Beauvoisin",
      "prix": {
        "Gazole": 0.0019890000000000003,
        "E85": 0.000799,
        "GPLc": 0.001099,
        "E10": 0.0019790000000000003,
        "SP98": 0.002049
      },
      "maj_gouv": {
        "Gazole": "2026-06-03 07:02:17",
        "E85": "2026-05-15 07:06:20",
        "GPLc": "2026-06-01 07:00:12",
        "E10": "2026-06-03 07:02:18",
        "SP98": "2026-06-03 07:02:18"
      }
    },
    {
      "id": "73200002",
      "lat": 45.667,
      "lon": 6.394,
      "cp": "73200",
      "ville": "ALBERTVILLE",
      "prix": {
        "Gazole": 0.002159,
        "E10": 0.002045,
        "SP98": 0.002175
      },
      "maj_gouv": {
        "Gazole": "2026-05-26 17:57:50",
        "E10": "2026-05-26 17:57:50",
        "SP98": "2026-05-26 17:57:50"
      }
    },
    {
      "id": "73340001",
      "lat": 45.707077759824,
      "lon": 6.105881521871201,
      "cp": "73340",
      "ville": "Lescheraines",
      "prix": {
        "Gazole": 0.00234,
        "E10": 0.002088
      },
      "maj_gouv": {
        "Gazole": "2026-04-24 13:02:09",
        "E10": "2026-04-21 14:13:48"
      }
    },
    {
      "id": "73220002",
      "lat": 45.543,
      "lon": 6.303,
      "cp": "73220",
      "ville": "Aiguebelle",
      "prix": {
        "Gazole": 0.0019690000000000003,
        "SP95": 0.001973,
        "E85": 0.0008990000000000001
      },
      "maj_gouv": {
        "Gazole": "2026-06-01 05:59:04",
        "SP95": "2026-06-01 05:59:20",
        "E85": "2026-05-15 09:24:59"
      }
    },
    {
      "id": "73800002",
      "lat": 45.504,
      "lon": 6.039,
      "cp": "73800",
      "ville": "PORTE DE SAVOIE",
      "prix": {
        "Gazole": 0.001999,
        "E10": 0.0019890000000000003,
        "SP98": 0.002079
      },
      "maj_gouv": {
        "Gazole": "2026-05-29 14:01:38",
        "E10": "2026-05-29 14:01:38",
        "SP98": "2026-05-29 14:01:38"
      }
    },
    {
      "id": "73000007",
      "lat": 45.58,
      "lon": 5.909,
      "cp": "73000",
      "ville": "Chambéry",
      "prix": {
        "Gazole": 0.00199,
        "E10": 0.001939,
        "SP98": 0.002036
      },
      "maj_gouv": {
        "Gazole": "2026-06-02 07:40:00",
        "E10": "2026-06-02 07:40:00",
        "SP98": "2026-06-02 07:40:00"
      }
    },
    {
      "id": "73000014",
      "lat": 45.5933597618,
      "lon": 5.896568816749999,
      "cp": "73000",
      "ville": "CHAMBERY",
      "prix": {
        "Gazole": 0.001976,
        "GPLc": 0.001049,
        "E10": 0.0019270000000000001,
        "SP98": 0.00199
      },
      "maj_gouv": {
        "Gazole": "2026-06-03 00:01:00",
        "GPLc": "2026-06-03 00:01:00",
        "E10": "2026-06-03 00:01:00",
        "SP98": "2026-06-03 00:01:00"
      }
    },
    {
      "id": "73390008",
      "lat": 45.547,
      "lon": 6.156,
      "cp": "73390",
      "ville": "CHATEAUNEUF",
      "prix": {
        "Gazole": 0.002359,
        "E10": 0.0022589999999999997,
        "SP98": 0.0023290000000000003
      },
      "maj_gouv": {
        "Gazole": "2026-06-03 00:00:00",
        "E10": "2026-06-03 00:00:00",
        "SP98": "2026-06-03 00:00:00"
      }
    },
    {
      "id": "73200006",
      "lat": 45.67265,
      "lon": 6.39194,
      "cp": "73200",
      "ville": "ALBERTVILLE",
      "prix": {
        "E85": 0.000833
      },
      "maj_gouv": {
        "E85": "2026-06-03 00:01:00"
      }
    },
    {
      "id": "73400005",
      "lat": 45.741690578647,
      "lon": 6.423069616396799,
      "cp": "73400",
      "ville": "UGINE",
      "prix": {
        "Gazole": 0.001999,
        "E10": 0.0019690000000000003,
        "SP98": 0.002029
      },
      "maj_gouv": {
        "Gazole": "2026-06-03 00:01:00",
        "E10": "2026-06-03 00:01:00",
        "SP98": "2026-06-03 00:01:00"
      }
    },
    {
      "id": "73000017",
      "lat": 45.59,
      "lon": 5.92,
      "cp": "73000",
      "ville": "Chambéry",
      "prix": {
        "Gazole": 0.001999,
        "E85": 0.000799,
        "E10": 0.001999
      },
      "maj_gouv": {
        "Gazole": "2026-06-01 08:20:27",
        "E85": "2026-04-14 08:08:37",
        "E10": "2026-05-28 10:01:37"
      }
    },
    {
      "id": "73260001",
      "lat": 45.503,
      "lon": 6.50161,
      "cp": "73260",
      "ville": "AIGUEBLANCHE",
      "prix": {
        "Gazole": 0.002099,
        "E10": 0.002109,
        "SP98": 0.002199
      },
      "maj_gouv": {
        "Gazole": "2026-06-01 09:44:17",
        "E10": "2026-06-01 09:44:17",
        "SP98": "2026-06-01 09:44:18"
      }
    },
    {
      "id": "73300001",
      "lat": 45.266,
      "lon": 6.367,
      "cp": "73300",
      "ville": "Saint-Jean-de-Maurienne",
      "prix": {
        "Gazole": 0.001997,
        "SP95": 0.002039,
        "SP98": 0.0021520000000000003
      },
      "maj_gouv": {
        "Gazole": "2026-06-01 08:45:00",
        "SP95": "2026-06-01 08:45:00",
        "SP98": "2026-05-18 11:23:44"
      }
    },
    {
      "id": "73140001",
      "lat": 45.218,
      "lon": 6.472,
      "cp": "73140",
      "ville": "SAINT-MICHEL-DE-MAURIENNE",
      "prix": {
        "Gazole": 0.002145,
        "SP95": 0.00199,
        "SP98": 0.002054
      },
      "maj_gouv": {
        "Gazole": "2026-06-01 12:45:00",
        "SP95": "2026-06-01 12:45:00",
        "SP98": "2026-06-01 12:45:00"
      }
    },
    {
      "id": "73600006",
      "lat": 45.47668353119101,
      "lon": 6.527356862485499,
      "cp": "73600",
      "ville": "Salins-les-Thermes",
      "prix": {
        "Gazole": 0.001976,
        "E85": 0.000879,
        "E10": 0.001936
      },
      "maj_gouv": {
        "Gazole": "2026-06-03 00:01:00",
        "E85": "2026-06-03 00:01:00",
        "E10": "2026-06-03 00:01:00"
      }
    },
    {
      "id": "73300004",
      "lat": 45.2906,
      "lon": 6.35676,
      "cp": "73300",
      "ville": "HERMILLON",
      "prix": {
        "Gazole": 0.001999,
        "SP95": 0.0019890000000000003,
        "E10": 0.0019690000000000003
      },
      "maj_gouv": {
        "Gazole": "2026-05-30 08:30:00",
        "SP95": "2026-05-30 08:30:00",
        "E10": "2026-05-30 08:30:00"
      }
    },
    {
      "id": "73420002",
      "lat": 45.6473617151,
      "lon": 5.8939178300199995,
      "cp": "73420",
      "ville": "VIVIERS-DU-LAC",
      "prix": {
        "Gazole": 0.0019690000000000003,
        "E10": 0.001939,
        "SP98": 0.0020350000000000004
      },
      "maj_gouv": {
        "Gazole": "2026-05-29 10:50:55",
        "E10": "2026-06-01 10:18:24",
        "SP98": "2026-06-02 11:01:47"
      }
    },
    {
      "id": "73160002",
      "lat": 45.5623,
      "lon": 5.89429,
      "cp": "73160",
      "ville": "Cognin",
      "prix": {
        "Gazole": 0.001999,
        "SP95": 0.002059,
        "SP98": 0.002099
      },
      "maj_gouv": {
        "Gazole": "2026-06-01 08:22:08",
        "SP95": "2026-05-29 06:50:11",
        "SP98": "2026-05-29 06:51:06"
      }
    },
    {
      "id": "73410001",
      "lat": 45.761,
      "lon": 5.933,
      "cp": "73410",
      "ville": "LA BIOLLE",
      "prix": {
        "Gazole": 0.001999,
        "SP95": 0.001999,
        "SP98": 0.002059
      },
      "maj_gouv": {
        "Gazole": "2026-05-29 14:24:22",
        "SP95": "2026-05-29 14:24:22",
        "SP98": "2026-05-29 14:24:22"
      }
    },
    {
      "id": "73300005",
      "lat": 45.24,
      "lon": 6.27,
      "cp": "73300",
      "ville": "LE CORBIER - VILLAREMBERT",
      "prix": {
        "SP95": 0.00217
      },
      "maj_gouv": {
        "SP95": "2026-04-02 11:12:45"
      }
    },
    {
      "id": "73110003",
      "lat": 45.44377,
      "lon": 6.09615,
      "cp": "73110",
      "ville": "Détrier",
      "prix": {
        "Gazole": 0.001999,
        "SP95": 0.002179,
        "E85": 0.000839,
        "E10": 0.002129
      },
      "maj_gouv": {
        "Gazole": "2026-06-01 09:41:31",
        "SP95": "2026-05-30 07:43:32",
        "E85": "2026-04-30 11:24:16",
        "E10": "2026-05-26 10:25:13"
      }
    },
    {
      "id": "73270001",
      "lat": 45.728,
      "lon": 6.533,
      "cp": "73270",
      "ville": "Villard-sur-Doron",
      "prix": {
        "Gazole": 0.002049,
        "SP95": 0.002149,
        "SP98": 0.002199
      },
      "maj_gouv": {
        "Gazole": "2026-06-01 09:27:50",
        "SP95": "2026-05-12 12:04:43",
        "SP98": "2026-05-12 12:04:43"
      }
    },
    {
      "id": "73100001",
      "lat": 45.72,
      "lon": 5.922,
      "cp": "73100",
      "ville": "Grésy-sur-Aix",
      "prix": {
        "Gazole": 0.002,
        "E85": 0.000864,
        "E10": 0.001972,
        "SP98": 0.002085
      },
      "maj_gouv": {
        "Gazole": "2026-06-02 09:40:56",
        "E85": "2026-06-02 16:35:54",
        "E10": "2026-06-02 16:35:54",
        "SP98": "2026-06-02 16:35:54"
      }
    },
    {
      "id": "73420005",
      "lat": 45.67291,
      "lon": 5.92696,
      "cp": "73100",
      "ville": "Mouxy",
      "prix": {
        "Gazole": 0.002202,
        "E85": 0.000998,
        "GPLc": 0.001148,
        "E10": 0.00199,
        "SP98": 0.00199
      },
      "maj_gouv": {
        "Gazole": "2026-06-03 00:01:00",
        "E85": "2026-06-03 00:01:00",
        "GPLc": "2026-06-03 00:01:00",
        "E10": "2026-06-03 00:01:00",
        "SP98": "2026-06-03 00:01:00"
      }
    },
    {
      "id": "73400001",
      "lat": 45.757,
      "lon": 6.399,
      "cp": "73400",
      "ville": "UGINE",
      "prix": {
        "Gazole": 0.002129,
        "SP95": 0.001988,
        "SP98": 0.001988
      },
      "maj_gouv": {
        "Gazole": "2026-06-01 07:14:26",
        "SP95": "2026-06-01 07:14:26",
        "SP98": "2026-06-01 07:14:26"
      }
    },
    {
      "id": "73110002",
      "lat": 45.456,
      "lon": 6.112,
      "cp": "73110",
      "ville": "LA ROCHETTE",
      "prix": {
        "Gazole": 0.00199,
        "E10": 0.00204,
        "SP98": 0.0022429999999999998
      },
      "maj_gouv": {
        "Gazole": "2026-06-02 09:37:17",
        "E10": "2026-06-02 11:20:28",
        "SP98": "2026-04-01 09:51:16"
      }
    },
    {
      "id": "73290001",
      "lat": 45.60217,
      "lon": 5.87546,
      "cp": "73290",
      "ville": "LA MOTTE-SERVOLEX",
      "prix": {
        "Gazole": 0.0019950000000000002,
        "E85": 0.000789,
        "E10": 0.0019890000000000003,
        "SP98": 0.002059
      },
      "maj_gouv": {
        "Gazole": "2026-06-02 18:32:41",
        "E85": "2026-05-18 08:30:00",
        "E10": "2026-06-02 18:32:41",
        "SP98": "2026-06-02 18:32:42"
      }
    },
    {
      "id": "73000009",
      "lat": 45.56727366449999,
      "lon": 5.9350464324,
      "cp": "73000",
      "ville": "CHAMBERY",
      "prix": {
        "Gazole": 0.001999,
        "E10": 0.0019890000000000003,
        "SP98": 0.002059
      },
      "maj_gouv": {
        "Gazole": "2026-06-03 00:01:00",
        "E10": "2026-06-03 00:01:00",
        "SP98": "2026-06-03 00:01:00"
      }
    },
    {
      "id": "73540002",
      "lat": 45.64037,
      "lon": 6.43979,
      "cp": "73540",
      "ville": "La Bâthie",
      "prix": {
        "Gazole": 0.0019790000000000003,
        "E10": 0.0019790000000000003,
        "SP98": 0.0021190000000000002
      },
      "maj_gouv": {
        "Gazole": "2026-06-02 15:13:41",
        "E10": "2026-06-02 15:13:41",
        "SP98": "2026-06-02 15:13:42"
      }
    },
    {
      "id": "73800005",
      "lat": 45.504,
      "lon": 6.069,
      "cp": "73800",
      "ville": "Montmélian",
      "prix": {
        "Gazole": 0.001938,
        "E10": 0.001898,
        "SP98": 0.002006
      },
      "maj_gouv": {
        "Gazole": "2026-06-02 08:50:57",
        "E10": "2026-06-02 08:50:57",
        "SP98": "2026-06-02 08:50:57"
      }
    },
    {
      "id": "73200001",
      "lat": 45.66783,
      "lon": 6.37303,
      "cp": "73200",
      "ville": "ALBERTVILLE",
      "prix": {
        "Gazole": 0.00215,
        "SP95": 0.002145,
        "SP98": 0.002175
      },
      "maj_gouv": {
        "Gazole": "2026-06-01 10:58:00",
        "SP95": "2026-06-02 09:53:54",
        "SP98": "2026-05-25 08:24:53"
      }
    },
    {
      "id": "73500005",
      "lat": 45.190830674671,
      "lon": 6.6422706349045,
      "cp": "73500",
      "ville": "MODANE",
      "prix": {
        "Gazole": 0.002099,
        "SP95": 0.002109,
        "E10": 0.002059
      },
      "maj_gouv": {
        "Gazole": "2026-05-26 17:32:42",
        "SP95": "2026-05-30 09:33:10",
        "E10": "2026-05-26 17:32:42"
      }
    },
    {
      "id": "73240001",
      "lat": 45.595,
      "lon": 5.636,
      "cp": "73240",
      "ville": "Saint-Genix-sur-Guiers",
      "prix": {
        "Gazole": 0.002199,
        "SP95": 0.0021190000000000002,
        "E85": 0.000798,
        "SP98": 0.002169
      },
      "maj_gouv": {
        "Gazole": "2026-05-26 15:02:18",
        "SP95": "2026-05-15 14:04:24",
        "E85": "2026-05-26 11:24:43",
        "SP98": "2026-05-15 14:04:24"
      }
    },
    {
      "id": "73230001",
      "lat": 45.574,
      "lon": 5.953,
      "cp": "73230",
      "ville": "SAINT-ALBAN-LEYSSE",
      "prix": {
        "Gazole": 0.001999,
        "SP95": 0.002009,
        "GPLc": 0.001095,
        "SP98": 0.002059
      },
      "maj_gouv": {
        "Gazole": "2026-06-03 00:01:00",
        "SP95": "2026-06-03 00:01:00",
        "GPLc": "2026-05-07 00:01:00",
        "SP98": "2026-06-03 00:01:00"
      }
    },
    {
      "id": "73000013",
      "lat": 45.56332,
      "lon": 5.90207,
      "cp": "73000",
      "ville": "CHAMBERY",
      "prix": {
        "Gazole": 0.0019790000000000003,
        "E85": 0.000855,
        "E10": 0.001932,
        "SP98": 0.00199
      },
      "maj_gouv": {
        "Gazole": "2026-06-03 00:01:00",
        "E85": "2026-06-03 00:01:00",
        "E10": "2026-06-03 00:01:00",
        "SP98": "2026-06-03 00:01:00"
      }
    },
    {
      "id": "73000001",
      "lat": 45.576,
      "lon": 5.944,
      "cp": "73000",
      "ville": "BASSENS",
      "prix": {},
      "maj_gouv": {}
    },
    {
      "id": "73000002",
      "lat": 45.5948253473,
      "lon": 5.8980267262199995,
      "cp": "73000",
      "ville": "CHAMBéRY",
      "prix": {
        "Gazole": 0.001993,
        "E85": 0.000809,
        "E10": 0.0019270000000000001,
        "SP98": 0.0020729999999999998
      },
      "maj_gouv": {
        "Gazole": "2026-06-02 22:39:00",
        "E85": "2026-06-02 22:39:00",
        "E10": "2026-06-02 22:39:00",
        "SP98": "2026-06-02 22:39:00"
      }
    },
    {
      "id": "73250001",
      "lat": 45.55458,
      "lon": 6.16274,
      "cp": "73250",
      "ville": "Saint-Pierre-d'Albigny",
      "prix": {
        "Gazole": 0.001998,
        "SP95": 0.002079,
        "E10": 0.001999,
        "SP98": 0.002099
      },
      "maj_gouv": {
        "Gazole": "2026-06-02 05:53:06",
        "SP95": "2026-05-29 05:53:14",
        "E10": "2026-05-29 05:53:14",
        "SP98": "2026-05-29 05:53:14"
      }
    },
    {
      "id": "73340002",
      "lat": 45.621,
      "lon": 6.081,
      "cp": "73340",
      "ville": "AILLON LE JEUNE",
      "prix": {
        "Gazole": 0.0022879999999999997,
        "SP95": 0.002006,
        "SP98": 0.002104
      },
      "maj_gouv": {
        "Gazole": "2026-04-28 08:27:00",
        "SP95": "2026-04-28 08:27:00",
        "SP98": "2026-04-28 08:27:00"
      }
    },
    {
      "id": "73130004",
      "lat": 45.342152999999996,
      "lon": 6.2986640000000005,
      "cp": "73130",
      "ville": "Sainte-Marie-de-Cuines",
      "prix": {
        "Gazole": 0.00225,
        "SP95": 0.00199
      },
      "maj_gouv": {
        "Gazole": "2026-06-01 17:26:11",
        "SP95": "2026-05-29 13:40:17"
      }
    },
    {
      "id": "73800006",
      "lat": 45.444248152171994,
      "lon": 6.033442616669399,
      "cp": "73800",
      "ville": "LAISSAUD",
      "prix": {
        "Gazole": 0.002064,
        "E85": 0.000879,
        "E10": 0.00199,
        "SP98": 0.00199
      },
      "maj_gouv": {
        "Gazole": "2026-06-03 07:28:19",
        "E85": "2026-06-02 07:31:10",
        "E10": "2026-04-08 12:05:13",
        "SP98": "2026-05-12 16:27:37"
      }
    },
    {
      "id": "73460003",
      "lat": 45.633,
      "lon": 6.312,
      "cp": "73460",
      "ville": "FRONTENEX",
      "prix": {
        "Gazole": 0.001911,
        "E10": 0.0019190000000000001,
        "SP98": 0.002099
      },
      "maj_gouv": {
        "Gazole": "2026-06-02 13:42:49",
        "E10": "2026-06-02 13:42:49",
        "SP98": "2026-06-02 13:42:49"
      }
    },
    {
      "id": "73100008",
      "lat": 45.26570742,
      "lon": 6.812138149999999,
      "cp": "73500",
      "ville": "VAL CENIS",
      "prix": {
        "Gazole": 0.002129,
        "SP95": 0.002139,
        "E10": 0.002089
      },
      "maj_gouv": {
        "Gazole": "2026-05-29 09:12:45",
        "SP95": "2026-05-29 09:12:45",
        "E10": "2026-05-29 09:12:45"
      }
    },
    {
      "id": "73400003",
      "lat": 45.747107230000005,
      "lon": 6.418380409999999,
      "cp": "73400",
      "ville": "UGINE",
      "prix": {
        "Gazole": 0.002049,
        "E10": 0.002029,
        "SP98": 0.002169
      },
      "maj_gouv": {
        "Gazole": "2026-05-29 15:23:39",
        "E10": "2026-05-29 15:23:39",
        "SP98": "2026-05-20 11:47:16"
      }
    },
    {
      "id": "73100005",
      "lat": 45.697,
      "lon": 5.908,
      "cp": "73100",
      "ville": "Aix-les-Bains",
      "prix": {
        "Gazole": 0.001978,
        "E10": 0.0019479999999999999,
        "SP98": 0.002028
      },
      "maj_gouv": {
        "Gazole": "2026-06-02 06:30:00",
        "E10": "2026-06-02 06:30:00",
        "SP98": "2026-06-02 06:30:00"
      }
    },
    {
      "id": "73490002",
      "lat": 45.563,
      "lon": 5.966,
      "cp": "73490",
      "ville": "LA RAVOIRE",
      "prix": {
        "Gazole": 0.001999,
        "SP95": 0.002049,
        "E10": 0.001999,
        "SP98": 0.002089
      },
      "maj_gouv": {
        "Gazole": "2026-05-29 08:43:25",
        "SP95": "2026-05-29 08:43:25",
        "E10": "2026-05-29 08:43:25",
        "SP98": "2026-05-29 08:43:25"
      }
    },
    {
      "id": "73630004",
      "lat": 45.688834217287,
      "lon": 6.1345421845170005,
      "cp": "73630",
      "ville": "LE CHATELARD",
      "prix": {
        "Gazole": 0.001999,
        "SP95": 0.002069
      },
      "maj_gouv": {
        "Gazole": "2026-05-27 06:37:27",
        "SP95": "2026-05-27 06:37:27"
      }
    },
    {
      "id": "73120003",
      "lat": 45.413565895223,
      "lon": 6.640016624747,
      "cp": "73120",
      "ville": "COURCHEVEL",
      "prix": {
        "Gazole": 0.0023,
        "E10": 0.0021000000000000003,
        "SP98": 0.0022
      },
      "maj_gouv": {
        "Gazole": "2026-04-22 09:13:33",
        "E10": "2026-04-02 09:21:02",
        "SP98": "2026-04-02 09:21:02"
      }
    },
    {
      "id": "73700001",
      "lat": 45.623,
      "lon": 6.78,
      "cp": "73700",
      "ville": "Bourg-Saint-Maurice",
      "prix": {
        "Gazole": 0.002069,
        "E85": 0.000839,
        "GPLc": 0.0010789999999999999,
        "E10": 0.001999,
        "SP98": 0.002129
      },
      "maj_gouv": {
        "Gazole": "2026-05-29 11:44:13",
        "E85": "2026-06-01 11:04:26",
        "GPLc": "2026-04-15 09:34:39",
        "E10": "2026-06-01 11:04:27",
        "SP98": "2026-05-29 11:44:13"
      }
    },
    {
      "id": "38380004",
      "lat": 45.422,
      "lon": 5.862,
      "cp": "73670",
      "ville": "ST PIERRE D'ENTREMONT",
      "prix": {
        "Gazole": 0.0021219999999999998,
        "SP95": 0.0020859999999999997,
        "SP98": 0.0021219999999999998
      },
      "maj_gouv": {
        "Gazole": "2026-05-29 12:33:48",
        "SP95": "2026-05-29 12:33:48",
        "SP98": "2026-05-29 12:33:48"
      }
    },
    {
      "id": "73202001",
      "lat": 45.661,
      "lon": 6.384,
      "cp": "73200",
      "ville": "Albertville",
      "prix": {
        "Gazole": 0.002094,
        "E85": 0.000879,
        "E10": 0.00199,
        "SP98": 0.00199
      },
      "maj_gouv": {
        "Gazole": "2026-06-02 08:03:57",
        "E85": "2026-06-02 08:03:57",
        "E10": "2026-06-02 08:03:57",
        "SP98": "2026-06-02 15:47:45"
      }
    },
    {
      "id": "73370001",
      "lat": 45.676,
      "lon": 5.852,
      "cp": "73370",
      "ville": "Le Bourget-du-Lac",
      "prix": {
        "Gazole": 0.002121,
        "SP95": 0.002097,
        "SP98": 0.002113
      },
      "maj_gouv": {
        "Gazole": "2026-05-29 17:51:18",
        "SP95": "2026-05-29 17:51:18",
        "SP98": "2026-05-29 17:51:18"
      }
    },
    {
      "id": "73100012",
      "lat": 45.694,
      "lon": 5.9,
      "cp": "73100",
      "ville": "Aix-les-Bains",
      "prix": {},
      "maj_gouv": {}
    },
    {
      "id": "73480001",
      "lat": 45.286,
      "lon": 6.884,
      "cp": "73480",
      "ville": "VAL CENIS",
      "prix": {
        "Gazole": 0.00221,
        "SP95": 0.00228,
        "SP98": 0.00239
      },
      "maj_gouv": {
        "Gazole": "2026-05-21 13:50:03",
        "SP95": "2026-04-27 13:51:59",
        "SP98": "2026-04-27 13:51:59"
      }
    }
  ]
}