{
  "departement": "90",
  "date": "2026-06-03",
  "stations": [
    {
      "id": "90500001",
      "lat": 47.48973,
      "lon": 6.92225,
      "cp": "90500",
      "ville": "Beaucourt",
      "prix": {
        "Gazole": 0.00219,
        "SP95": 0.00218,
        "SP98": 0.00221
      },
      "maj_gouv": {
        "Gazole": "2026-06-01 10:29:00",
        "SP95": "2026-05-21 07:30:00",
        "SP98": "2026-05-21 07:30:00"
      }
    },
    {
      "id": "90000015",
      "lat": 47.636,
      "lon": 6.838,
      "cp": "90000",
      "ville": "BELFORT",
      "prix": {
        "Gazole": 0.001981
      },
      "maj_gouv": {
        "Gazole": "2026-06-03 00:01:00"
      }
    },
    {
      "id": "90008001",
      "lat": 47.628,
      "lon": 6.862,
      "cp": "90000",
      "ville": "Belfort",
      "prix": {
        "Gazole": 0.001972,
        "SP95": 0.002072,
        "E85": 0.000874,
        "E10": 0.001944,
        "SP98": 0.0021160000000000003
      },
      "maj_gouv": {
        "Gazole": "2026-06-03 01:15:00",
        "SP95": "2026-06-03 01:15:00",
        "E85": "2026-06-03 01:15:00",
        "E10": "2026-06-03 01:15:00",
        "SP98": "2026-06-03 01:15:00"
      }
    },
    {
      "id": "90500002",
      "lat": 47.49,
      "lon": 6.922,
      "cp": "90500",
      "ville": "BEAUCOURT",
      "prix": {
        "Gazole": 0.002155,
        "SP95": 0.002165,
        "E10": 0.0021309999999999996,
        "SP98": 0.002184
      },
      "maj_gouv": {
        "Gazole": "2026-05-26 10:48:27",
        "SP95": "2026-05-26 10:48:27",
        "E10": "2026-05-26 10:48:27",
        "SP98": "2026-05-26 10:48:27"
      }
    },
    {
      "id": "90000009",
      "lat": 47.636,
      "lon": 6.873,
      "cp": "90000",
      "ville": "Belfort",
      "prix": {
        "Gazole": 0.002179,
        "SP95": 0.002179,
        "E85": 0.000959,
        "SP98": 0.002199
      },
      "maj_gouv": {
        "Gazole": "2026-05-29 08:39:49",
        "SP95": "2026-05-29 08:39:49",
        "E85": "2026-05-29 08:39:49",
        "SP98": "2026-05-29 08:39:50"
      }
    },
    {
      "id": "90100004",
      "lat": 47.511,
      "lon": 7.001,
      "cp": "90100",
      "ville": "Delle",
      "prix": {
        "Gazole": 0.0022389999999999997,
        "SP95": 0.002169,
        "GPLc": 0.00109,
        "SP98": 0.002199
      },
      "maj_gouv": {
        "Gazole": "2026-05-20 08:08:59",
        "SP95": "2026-05-13 18:27:59",
        "GPLc": "2026-05-13 18:27:59",
        "SP98": "2026-05-13 18:27:59"
      }
    },
    {
      "id": "90300004",
      "lat": 47.658916,
      "lon": 6.866529,
      "cp": "90300",
      "ville": "OFFEMONT",
      "prix": {
        "Gazole": 0.001972,
        "E85": 0.000799,
        "E10": 0.001944
      },
      "maj_gouv": {
        "Gazole": "2026-06-02 10:12:23",
        "E85": "2026-06-02 10:12:23",
        "E10": "2026-06-02 10:12:23"
      }
    },
    {
      "id": "90300002",
      "lat": 47.66862601099999,
      "lon": 6.842203087160001,
      "cp": "90300",
      "ville": "VALDOIE",
      "prix": {
        "Gazole": 0.0019790000000000003,
        "SP95": 0.0020729999999999998,
        "GPLc": 0.001059,
        "SP98": 0.002117
      },
      "maj_gouv": {
        "Gazole": "2026-06-02 19:44:50",
        "SP95": "2026-06-02 19:44:50",
        "GPLc": "2026-06-02 19:44:50",
        "SP98": "2026-06-02 19:44:50"
      }
    },
    {
      "id": "90100003",
      "lat": 47.512,
      "lon": 6.999,
      "cp": "90100",
      "ville": "DELLE",
      "prix": {
        "Gazole": 0.001909,
        "E85": 0.000798,
        "E10": 0.0018919999999999998,
        "SP98": 0.001996
      },
      "maj_gouv": {
        "Gazole": "2026-06-02 08:30:00",
        "E85": "2026-05-16 08:30:00",
        "E10": "2026-06-02 08:30:00",
        "SP98": "2026-06-02 08:30:00"
      }
    },
    {
      "id": "90150001",
      "lat": 47.688,
      "lon": 6.955,
      "cp": "90150",
      "ville": "MENONCOURT",
      "prix": {
        "Gazole": 0.0020659999999999997,
        "E10": 0.0019790000000000003
      },
      "maj_gouv": {
        "Gazole": "2026-06-03 05:50:22",
        "E10": "2026-06-02 06:00:07"
      }
    },
    {
      "id": "90200003",
      "lat": 47.735,
      "lon": 6.83,
      "cp": "90200",
      "ville": "GIROMAGNY",
      "prix": {
        "Gazole": 0.0020729999999999998,
        "E10": 0.001978,
        "SP98": 0.00199
      },
      "maj_gouv": {
        "Gazole": "2026-06-03 07:26:11",
        "E10": "2026-06-02 07:12:00",
        "SP98": "2026-06-02 07:12:00"
      }
    },
    {
      "id": "90000014",
      "lat": 47.626,
      "lon": 6.86,
      "cp": "90000",
      "ville": "BELFORT",
      "prix": {
        "Gazole": 0.001981,
        "E85": 0.000875,
        "E10": 0.0018919999999999998,
        "SP98": 0.00199
      },
      "maj_gouv": {
        "Gazole": "2026-06-03 00:01:00",
        "E85": "2026-06-03 00:01:00",
        "E10": "2026-06-03 00:01:00",
        "SP98": "2026-06-03 00:01:00"
      }
    },
    {
      "id": "90400001",
      "lat": 47.6,
      "lon": 6.862,
      "cp": "90400",
      "ville": "ANDELNANS",
      "prix": {
        "Gazole": 0.001972,
        "E85": 0.000874,
        "E10": 0.001944,
        "SP98": 0.002117
      },
      "maj_gouv": {
        "Gazole": "2026-06-01 17:47:09",
        "E85": "2026-06-01 17:47:09",
        "E10": "2026-06-01 17:47:09",
        "SP98": "2026-06-01 17:47:09"
      }
    },
    {
      "id": "90160001",
      "lat": 47.641,
      "lon": 6.916,
      "cp": "90160",
      "ville": "BESSONCOURT",
      "prix": {
        "Gazole": 0.001981,
        "GPLc": 0.001055,
        "E10": 0.001944,
        "SP98": 0.002117
      },
      "maj_gouv": {
        "Gazole": "2026-06-02 09:35:33",
        "GPLc": "2026-04-18 09:55:20",
        "E10": "2026-06-02 09:35:33",
        "SP98": "2026-06-02 09:35:33"
      }
    },
    {
      "id": "90200002",
      "lat": 47.737,
      "lon": 6.836,
      "cp": "90200",
      "ville": "GIROMAGNY",
      "prix": {
        "Gazole": 0.002059,
        "SP95": 0.0020659999999999997,
        "SP98": 0.002126
      },
      "maj_gouv": {
        "Gazole": "2026-06-01 07:32:49",
        "SP95": "2026-06-01 07:32:49",
        "SP98": "2026-06-01 07:32:49"
      }
    },
    {
      "id": "90000002",
      "lat": 47.64,
      "lon": 6.868,
      "cp": "90000",
      "ville": "Belfort",
      "prix": {
        "Gazole": 0.002079,
        "E10": 0.00199,
        "SP98": 0.00199
      },
      "maj_gouv": {
        "Gazole": "2026-06-02 09:40:37",
        "E10": "2026-06-02 09:40:37",
        "SP98": "2026-06-02 09:40:37"
      }
    },
    {
      "id": "90000013",
      "lat": 47.631,
      "lon": 6.867,
      "cp": "90000",
      "ville": "BELFORT",
      "prix": {
        "Gazole": 0.0020659999999999997,
        "E85": 0.000879,
        "GPLc": 0.001035,
        "E10": 0.001968,
        "SP98": 0.00199
      },
      "maj_gouv": {
        "Gazole": "2026-06-03 00:01:00",
        "E85": "2026-06-03 00:01:00",
        "GPLc": "2026-06-03 00:01:00",
        "E10": "2026-06-03 00:01:00",
        "SP98": "2026-06-03 07:00:22"
      }
    },
    {
      "id": "90130002",
      "lat": 47.606879000000006,
      "lon": 7.004091,
      "cp": "90130",
      "ville": "MONTREUX CHATEAU",
      "prix": {
        "Gazole": 0.001931,
        "E10": 0.001939
      },
      "maj_gouv": {
        "Gazole": "2026-06-02 10:41:00",
        "E10": "2026-06-02 10:41:00"
      }
    }
  ]
}