{
  "departement": "14",
  "date": "2026-06-07",
  "stations": [
    {
      "id": "14400004",
      "lat": 49.271,
      "lon": -0.694,
      "cp": "14400",
      "ville": "Bayeux",
      "prix": {
        "Gazole": 0.001999,
        "E10": 0.001956,
        "SP98": 0.002047
      },
      "maj_gouv": {
        "Gazole": "2026-06-03 17:10:00",
        "E10": "2026-06-03 17:10:00",
        "SP98": "2026-06-03 17:10:00"
      }
    },
    {
      "id": "14470001",
      "lat": 49.324,
      "lon": -0.457,
      "cp": "14470",
      "ville": "COURSEULLES-SUR-MER",
      "prix": {
        "Gazole": 0.002064,
        "E10": 0.0019850000000000002
      },
      "maj_gouv": {
        "Gazole": "2026-06-06 08:49:55",
        "E10": "2026-06-06 08:49:55"
      }
    },
    {
      "id": "14130010",
      "lat": 49.336906,
      "lon": 0.308019,
      "cp": "14130",
      "ville": "QUETTEVILLE",
      "prix": {
        "Gazole": 0.002369,
        "E85": 0.000999,
        "E10": 0.002129,
        "SP98": 0.002229
      },
      "maj_gouv": {
        "Gazole": "2026-04-30 08:00:57",
        "E85": "2026-04-30 08:00:58",
        "E10": "2026-04-30 08:00:58",
        "SP98": "2026-04-30 08:00:58"
      }
    },
    {
      "id": "14404001",
      "lat": 49.277,
      "lon": -0.719,
      "cp": "14400",
      "ville": "BAYEUX",
      "prix": {
        "Gazole": 0.0019690000000000003,
        "E85": 0.000739,
        "GPLc": 0.00085,
        "E10": 0.0019299999999999999,
        "SP98": 0.00207
      },
      "maj_gouv": {
        "Gazole": "2026-06-05 10:12:19",
        "E85": "2026-06-01 10:39:21",
        "GPLc": "2026-05-27 11:25:22",
        "E10": "2026-06-01 10:50:25",
        "SP98": "2026-06-01 10:48:52"
      }
    },
    {
      "id": "14500012",
      "lat": 48.855352304616005,
      "lon": -0.86509947100102,
      "cp": "14500",
      "ville": "Vire Normandie",
      "prix": {
        "Gazole": 0.0019950000000000002,
        "E85": 0.000798,
        "E10": 0.001896,
        "SP98": 0.001998
      },
      "maj_gouv": {
        "Gazole": "2026-06-06 09:48:16",
        "E85": "2026-06-06 09:48:16",
        "E10": "2026-06-06 09:48:16",
        "SP98": "2026-06-06 09:48:16"
      }
    },
    {
      "id": "14100003",
      "lat": 49.143,
      "lon": 0.266,
      "cp": "14100",
      "ville": "LISIEUX",
      "prix": {
        "Gazole": 0.001964,
        "E85": 0.000798,
        "GPLc": 0.0010869999999999999,
        "E10": 0.001921,
        "SP98": 0.001997
      },
      "maj_gouv": {
        "Gazole": "2026-06-07 01:17:00",
        "E85": "2026-06-07 01:17:00",
        "GPLc": "2026-06-07 01:17:00",
        "E10": "2026-06-07 01:17:00",
        "SP98": "2026-06-07 01:17:00"
      }
    },
    {
      "id": "14440001",
      "lat": 49.289,
      "lon": -0.378,
      "cp": "14440",
      "ville": "Douvres-la-Délivrande",
      "prix": {
        "Gazole": 0.002058,
        "E10": 0.0019850000000000002
      },
      "maj_gouv": {
        "Gazole": "2026-06-05 22:58:55",
        "E10": "2026-06-05 22:58:55"
      }
    },
    {
      "id": "14210001",
      "lat": 49.10372,
      "lon": -0.50006,
      "cp": "14210",
      "ville": "Évrecy",
      "prix": {
        "Gazole": 0.002039,
        "E10": 0.0019590000000000002,
        "SP98": 0.002039
      },
      "maj_gouv": {
        "Gazole": "2026-06-05 11:28:02",
        "E10": "2026-06-05 11:28:02",
        "SP98": "2026-06-05 11:28:02"
      }
    },
    {
      "id": "14320003",
      "lat": 49.114,
      "lon": -0.374,
      "cp": "14320",
      "ville": "SAINT-MARTIN-DE-FONTENAY",
      "prix": {
        "Gazole": 0.001999,
        "SP95": 0.0019790000000000003,
        "SP98": 0.002059
      },
      "maj_gouv": {
        "Gazole": "2026-06-01 17:09:37",
        "SP95": "2026-06-01 17:09:38",
        "SP98": "2026-06-01 17:09:38"
      }
    },
    {
      "id": "14200006",
      "lat": 49.189,
      "lon": -0.333,
      "cp": "14200",
      "ville": "Hérouville-Saint-Clair",
      "prix": {
        "Gazole": 0.001999,
        "E85": 0.000759,
        "E10": 0.001999,
        "SP98": 0.002049
      },
      "maj_gouv": {
        "Gazole": "2026-06-06 11:05:00",
        "E85": "2026-06-04 11:40:14",
        "E10": "2026-06-06 11:05:00",
        "SP98": "2026-06-04 11:40:14"
      }
    },
    {
      "id": "14250002",
      "lat": 49.17918,
      "lon": -0.62255,
      "cp": "14250",
      "ville": "Tilly-sur-Seulles",
      "prix": {
        "Gazole": 0.0020459999999999996,
        "SP95": 0.001975
      },
      "maj_gouv": {
        "Gazole": "2026-06-05 09:49:32",
        "SP95": "2026-06-05 09:49:33"
      }
    },
    {
      "id": "14100009",
      "lat": 49.138,
      "lon": 0.172,
      "cp": "14100",
      "ville": "Saint-Désir",
      "prix": {
        "Gazole": 0.002041,
        "E10": 0.001963,
        "SP98": 0.00199
      },
      "maj_gouv": {
        "Gazole": "2026-06-07 00:01:00",
        "E10": "2026-06-07 00:01:00",
        "SP98": "2026-06-07 00:01:00"
      }
    },
    {
      "id": "14200010",
      "lat": 49.20478556147,
      "lon": -0.32786151201342,
      "cp": "14200",
      "ville": "Hérouville-Saint-Clair",
      "prix": {
        "Gazole": 0.0019890000000000003,
        "SP95": 0.001999,
        "E10": 0.001949,
        "SP98": 0.002049
      },
      "maj_gouv": {
        "Gazole": "2026-06-03 12:26:12",
        "SP95": "2026-06-03 12:26:12",
        "E10": "2026-06-03 12:26:13",
        "SP98": "2026-06-03 12:26:13"
      }
    },
    {
      "id": "14520003",
      "lat": 48.981,
      "lon": -0.477,
      "cp": "14220",
      "ville": "Thury-Harcourt",
      "prix": {
        "Gazole": 0.0019890000000000003,
        "SP95": 0.002019,
        "E85": 0.0008489999999999999,
        "SP98": 0.0021190000000000002
      },
      "maj_gouv": {
        "Gazole": "2026-06-05 11:17:13",
        "SP95": "2026-06-05 11:17:13",
        "E85": "2026-06-05 11:17:13",
        "SP98": "2026-06-05 11:17:13"
      }
    },
    {
      "id": "14053001",
      "lat": 49.21,
      "lon": -0.366,
      "cp": "14000",
      "ville": "CAEN",
      "prix": {
        "Gazole": 0.001994,
        "SP95": 0.00198,
        "E85": 0.000799,
        "GPLc": 0.000924,
        "E10": 0.001916,
        "SP98": 0.002016
      },
      "maj_gouv": {
        "Gazole": "2026-06-06 08:19:00",
        "SP95": "2026-06-06 08:19:00",
        "E85": "2026-06-06 08:19:00",
        "GPLc": "2026-06-06 08:19:00",
        "E10": "2026-06-06 08:19:00",
        "SP98": "2026-06-06 08:19:00"
      }
    },
    {
      "id": "14520004",
      "lat": 49.34231,
      "lon": -0.75209000000004,
      "cp": "14520",
      "ville": "Port-en-Bessin-Huppain",
      "prix": {
        "Gazole": 0.001949,
        "E10": 0.001929,
        "SP98": 0.002045
      },
      "maj_gouv": {
        "Gazole": "2026-06-05 08:30:00",
        "E10": "2026-06-05 08:30:00",
        "SP98": "2026-06-05 08:30:00"
      }
    },
    {
      "id": "14130004",
      "lat": 49.2854059,
      "lon": 0.20427899000000002,
      "cp": "14130",
      "ville": "Pont-l'Évêque",
      "prix": {
        "Gazole": 0.001975,
        "SP95": 0.002065,
        "E85": 0.000798,
        "E10": 0.0019450000000000001,
        "SP98": 0.002085
      },
      "maj_gouv": {
        "Gazole": "2026-06-02 07:48:11",
        "SP95": "2026-06-02 07:48:11",
        "E85": "2026-05-21 12:25:18",
        "E10": "2026-06-02 07:48:11",
        "SP98": "2026-06-02 07:48:12"
      }
    },
    {
      "id": "14980007",
      "lat": 49.198,
      "lon": -0.461,
      "cp": "14980",
      "ville": "Rots",
      "prix": {
        "Gazole": 0.002029,
        "E10": 0.002019,
        "SP98": 0.002169
      },
      "maj_gouv": {
        "Gazole": "2026-06-07 06:18:23",
        "E10": "2026-06-07 06:18:23",
        "SP98": "2026-06-07 06:18:23"
      }
    },
    {
      "id": "14500008",
      "lat": 48.8467,
      "lon": -0.88722,
      "cp": "14500",
      "ville": "VIRE",
      "prix": {
        "Gazole": 0.002059,
        "SP95": 0.002039
      },
      "maj_gouv": {
        "Gazole": "2026-06-05 09:52:20",
        "SP95": "2026-06-05 09:52:20"
      }
    },
    {
      "id": "14270003",
      "lat": 49.073489241999,
      "lon": -0.073233903014066,
      "cp": "14270",
      "ville": "MEZIDON VALLEE D'AUGE",
      "prix": {
        "Gazole": 0.002005,
        "SP95": 0.001987,
        "SP98": 0.0020659999999999997
      },
      "maj_gouv": {
        "Gazole": "2026-06-04 12:55:05",
        "SP95": "2026-06-04 12:55:06",
        "SP98": "2026-06-04 12:55:06"
      }
    },
    {
      "id": "14310002",
      "lat": 49.081,
      "lon": -0.65,
      "cp": "14310",
      "ville": "Villers-Bocage",
      "prix": {
        "Gazole": 0.002064,
        "E10": 0.00199,
        "SP98": 0.00199
      },
      "maj_gouv": {
        "Gazole": "2026-06-06 09:39:23",
        "E10": "2026-06-02 13:16:28",
        "SP98": "2026-06-02 13:16:28"
      }
    },
    {
      "id": "14112001",
      "lat": 49.241,
      "lon": -0.327,
      "cp": "14112",
      "ville": "BIEVILLE-BEUVILLE",
      "prix": {
        "Gazole": 0.002069,
        "SP95": 0.001993,
        "SP98": 0.002054
      },
      "maj_gouv": {
        "Gazole": "2026-06-04 08:45:01",
        "SP95": "2026-06-04 08:45:01",
        "SP98": "2026-06-04 08:45:01"
      }
    },
    {
      "id": "14550001",
      "lat": 49.232,
      "lon": -0.293,
      "cp": "14550",
      "ville": "Blainville-sur-Orne",
      "prix": {
        "Gazole": 0.001999,
        "E85": 0.000799,
        "E10": 0.0019890000000000003,
        "SP98": 0.00209
      },
      "maj_gouv": {
        "Gazole": "2026-06-03 06:25:37",
        "E85": "2026-06-03 06:25:37",
        "E10": "2026-06-03 06:25:37",
        "SP98": "2026-06-03 06:25:37"
      }
    },
    {
      "id": "14680001",
      "lat": 49.045,
      "lon": -0.324,
      "cp": "14680",
      "ville": "BRETTEVILLE-SUR-LAIZE",
      "prix": {
        "Gazole": 0.0019590000000000002,
        "E85": 0.000789,
        "E10": 0.001929,
        "SP98": 0.002039
      },
      "maj_gouv": {
        "Gazole": "2026-06-06 14:42:53",
        "E85": "2026-06-06 14:42:53",
        "E10": "2026-06-06 14:42:53",
        "SP98": "2026-06-06 14:42:53"
      }
    },
    {
      "id": "14240001",
      "lat": 49.08893,
      "lon": -0.8136,
      "cp": "14240",
      "ville": "CAUMONT-L'ÉVENTé",
      "prix": {
        "Gazole": 0.002049,
        "E10": 0.0019590000000000002,
        "SP98": 0.002069
      },
      "maj_gouv": {
        "Gazole": "2026-06-05 10:30:44",
        "E10": "2026-06-05 10:30:44",
        "SP98": "2026-06-05 10:30:45"
      }
    },
    {
      "id": "14380001",
      "lat": 48.84,
      "lon": -1.052,
      "cp": "14380",
      "ville": "SAINT-SEVER-CALVADOS",
      "prix": {
        "Gazole": 0.002,
        "SP95": 0.002113,
        "SP98": 0.002197
      },
      "maj_gouv": {
        "Gazole": "2026-06-04 11:02:50",
        "SP95": "2026-05-19 08:20:14",
        "SP98": "2026-05-19 08:20:14"
      }
    },
    {
      "id": "14460002",
      "lat": 49.19,
      "lon": -0.299,
      "cp": "14460",
      "ville": "COLOMBELLES",
      "prix": {
        "Gazole": 0.001999,
        "SP95": 0.002029,
        "GPLc": 0.001039,
        "E10": 0.001999
      },
      "maj_gouv": {
        "Gazole": "2026-06-01 11:07:17",
        "SP95": "2026-06-01 11:07:17",
        "GPLc": "2026-05-07 08:27:18",
        "E10": "2026-06-01 11:07:17"
      }
    },
    {
      "id": "14730004",
      "lat": 49.168217999999996,
      "lon": -0.2818181,
      "cp": "14730",
      "ville": "GIBERVILLE",
      "prix": {
        "Gazole": 0.002141,
        "GPLc": 0.00115,
        "E10": 0.002114,
        "SP98": 0.002189
      },
      "maj_gouv": {
        "Gazole": "2026-06-05 14:00:00",
        "GPLc": "2026-06-05 14:00:00",
        "E10": "2026-06-05 14:00:00",
        "SP98": "2026-06-05 14:00:00"
      }
    },
    {
      "id": "14500003",
      "lat": 48.864,
      "lon": -0.871,
      "cp": "14500",
      "ville": "VIRE",
      "prix": {
        "Gazole": 0.001999,
        "SP95": 0.001999,
        "SP98": 0.002029
      },
      "maj_gouv": {
        "Gazole": "2026-06-06 10:10:20",
        "SP95": "2026-06-06 10:10:20",
        "SP98": "2026-06-06 10:10:20"
      }
    },
    {
      "id": "14700001",
      "lat": 48.8962986744,
      "lon": -0.192409332928,
      "cp": "14700",
      "ville": "FALAISE",
      "prix": {
        "Gazole": 0.001994,
        "SP95": 0.001986,
        "SP98": 0.002105
      },
      "maj_gouv": {
        "Gazole": "2026-06-05 10:16:00",
        "SP95": "2026-06-05 10:16:01",
        "SP98": "2026-06-05 10:16:01"
      }
    },
    {
      "id": "14000010",
      "lat": 49.16905,
      "lon": -0.34422,
      "cp": "14000",
      "ville": "Caen",
      "prix": {
        "Gazole": 0.001903,
        "SP95": 0.001913,
        "E85": 0.000798,
        "E10": 0.00186,
        "SP98": 0.001967
      },
      "maj_gouv": {
        "Gazole": "2026-06-03 15:24:03",
        "SP95": "2026-06-03 15:24:03",
        "E85": "2026-06-02 15:26:02",
        "E10": "2026-06-03 15:24:03",
        "SP98": "2026-06-03 15:24:03"
      }
    },
    {
      "id": "14140001",
      "lat": 49.008,
      "lon": 0.151,
      "cp": "14140",
      "ville": "Livarot",
      "prix": {
        "Gazole": 0.0019950000000000002,
        "GPLc": 0.001049,
        "E10": 0.0019690000000000003,
        "SP98": 0.002059
      },
      "maj_gouv": {
        "Gazole": "2026-06-06 11:56:38",
        "GPLc": "2026-04-29 13:32:02",
        "E10": "2026-06-01 09:05:43",
        "SP98": "2026-06-05 10:16:44"
      }
    },
    {
      "id": "14310004",
      "lat": 49.078,
      "lon": -0.645,
      "cp": "14310",
      "ville": "Villers-Bocage",
      "prix": {
        "Gazole": 0.001981,
        "SP95": 0.001949,
        "SP98": 0.002019
      },
      "maj_gouv": {
        "Gazole": "2026-06-05 08:32:26",
        "SP95": "2026-06-03 04:59:03",
        "SP98": "2026-05-28 09:00:00"
      }
    },
    {
      "id": "14130007",
      "lat": 49.288,
      "lon": 0.189,
      "cp": "14130",
      "ville": "Pont-l'Évêque",
      "prix": {
        "Gazole": 0.001961,
        "E85": 0.0008110000000000001,
        "E10": 0.0018859999999999999,
        "SP98": 0.00199
      },
      "maj_gouv": {
        "Gazole": "2026-06-07 00:01:00",
        "E85": "2026-06-07 00:01:00",
        "E10": "2026-06-07 00:01:00",
        "SP98": "2026-06-07 00:01:00"
      }
    },
    {
      "id": "14370003",
      "lat": 49.1192,
      "lon": -0.17523,
      "cp": "14370",
      "ville": "Argences",
      "prix": {
        "Gazole": 0.0019590000000000002,
        "GPLc": 0.001089,
        "E10": 0.001939,
        "SP98": 0.002019
      },
      "maj_gouv": {
        "Gazole": "2026-06-01 10:18:16",
        "GPLc": "2026-05-04 08:39:09",
        "E10": "2026-06-02 08:33:15",
        "SP98": "2026-05-29 08:38:11"
      }
    },
    {
      "id": "14960001",
      "lat": 49.339,
      "lon": -0.58,
      "cp": "14960",
      "ville": "Asnelles",
      "prix": {
        "Gazole": 0.002039,
        "E10": 0.001999,
        "SP98": 0.002089
      },
      "maj_gouv": {
        "Gazole": "2026-06-05 08:40:17",
        "E10": "2026-06-05 08:40:17",
        "SP98": "2026-06-05 08:40:18"
      }
    },
    {
      "id": "14100006",
      "lat": 49.171,
      "lon": 0.217,
      "cp": "14100",
      "ville": "Ouilly-le-Vicomte",
      "prix": {
        "Gazole": 0.001999,
        "SP95": 0.002009,
        "E10": 0.0019590000000000002,
        "SP98": 0.002099
      },
      "maj_gouv": {
        "Gazole": "2026-06-05 09:09:58",
        "SP95": "2026-06-05 09:09:59",
        "E10": "2026-06-05 09:09:59",
        "SP98": "2026-06-05 09:09:59"
      }
    },
    {
      "id": "14610001",
      "lat": 49.259,
      "lon": -0.464,
      "cp": "14610",
      "ville": "Thaon",
      "prix": {
        "Gazole": 0.002079,
        "E10": 0.002059,
        "SP98": 0.002181
      },
      "maj_gouv": {
        "Gazole": "2026-05-27 18:58:41",
        "E10": "2026-05-27 18:58:41",
        "SP98": "2026-05-27 18:58:41"
      }
    },
    {
      "id": "14123004",
      "lat": 49.142,
      "lon": -0.338,
      "cp": "14123",
      "ville": "IFS",
      "prix": {
        "Gazole": 0.0019790000000000003,
        "SP95": 0.0019690000000000003,
        "E85": 0.000789,
        "GPLc": 0.000979,
        "E10": 0.001929
      },
      "maj_gouv": {
        "Gazole": "2026-06-05 08:21:08",
        "SP95": "2026-06-05 08:21:08",
        "E85": "2026-06-05 08:21:08",
        "GPLc": "2026-05-05 08:30:18",
        "E10": "2026-06-05 08:21:09"
      }
    },
    {
      "id": "14000020",
      "lat": 49.173,
      "lon": -0.39,
      "cp": "14000",
      "ville": "CAEN",
      "prix": {
        "Gazole": 0.001958,
        "E85": 0.0008110000000000001,
        "E10": 0.001885,
        "SP98": 0.00199
      },
      "maj_gouv": {
        "Gazole": "2026-06-07 00:01:00",
        "E85": "2026-06-07 00:01:00",
        "E10": "2026-06-07 00:01:00",
        "SP98": "2026-06-07 00:01:00"
      }
    },
    {
      "id": "14740001",
      "lat": 49.215,
      "lon": -0.505,
      "cp": "14740",
      "ville": "Bretteville-l'Orgueilleuse THUE ET MUE",
      "prix": {
        "Gazole": 0.001999,
        "SP95": 0.0019790000000000003,
        "E85": 0.000789,
        "E10": 0.001929,
        "SP98": 0.001999
      },
      "maj_gouv": {
        "Gazole": "2026-06-04 10:59:57",
        "SP95": "2026-06-04 10:59:57",
        "E85": "2026-06-04 10:59:57",
        "E10": "2026-06-04 10:59:57",
        "SP98": "2026-06-04 10:59:57"
      }
    },
    {
      "id": "14120001",
      "lat": 49.17356,
      "lon": -0.32807,
      "cp": "14120",
      "ville": "Mondeville",
      "prix": {
        "Gazole": 0.001999,
        "E10": 0.001999,
        "SP98": 0.002099
      },
      "maj_gouv": {
        "Gazole": "2026-06-03 08:34:33",
        "E10": "2026-06-03 08:34:33",
        "SP98": "2026-06-03 08:34:33"
      }
    },
    {
      "id": "14110003",
      "lat": 48.855034234699005,
      "lon": -0.54190441915746,
      "cp": "14110",
      "ville": "condé en normandie",
      "prix": {
        "Gazole": 0.001964,
        "E10": 0.001898,
        "SP98": 0.00199
      },
      "maj_gouv": {
        "Gazole": "2026-06-06 09:11:24",
        "E10": "2026-06-06 09:11:24",
        "SP98": "2026-06-06 09:11:24"
      }
    },
    {
      "id": "14700005",
      "lat": 48.892,
      "lon": -0.179,
      "cp": "14700",
      "ville": "FALAISE",
      "prix": {
        "Gazole": 0.0022,
        "SP98": 0.00199
      },
      "maj_gouv": {
        "Gazole": "2026-05-21 10:16:11",
        "SP98": "2026-06-04 14:40:18"
      }
    },
    {
      "id": "14100004",
      "lat": 49.144,
      "lon": 0.222,
      "cp": "14100",
      "ville": "Lisieux",
      "prix": {
        "Gazole": 0.00217,
        "E85": 0.00113,
        "E10": 0.00219,
        "SP98": 0.00233
      },
      "maj_gouv": {
        "Gazole": "2026-05-28 13:10:40",
        "E85": "2026-05-05 13:00:00",
        "E10": "2026-05-05 13:00:00",
        "SP98": "2026-05-05 13:00:00"
      }
    },
    {
      "id": "14000003",
      "lat": 49.21,
      "lon": -0.374,
      "cp": "14000",
      "ville": "Caen",
      "prix": {
        "Gazole": 0.002059,
        "E10": 0.00199,
        "SP98": 0.00199
      },
      "maj_gouv": {
        "Gazole": "2026-06-05 21:00:00",
        "E10": "2026-06-05 21:00:00",
        "SP98": "2026-06-03 12:07:36"
      }
    },
    {
      "id": "14400010",
      "lat": 49.285,
      "lon": -0.736,
      "cp": "14400",
      "ville": "VAUCELLES",
      "prix": {
        "Gazole": 0.001965,
        "E85": 0.000824,
        "GPLc": 0.000919,
        "E10": 0.0018919999999999998,
        "SP98": 0.00199
      },
      "maj_gouv": {
        "Gazole": "2026-06-07 00:01:00",
        "E85": "2026-06-07 00:01:00",
        "GPLc": "2026-06-07 00:01:00",
        "E10": "2026-06-07 00:01:00",
        "SP98": "2026-06-07 00:01:00"
      }
    },
    {
      "id": "14880001",
      "lat": 49.29,
      "lon": -0.284,
      "cp": "14880",
      "ville": "COLLEVILLE-MONTGOMERY",
      "prix": {
        "Gazole": 0.001999,
        "E10": 0.0019890000000000003,
        "SP98": 0.00209
      },
      "maj_gouv": {
        "Gazole": "2026-06-05 08:51:12",
        "E10": "2026-06-05 08:51:12",
        "SP98": "2026-06-05 08:51:12"
      }
    },
    {
      "id": "14120002",
      "lat": 49.172,
      "lon": -0.33,
      "cp": "14120",
      "ville": "Mondeville",
      "prix": {
        "Gazole": 0.0020299999999999997,
        "E85": 0.0008489999999999999,
        "E10": 0.001982,
        "SP98": 0.00199
      },
      "maj_gouv": {
        "Gazole": "2026-06-05 19:01:54",
        "E85": "2026-06-05 08:51:23",
        "E10": "2026-06-05 19:01:54",
        "SP98": "2026-06-01 06:47:51"
      }
    },
    {
      "id": "14310003",
      "lat": 49.08,
      "lon": -0.648,
      "cp": "14310",
      "ville": "VILLERS-BOCAGE",
      "prix": {
        "Gazole": 0.001999,
        "SP95": 0.001949,
        "E10": 0.001929
      },
      "maj_gouv": {
        "Gazole": "2026-06-05 09:25:14",
        "SP95": "2026-06-05 09:25:14",
        "E10": "2026-06-05 09:25:14"
      }
    },
    {
      "id": "14470002",
      "lat": 49.323,
      "lon": -0.452,
      "cp": "14470",
      "ville": "COURSEULLES-SUR-MER",
      "prix": {
        "Gazole": 0.001971,
        "E85": 0.000799,
        "GPLc": 0.001045,
        "E10": 0.001918,
        "SP98": 0.0019890000000000003
      },
      "maj_gouv": {
        "Gazole": "2026-06-03 17:30:07",
        "E85": "2026-05-29 09:55:48",
        "GPLc": "2026-05-29 09:55:48",
        "E10": "2026-06-03 17:30:07",
        "SP98": "2026-06-03 17:30:07"
      }
    },
    {
      "id": "14290001",
      "lat": 49.024,
      "lon": 0.413,
      "cp": "14290",
      "ville": "ORBEC",
      "prix": {
        "Gazole": 0.001999,
        "E85": 0.0008990000000000001,
        "E10": 0.002029,
        "SP98": 0.002139
      },
      "maj_gouv": {
        "Gazole": "2026-06-04 10:09:11",
        "E85": "2026-05-21 11:05:14",
        "E10": "2026-06-04 10:09:11",
        "SP98": "2026-06-04 10:09:12"
      }
    },
    {
      "id": "14500005",
      "lat": 48.842,
      "lon": -0.886,
      "cp": "14500",
      "ville": "VIRE",
      "prix": {
        "Gazole": 0.001986,
        "E85": 0.0007970000000000001,
        "E10": 0.001897,
        "SP98": 0.001987
      },
      "maj_gouv": {
        "Gazole": "2026-06-07 01:16:00",
        "E85": "2026-06-07 01:16:00",
        "E10": "2026-06-07 01:16:00",
        "SP98": "2026-06-07 01:16:00"
      }
    },
    {
      "id": "14800005",
      "lat": 49.35023,
      "lon": 0.09044,
      "cp": "14800",
      "ville": "TOUQUES",
      "prix": {
        "Gazole": 0.001998,
        "E85": 0.000819,
        "E10": 0.0019450000000000001,
        "SP98": 0.002039
      },
      "maj_gouv": {
        "Gazole": "2026-06-06 08:30:00",
        "E85": "2026-06-06 08:30:00",
        "E10": "2026-06-06 08:30:00",
        "SP98": "2026-06-06 08:30:00"
      }
    },
    {
      "id": "14220002",
      "lat": 48.979,
      "lon": -0.475,
      "cp": "14220",
      "ville": "Thury-Harcourt",
      "prix": {
        "Gazole": 0.0020870000000000003,
        "SP95": 0.002088
      },
      "maj_gouv": {
        "Gazole": "2026-06-02 14:19:59",
        "SP95": "2026-06-02 14:19:59"
      }
    },
    {
      "id": "14000014",
      "lat": 49.186,
      "lon": -0.381,
      "cp": "14000",
      "ville": "CAEN",
      "prix": {
        "SP95": 0.0019790000000000003,
        "SP98": 0.001999
      },
      "maj_gouv": {
        "SP95": "2026-06-02 10:20:59",
        "SP98": "2026-06-01 09:52:32"
      }
    },
    {
      "id": "14000019",
      "lat": 49.18856,
      "lon": -0.35025,
      "cp": "14000",
      "ville": "CAEN",
      "prix": {
        "Gazole": 0.002061,
        "GPLc": 0.001009,
        "E10": 0.001984,
        "SP98": 0.00199
      },
      "maj_gouv": {
        "Gazole": "2026-06-07 00:01:00",
        "GPLc": "2026-06-07 00:01:00",
        "E10": "2026-06-07 00:01:00",
        "SP98": "2026-06-07 00:01:00"
      }
    },
    {
      "id": "14150001",
      "lat": 49.269,
      "lon": -0.258,
      "cp": "14150",
      "ville": "Ouistreham",
      "prix": {
        "Gazole": 0.002019,
        "E10": 0.001998,
        "SP98": 0.002078
      },
      "maj_gouv": {
        "Gazole": "2026-06-06 06:31:00",
        "E10": "2026-06-06 06:31:00",
        "SP98": "2026-06-06 06:31:00"
      }
    },
    {
      "id": "14123007",
      "lat": 49.1421,
      "lon": -0.337385,
      "cp": "14123",
      "ville": "IFS",
      "prix": {
        "Gazole": 0.001952,
        "E10": 0.0018759999999999998,
        "SP98": 0.00199
      },
      "maj_gouv": {
        "Gazole": "2026-06-07 00:01:00",
        "E10": "2026-06-07 00:01:00",
        "SP98": "2026-06-07 00:01:00"
      }
    },
    {
      "id": "14123008",
      "lat": 49.15400414,
      "lon": -0.34387913999999997,
      "cp": "14123",
      "ville": "IFS",
      "prix": {
        "Gazole": 0.002061,
        "E85": 0.000816,
        "E10": 0.001977
      },
      "maj_gouv": {
        "Gazole": "2026-06-07 00:01:00",
        "E85": "2026-06-07 00:01:00",
        "E10": "2026-06-07 00:01:00"
      }
    },
    {
      "id": "14760002",
      "lat": 49.16575,
      "lon": -0.41597,
      "cp": "14760",
      "ville": "Bretteville-sur-Odon",
      "prix": {
        "Gazole": 0.001958,
        "E85": 0.0008179999999999999,
        "GPLc": 0.000999,
        "E10": 0.001885
      },
      "maj_gouv": {
        "Gazole": "2026-06-07 00:01:00",
        "E85": "2026-06-07 00:01:00",
        "GPLc": "2026-06-07 00:01:00",
        "E10": "2026-06-07 00:01:00"
      }
    },
    {
      "id": "14920001",
      "lat": 49.242,
      "lon": -0.372,
      "cp": "14920",
      "ville": "Mathieu",
      "prix": {
        "Gazole": 0.001957,
        "E10": 0.001951,
        "SP98": 0.0020310000000000003
      },
      "maj_gouv": {
        "Gazole": "2026-06-06 07:41:00",
        "E10": "2026-06-06 07:41:00",
        "SP98": "2026-06-06 07:41:00"
      }
    },
    {
      "id": "14730001",
      "lat": 49.166,
      "lon": -0.276,
      "cp": "14730",
      "ville": "Giberville",
      "prix": {
        "Gazole": 0.00219,
        "E85": 0.000999,
        "GPLc": 0.001206,
        "E10": 0.002163,
        "SP98": 0.002218
      },
      "maj_gouv": {
        "Gazole": "2026-06-06 12:08:06",
        "E85": "2026-06-06 12:08:06",
        "GPLc": "2026-06-06 12:08:06",
        "E10": "2026-06-06 12:08:06",
        "SP98": "2026-06-06 12:08:06"
      }
    },
    {
      "id": "14290002",
      "lat": 49.024017,
      "lon": 0.404082,
      "cp": "14290",
      "ville": "Orbec",
      "prix": {
        "Gazole": 0.002079,
        "E10": 0.002039,
        "SP98": 0.002139
      },
      "maj_gouv": {
        "Gazole": "2026-05-26 09:13:27",
        "E10": "2026-05-26 09:13:28",
        "SP98": "2026-05-07 10:00:31"
      }
    },
    {
      "id": "14700007",
      "lat": 48.887,
      "lon": -0.191,
      "cp": "14700",
      "ville": "FALAISE",
      "prix": {
        "Gazole": 0.002182,
        "E10": 0.002133,
        "SP98": 0.002265
      },
      "maj_gouv": {
        "Gazole": "2026-05-13 08:39:39",
        "E10": "2026-05-13 08:39:39",
        "SP98": "2026-05-13 08:39:39"
      }
    },
    {
      "id": "14125001",
      "lat": 49.163,
      "lon": -0.298,
      "cp": "14120",
      "ville": "Mondeville",
      "prix": {
        "Gazole": 0.002034,
        "SP95": 0.001986,
        "E10": 0.001954,
        "SP98": 0.002057
      },
      "maj_gouv": {
        "Gazole": "2026-06-06 08:19:00",
        "SP95": "2026-06-06 08:19:00",
        "E10": "2026-06-06 08:19:00",
        "SP98": "2026-06-06 08:19:00"
      }
    },
    {
      "id": "14160002",
      "lat": 49.276,
      "lon": -0.103,
      "cp": "14160",
      "ville": "DIVES-SUR-MER",
      "prix": {
        "Gazole": 0.002229,
        "GPLc": 0.000999,
        "E10": 0.002089,
        "SP98": 0.002149
      },
      "maj_gouv": {
        "Gazole": "2026-05-05 10:03:15",
        "GPLc": "2026-04-17 09:31:49",
        "E10": "2026-05-05 10:03:15",
        "SP98": "2026-05-05 10:03:15"
      }
    },
    {
      "id": "14123001",
      "lat": 49.157273112235,
      "lon": -0.36860834399018,
      "cp": "14123",
      "ville": "Fleury-sur-Orne",
      "prix": {
        "Gazole": 0.0019790000000000003,
        "E10": 0.001929,
        "SP98": 0.002059
      },
      "maj_gouv": {
        "Gazole": "2026-06-05 09:02:16",
        "E10": "2026-06-05 09:02:17",
        "SP98": "2026-06-05 09:02:17"
      }
    },
    {
      "id": "14230003",
      "lat": 49.3186292,
      "lon": -1.1008957000000001,
      "cp": "14230",
      "ville": "Isigny-sur-Mer",
      "prix": {
        "Gazole": 0.002029,
        "SP95": 0.002039,
        "SP98": 0.0021190000000000002
      },
      "maj_gouv": {
        "Gazole": "2026-06-01 18:14:16",
        "SP95": "2026-06-01 18:14:16",
        "SP98": "2026-06-01 18:14:16"
      }
    },
    {
      "id": "14320001",
      "lat": 49.11493,
      "lon": -0.37436,
      "cp": "14320",
      "ville": "SAINT-MARTIN-DE-FONTENAY",
      "prix": {
        "Gazole": 0.002092,
        "E10": 0.001968
      },
      "maj_gouv": {
        "Gazole": "2026-06-05 08:00:30",
        "E10": "2026-06-05 08:00:30"
      }
    },
    {
      "id": "14123005",
      "lat": 49.15,
      "lon": -0.352,
      "cp": "14123",
      "ville": "IFS",
      "prix": {
        "Gazole": 0.0019590000000000002,
        "SP95": 0.0019690000000000003,
        "E85": 0.000789,
        "E10": 0.001929
      },
      "maj_gouv": {
        "Gazole": "2026-06-04 07:59:53",
        "SP95": "2026-06-06 07:37:54",
        "E85": "2026-06-06 07:37:54",
        "E10": "2026-06-06 07:37:54"
      }
    },
    {
      "id": "14000009",
      "lat": 49.183,
      "lon": -0.403,
      "cp": "14000",
      "ville": "Caen",
      "prix": {
        "Gazole": 0.001999,
        "SP95": 0.002029,
        "E10": 0.001999
      },
      "maj_gouv": {
        "Gazole": "2026-06-02 09:51:41",
        "SP95": "2026-06-02 09:51:42",
        "E10": "2026-06-02 09:51:42"
      }
    },
    {
      "id": "14600004",
      "lat": 49.397,
      "lon": 0.211,
      "cp": "14600",
      "ville": "Équemauville",
      "prix": {
        "Gazole": 0.001905,
        "E85": 0.000798,
        "E10": 0.0019450000000000001,
        "SP98": 0.002068
      },
      "maj_gouv": {
        "Gazole": "2026-06-02 08:40:10",
        "E85": "2026-05-15 08:18:38",
        "E10": "2026-06-05 09:41:04",
        "SP98": "2026-06-05 09:45:44"
      }
    },
    {
      "id": "14111001",
      "lat": 49.161,
      "lon": -0.4,
      "cp": "14111",
      "ville": "Louvigny",
      "prix": {
        "Gazole": 0.001999,
        "E85": 0.000798,
        "E10": 0.001909,
        "SP98": 0.002019
      },
      "maj_gouv": {
        "Gazole": "2026-06-05 09:00:00",
        "E85": "2026-05-15 09:00:00",
        "E10": "2026-06-04 09:00:00",
        "SP98": "2026-06-04 09:00:00"
      }
    },
    {
      "id": "14123010",
      "lat": 49.15769717388,
      "lon": -0.32601015714723,
      "cp": "14123",
      "ville": "Cormelles-le-Royal",
      "prix": {
        "Gazole": 0.002063,
        "SP95": 0.0020150000000000003,
        "SP98": 0.0020859999999999997
      },
      "maj_gouv": {
        "Gazole": "2026-06-06 08:53:32",
        "SP95": "2026-06-06 08:53:32",
        "SP98": "2026-06-06 08:53:33"
      }
    },
    {
      "id": "14200008",
      "lat": 49.213346526429,
      "lon": -0.34202803125476,
      "cp": "14200",
      "ville": "Hérouville-Saint-Clair",
      "prix": {
        "Gazole": 0.001971,
        "E10": 0.001897,
        "SP98": 0.002009
      },
      "maj_gouv": {
        "Gazole": "2026-06-05 11:21:13",
        "E10": "2026-06-05 11:21:14",
        "SP98": "2026-06-05 11:21:14"
      }
    },
    {
      "id": "14400011",
      "lat": 49.274,
      "lon": -0.685,
      "cp": "14400",
      "ville": "SAINT-VIGOR-LE-GRAND",
      "prix": {
        "Gazole": 0.001999,
        "E85": 0.000798,
        "E10": 0.001956,
        "SP98": 0.002047
      },
      "maj_gouv": {
        "Gazole": "2026-06-05 10:54:32",
        "E85": "2026-06-05 10:54:32",
        "E10": "2026-06-05 10:54:32",
        "SP98": "2026-06-05 10:54:32"
      }
    },
    {
      "id": "14200009",
      "lat": 49.2002530377,
      "lon": -0.34489711733600004,
      "cp": "14200",
      "ville": "Hérouville-Saint-Clair",
      "prix": {
        "Gazole": 0.001957,
        "E85": 0.0008110000000000001,
        "GPLc": 0.000999,
        "E10": 0.001883,
        "SP98": 0.00199
      },
      "maj_gouv": {
        "Gazole": "2026-06-07 00:01:00",
        "E85": "2026-06-07 00:01:00",
        "GPLc": "2026-06-07 00:01:00",
        "E10": "2026-06-07 00:01:00",
        "SP98": "2026-06-07 00:01:00"
      }
    },
    {
      "id": "14160003",
      "lat": 49.281,
      "lon": -0.1,
      "cp": "14160",
      "ville": "DIVES-SUR-MER",
      "prix": {
        "Gazole": 0.001998,
        "E10": 0.001968,
        "SP98": 0.002048
      },
      "maj_gouv": {
        "Gazole": "2026-06-04 13:46:36",
        "E10": "2026-06-04 13:46:36",
        "SP98": "2026-06-04 13:46:36"
      }
    },
    {
      "id": "14450001",
      "lat": 49.385,
      "lon": -1.05,
      "cp": "14450",
      "ville": "GRANDCAMP-MAISY",
      "prix": {
        "Gazole": 0.002019,
        "SP95": 0.002049,
        "E10": 0.001999
      },
      "maj_gouv": {
        "Gazole": "2026-06-03 11:37:47",
        "SP95": "2026-06-02 09:13:15",
        "E10": "2026-06-02 09:13:16"
      }
    },
    {
      "id": "14710001",
      "lat": 49.314,
      "lon": -0.906,
      "cp": "14710",
      "ville": "TREVIERES",
      "prix": {
        "Gazole": 0.002074,
        "SP95": 0.0020150000000000003
      },
      "maj_gouv": {
        "Gazole": "2026-06-02 13:20:49",
        "SP95": "2026-06-02 13:20:49"
      }
    },
    {
      "id": "14520002",
      "lat": 49.34761,
      "lon": -0.80672,
      "cp": "14520",
      "ville": "Sainte-Honorine-des-Pertes",
      "prix": {
        "Gazole": 0.00215
      },
      "maj_gouv": {
        "Gazole": "2026-06-03 16:25:27"
      }
    },
    {
      "id": "14100007",
      "lat": 49.133,
      "lon": 0.225,
      "cp": "14100",
      "ville": "LISIEUX",
      "prix": {
        "Gazole": 0.001964,
        "E10": 0.0019199999999999998,
        "SP98": 0.001996
      },
      "maj_gouv": {
        "Gazole": "2026-06-06 11:03:23",
        "E10": "2026-06-06 11:03:23",
        "SP98": "2026-06-06 11:03:23"
      }
    },
    {
      "id": "14390001",
      "lat": 49.28814,
      "lon": -0.12678,
      "cp": "14390",
      "ville": "CABOURG",
      "prix": {
        "Gazole": 0.002099,
        "SP95": 0.002079,
        "SP98": 0.002139
      },
      "maj_gouv": {
        "Gazole": "2026-05-27 12:56:43",
        "SP95": "2026-05-27 12:56:43",
        "SP98": "2026-05-27 12:56:43"
      }
    },
    {
      "id": "14990002",
      "lat": 49.334,
      "lon": -0.42,
      "cp": "14990",
      "ville": "Bernières-sur-Mer",
      "prix": {
        "Gazole": 0.001999,
        "E10": 0.0019590000000000002,
        "SP98": 0.002049
      },
      "maj_gouv": {
        "Gazole": "2026-06-05 08:56:46",
        "E10": "2026-06-05 08:56:47",
        "SP98": "2026-06-05 08:56:47"
      }
    },
    {
      "id": "14380002",
      "lat": 48.938,
      "lon": -1.033,
      "cp": "14380",
      "ville": "PONT-FARCY",
      "prix": {
        "Gazole": 0.0021000000000000003,
        "E10": 0.00199,
        "SP98": 0.00199
      },
      "maj_gouv": {
        "Gazole": "2026-06-04 09:17:16",
        "E10": "2026-06-04 09:17:16",
        "SP98": "2026-06-04 09:17:16"
      }
    },
    {
      "id": "14130003",
      "lat": 49.29235,
      "lon": 0.19338,
      "cp": "14130",
      "ville": "Pont-l'Évêque",
      "prix": {
        "Gazole": 0.001975,
        "E10": 0.0019450000000000001,
        "SP98": 0.002085
      },
      "maj_gouv": {
        "Gazole": "2026-06-02 07:47:33",
        "E10": "2026-06-02 07:47:33",
        "SP98": "2026-06-02 07:47:33"
      }
    },
    {
      "id": "14700004",
      "lat": 48.911,
      "lon": -0.206,
      "cp": "14700",
      "ville": "FALAISE",
      "prix": {
        "Gazole": 0.001988,
        "SP95": 0.00198,
        "E85": 0.000767,
        "GPLc": 0.0010429999999999999,
        "E10": 0.001943
      },
      "maj_gouv": {
        "Gazole": "2026-06-04 07:50:00",
        "SP95": "2026-06-05 07:50:00",
        "E85": "2026-06-04 07:50:00",
        "GPLc": "2026-04-30 07:50:00",
        "E10": "2026-06-05 07:50:00"
      }
    },
    {
      "id": "14123009",
      "lat": 49.154,
      "lon": -0.314,
      "cp": "14123",
      "ville": "Cormelles-le-Royal",
      "prix": {
        "Gazole": 0.0019790000000000003,
        "E10": 0.001929,
        "SP98": 0.002059
      },
      "maj_gouv": {
        "Gazole": "2026-06-05 08:38:37",
        "E10": "2026-06-05 08:38:37",
        "SP98": "2026-06-04 08:48:00"
      }
    },
    {
      "id": "14800008",
      "lat": 49.356,
      "lon": 0.071,
      "cp": "14800",
      "ville": "TOURGéVILLE",
      "prix": {
        "Gazole": 0.002149,
        "E85": 0.000975,
        "GPLc": 0.001089,
        "E10": 0.002069,
        "SP98": 0.002159
      },
      "maj_gouv": {
        "Gazole": "2026-05-29 19:30:00",
        "E85": "2026-05-29 19:30:00",
        "GPLc": "2026-05-29 19:30:00",
        "E10": "2026-06-05 19:30:00",
        "SP98": "2026-06-05 19:30:00"
      }
    },
    {
      "id": "14480001",
      "lat": 49.28,
      "lon": -0.535,
      "cp": "14480",
      "ville": "Creully sur seulles",
      "prix": {
        "Gazole": 0.0019790000000000003,
        "E10": 0.001929,
        "SP98": 0.002049
      },
      "maj_gouv": {
        "Gazole": "2026-06-02 07:48:18",
        "E10": "2026-06-02 07:48:18",
        "SP98": "2026-06-02 07:48:18"
      }
    },
    {
      "id": "14280002",
      "lat": 49.201,
      "lon": -0.398,
      "cp": "14280",
      "ville": "Saint-Contest",
      "prix": {
        "Gazole": 0.00199,
        "E85": 0.000798,
        "E10": 0.001929,
        "SP98": 0.002039
      },
      "maj_gouv": {
        "Gazole": "2026-06-05 12:03:37",
        "E85": "2026-05-16 14:02:45",
        "E10": "2026-06-05 12:03:37",
        "SP98": "2026-06-05 12:03:37"
      }
    },
    {
      "id": "14400009",
      "lat": 49.288,
      "lon": -0.704,
      "cp": "14400",
      "ville": "Bayeux",
      "prix": {
        "Gazole": 0.002039,
        "E10": 0.001939,
        "SP98": 0.002081
      },
      "maj_gouv": {
        "Gazole": "2026-06-06 09:33:28",
        "E10": "2026-06-06 09:33:29",
        "SP98": "2026-06-06 09:33:29"
      }
    },
    {
      "id": "14130008",
      "lat": 49.369788938573,
      "lon": 0.20111980321583,
      "cp": "14130",
      "ville": "Saint-Gatien-des-Bois",
      "prix": {
        "Gazole": 0.002074,
        "E85": 0.000829,
        "E10": 0.001971
      },
      "maj_gouv": {
        "Gazole": "2026-06-05 08:43:11",
        "E85": "2026-06-05 08:43:11",
        "E10": "2026-06-05 08:43:11"
      }
    },
    {
      "id": "14500001",
      "lat": 48.853689160611,
      "lon": -0.88014229836738,
      "cp": "14500",
      "ville": "VIRE",
      "prix": {
        "Gazole": 0.002069,
        "GPLc": 0.00107,
        "E10": 0.001963,
        "SP98": 0.00199
      },
      "maj_gouv": {
        "Gazole": "2026-06-06 08:02:29",
        "GPLc": "2026-06-06 08:02:29",
        "E10": "2026-06-06 08:02:29",
        "SP98": "2026-06-06 08:02:29"
      }
    },
    {
      "id": "14170001",
      "lat": 49.0247,
      "lon": -0.02358,
      "cp": "14170",
      "ville": "SAINT-PIERRE-SUR-DIVES",
      "prix": {
        "Gazole": 0.002059,
        "E10": 0.001982,
        "SP98": 0.00199
      },
      "maj_gouv": {
        "Gazole": "2026-06-06 08:22:45",
        "E10": "2026-06-06 08:22:45",
        "SP98": "2026-06-05 07:52:56"
      }
    },
    {
      "id": "14980002",
      "lat": 49.2,
      "lon": -0.459,
      "cp": "14980",
      "ville": "ROTS",
      "prix": {
        "Gazole": 0.002009,
        "GPLc": 0.000999,
        "E10": 0.001999,
        "SP98": 0.002038
      },
      "maj_gouv": {
        "Gazole": "2026-06-05 10:21:42",
        "GPLc": "2026-06-05 10:21:42",
        "E10": "2026-06-05 10:21:42",
        "SP98": "2026-06-05 10:21:42"
      }
    },
    {
      "id": "14600003",
      "lat": 49.41657,
      "lon": 0.25936,
      "cp": "14600",
      "ville": "Honfleur",
      "prix": {
        "Gazole": 0.001998,
        "E10": 0.0019450000000000001,
        "SP98": 0.002068
      },
      "maj_gouv": {
        "Gazole": "2026-06-05 08:35:11",
        "E10": "2026-06-04 10:37:31",
        "SP98": "2026-06-04 10:37:31"
      }
    },
    {
      "id": "14110002",
      "lat": 48.85624,
      "lon": -0.53892,
      "cp": "14110",
      "ville": "CONDE-SUR-NOIREAU",
      "prix": {
        "Gazole": 0.001999,
        "SP95": 0.0019790000000000003,
        "SP98": 0.002019
      },
      "maj_gouv": {
        "Gazole": "2026-06-05 09:04:47",
        "SP95": "2026-06-05 09:04:48",
        "SP98": "2026-06-05 09:04:48"
      }
    },
    {
      "id": "14130001",
      "lat": 49.28865,
      "lon": 0.19554,
      "cp": "14130",
      "ville": "PONT L EVEQUE",
      "prix": {
        "Gazole": 0.002061,
        "E10": 0.001978,
        "SP98": 0.00199
      },
      "maj_gouv": {
        "Gazole": "2026-06-06 08:43:51",
        "E10": "2026-06-06 08:43:51",
        "SP98": "2026-06-06 08:43:51"
      }
    },
    {
      "id": "14170006",
      "lat": 49.024864919680006,
      "lon": -0.026257792195654002,
      "cp": "14170",
      "ville": "SAINT PIERRE SUR DIVES",
      "prix": {
        "Gazole": 0.001999,
        "E85": 0.000798,
        "E10": 0.0019690000000000003,
        "SP98": 0.002139
      },
      "maj_gouv": {
        "Gazole": "2026-06-05 09:16:51",
        "E85": "2026-05-15 10:21:30",
        "E10": "2026-06-02 09:19:56",
        "SP98": "2026-05-30 07:56:39"
      }
    },
    {
      "id": "14670001",
      "lat": 49.182,
      "lon": -0.182,
      "cp": "14670",
      "ville": "Troarn",
      "prix": {
        "Gazole": 0.0019790000000000003,
        "SP95": 0.0019690000000000003,
        "E10": 0.001929,
        "SP98": 0.002019
      },
      "maj_gouv": {
        "Gazole": "2026-06-05 08:41:28",
        "SP95": "2026-06-05 08:41:28",
        "E10": "2026-06-05 08:41:29",
        "SP98": "2026-06-02 09:11:33"
      }
    },
    {
      "id": "14780003",
      "lat": 49.301827,
      "lon": -0.318643,
      "cp": "14780",
      "ville": "Lion-sur-Mer",
      "prix": {
        "Gazole": 0.002099,
        "SP95": 0.002094,
        "SP98": 0.002149
      },
      "maj_gouv": {
        "Gazole": "2026-06-01 07:11:05",
        "SP95": "2026-06-01 07:11:05",
        "SP98": "2026-06-01 07:11:05"
      }
    },
    {
      "id": "14400003",
      "lat": 49.271,
      "lon": -0.699,
      "cp": "14400",
      "ville": "BAYEUX",
      "prix": {
        "Gazole": 0.0019950000000000002,
        "E85": 0.000861,
        "E10": 0.001906,
        "SP98": 0.00199
      },
      "maj_gouv": {
        "Gazole": "2026-06-05 08:08:41",
        "E85": "2026-06-05 08:08:41",
        "E10": "2026-06-05 08:08:41",
        "SP98": "2026-06-05 08:08:41"
      }
    },
    {
      "id": "14640001",
      "lat": 49.307,
      "lon": -0.027,
      "cp": "14640",
      "ville": "Auberville",
      "prix": {
        "Gazole": 0.00215,
        "SP95": 0.00199
      },
      "maj_gouv": {
        "Gazole": "2026-06-05 09:06:36",
        "SP95": "2026-06-01 10:33:56"
      }
    },
    {
      "id": "14260002",
      "lat": 49.026,
      "lon": -0.632,
      "cp": "14260",
      "ville": "Aunay-sur-Odon",
      "prix": {
        "Gazole": 0.001997,
        "E10": 0.001931,
        "SP98": 0.002039
      },
      "maj_gouv": {
        "Gazole": "2026-06-04 10:29:50",
        "E10": "2026-06-04 10:29:51",
        "SP98": "2026-06-04 10:29:51"
      }
    },
    {
      "id": "14800006",
      "lat": 49.347,
      "lon": 0.095,
      "cp": "14800",
      "ville": "TOUQUES",
      "prix": {
        "Gazole": 0.001998,
        "SP95": 0.001982,
        "SP98": 0.002059
      },
      "maj_gouv": {
        "Gazole": "2026-06-06 16:44:55",
        "SP95": "2026-06-06 16:44:55",
        "SP98": "2026-06-06 16:44:55"
      }
    },
    {
      "id": "14380003",
      "lat": 48.841,
      "lon": -1.043,
      "cp": "14380",
      "ville": "SAINT-SEVER-CALVADOS",
      "prix": {
        "Gazole": 0.00206,
        "SP95": 0.00211,
        "SP98": 0.0022299999999999998
      },
      "maj_gouv": {
        "Gazole": "2026-06-06 11:26:57",
        "SP95": "2026-06-06 11:26:57",
        "SP98": "2026-06-06 11:26:57"
      }
    },
    {
      "id": "14440002",
      "lat": 49.3,
      "lon": -0.382,
      "cp": "14440",
      "ville": "DOUVRES-LA-DéLIVRANDE",
      "prix": {
        "Gazole": 0.001999,
        "SP95": 0.001999,
        "E85": 0.000799,
        "GPLc": 0.001029,
        "E10": 0.0019590000000000002,
        "SP98": 0.002049
      },
      "maj_gouv": {
        "Gazole": "2026-06-05 08:45:41",
        "SP95": "2026-06-04 08:42:24",
        "E85": "2026-05-04 08:47:40",
        "GPLc": "2026-05-18 08:45:54",
        "E10": "2026-06-04 08:42:24",
        "SP98": "2026-06-03 09:02:31"
      }
    },
    {
      "id": "14350002",
      "lat": 49.011,
      "lon": -0.852,
      "cp": "14350",
      "ville": "Souleuvre en Bocage",
      "prix": {
        "E10": 0.00199,
        "SP98": 0.00199
      },
      "maj_gouv": {
        "E10": "2026-06-05 08:02:50",
        "SP98": "2026-06-05 08:02:50"
      }
    },
    {
      "id": "14500013",
      "lat": 48.826504859941,
      "lon": -0.8882993929494799,
      "cp": "14500",
      "ville": "VIRE NORMANDIE",
      "prix": {
        "Gazole": 0.0019890000000000003,
        "E85": 0.000799,
        "E10": 0.0019890000000000003,
        "SP98": 0.002029
      },
      "maj_gouv": {
        "Gazole": "2026-06-04 09:05:49",
        "E85": "2026-05-26 16:09:00",
        "E10": "2026-06-04 09:05:49",
        "SP98": "2026-06-04 09:05:49"
      }
    },
    {
      "id": "14790002",
      "lat": 49.156,
      "lon": -0.45,
      "cp": "14790",
      "ville": "verson",
      "prix": {
        "Gazole": 0.0020800000000000003,
        "E10": 0.001978,
        "SP98": 0.00199
      },
      "maj_gouv": {
        "Gazole": "2026-06-05 16:04:23",
        "E10": "2026-06-05 16:04:23",
        "SP98": "2026-06-05 16:04:23"
      }
    },
    {
      "id": "14230002",
      "lat": 49.313,
      "lon": -1.099,
      "cp": "14230",
      "ville": "ISIGNY-SUR-MER",
      "prix": {
        "Gazole": 0.001999,
        "E85": 0.000798,
        "E10": 0.0019690000000000003,
        "SP98": 0.002069
      },
      "maj_gouv": {
        "Gazole": "2026-06-06 09:00:00",
        "E85": "2026-06-06 08:40:26",
        "E10": "2026-06-06 09:00:00",
        "SP98": "2026-06-06 09:00:00"
      }
    },
    {
      "id": "14540001",
      "lat": 49.1401163603,
      "lon": -0.300508505075,
      "cp": "14540",
      "ville": "SOLIERS",
      "prix": {
        "Gazole": 0.002034,
        "SP95": 0.0020150000000000003
      },
      "maj_gouv": {
        "Gazole": "2026-06-06 08:50:39",
        "SP95": "2026-06-06 08:50:39"
      }
    },
    {
      "id": "14430001",
      "lat": 49.231,
      "lon": -0.044,
      "cp": "14430",
      "ville": "DOZULé",
      "prix": {
        "Gazole": 0.001999,
        "SP95": 0.002005,
        "SP98": 0.002019
      },
      "maj_gouv": {
        "Gazole": "2026-06-05 09:00:55",
        "SP95": "2026-06-05 09:00:55",
        "SP98": "2026-06-05 09:00:56"
      }
    },
    {
      "id": "14420003",
      "lat": 48.965376785899004,
      "lon": -0.2396715313079,
      "cp": "14420",
      "ville": "POTIGNY",
      "prix": {
        "Gazole": 0.001984,
        "SP95": 0.0019850000000000002,
        "SP98": 0.002064
      },
      "maj_gouv": {
        "Gazole": "2026-06-01 09:49:29",
        "SP95": "2026-06-01 09:49:29",
        "SP98": "2026-06-01 09:49:29"
      }
    },
    {
      "id": "14330001",
      "lat": 49.248,
      "lon": -0.878,
      "cp": "14330",
      "ville": "LE MOLAY-LITTRY",
      "prix": {
        "Gazole": 0.0019690000000000003,
        "E85": 0.000739,
        "E10": 0.001929,
        "SP98": 0.002045
      },
      "maj_gouv": {
        "Gazole": "2026-06-05 11:04:52",
        "E85": "2026-06-02 08:59:00",
        "E10": "2026-06-03 08:59:00",
        "SP98": "2026-06-05 11:07:53"
      }
    },
    {
      "id": "14160004",
      "lat": 49.28517,
      "lon": -0.1096,
      "cp": "14160",
      "ville": "Dives-sur-Mer",
      "prix": {
        "Gazole": 0.002054,
        "E85": 0.0008489999999999999,
        "E10": 0.001968,
        "SP98": 0.00199
      },
      "maj_gouv": {
        "Gazole": "2026-06-07 00:01:00",
        "E85": "2026-06-07 00:01:00",
        "E10": "2026-06-07 00:01:00",
        "SP98": "2026-06-07 00:01:00"
      }
    },
    {
      "id": "14410004",
      "lat": 48.853616304896,
      "lon": -0.66465874603271,
      "cp": "14410",
      "ville": "VALDALLIERE",
      "prix": {
        "Gazole": 0.0020459999999999996,
        "SP95": 0.002061,
        "E10": 0.002012
      },
      "maj_gouv": {
        "Gazole": "2026-06-03 09:02:55",
        "SP95": "2026-06-03 09:02:55",
        "E10": "2026-06-03 09:02:55"
      }
    },
    {
      "id": "14600007",
      "lat": 49.413,
      "lon": 0.25,
      "cp": "14600",
      "ville": "HONFLEUR",
      "prix": {
        "Gazole": 0.001964,
        "E85": 0.000809,
        "SP98": 0.00199
      },
      "maj_gouv": {
        "Gazole": "2026-06-07 00:01:00",
        "E85": "2026-06-07 00:01:00",
        "SP98": "2026-06-07 00:01:00"
      }
    },
    {
      "id": "14000021",
      "lat": 49.19979,
      "lon": -0.36004,
      "cp": "14000",
      "ville": "CAEN",
      "prix": {
        "Gazole": 0.001957,
        "E85": 0.0008110000000000001,
        "GPLc": 0.000999,
        "E10": 0.001883,
        "SP98": 0.00199
      },
      "maj_gouv": {
        "Gazole": "2026-06-07 00:01:00",
        "E85": "2026-06-07 00:01:00",
        "GPLc": "2026-06-07 00:01:00",
        "E10": "2026-06-07 00:01:00",
        "SP98": "2026-06-07 00:01:00"
      }
    }
  ]
}