[
  {
    "id": "75016001",
    "dep": "75",
    "enseigne": "Carrefour",
    "adresse": "1 Avenue du Général Sarrail",
    "cp": "75016",
    "ville": "PARIS",
    "latitude": 48.847,
    "longitude": 2.256,
    "carburants": {
      "Gazole": {
        "valeur": "2.140",
        "maj": "2026-07-17 06:28:12"
      },
      "E10": {
        "valeur": "2.050",
        "maj": "2026-07-17 06:28:13"
      },
      "SP98": {
        "valeur": "2.060",
        "maj": "2026-07-10 06:32:21"
      }
    }
  },
  {
    "id": "75016026",
    "dep": "75",
    "enseigne": "ENI",
    "adresse": "4 AVENUE FOCH",
    "cp": "75016",
    "ville": "Paris",
    "latitude": 48.87366,
    "longitude": 2.292015,
    "carburants": {
      "Gazole": {
        "valeur": "2.349",
        "maj": "2026-07-20 07:00:00"
      },
      "SP95": {
        "valeur": "2.299",
        "maj": "2026-07-20 07:00:00"
      },
      "SP98": {
        "valeur": "2.369",
        "maj": "2026-07-20 07:00:00"
      }
    }
  },
  {
    "id": "75015025",
    "dep": "75",
    "enseigne": "TotalEnergies",
    "adresse": "34 BOULEVARD DE GRENELLE",
    "cp": "75015",
    "ville": "PARIS",
    "latitude": 48.852,
    "longitude": 2.29,
    "carburants": {
      "Gazole": {
        "valeur": "2.084",
        "maj": "2026-07-13 00:01:00"
      }
    }
  },
  {
    "id": "75016011",
    "dep": "75",
    "enseigne": "Avia",
    "adresse": "69 Avenue Kléber",
    "cp": "75116",
    "ville": "Paris",
    "latitude": 48.865,
    "longitude": 2.289,
    "carburants": {}
  },
  {
    "id": "75013025",
    "dep": "75",
    "enseigne": "TotalEnergies Access",
    "adresse": "181, BOULEVARD VINCENT AURIOL",
    "cp": "75013",
    "ville": "PARIS",
    "latitude": 48.832,
    "longitude": 2.359,
    "carburants": {
      "Gazole": {
        "valeur": "2.174",
        "maj": "2026-07-21 00:01:00"
      },
      "GPLc": {
        "valeur": "0.959",
        "maj": "2026-07-21 00:01:00"
      },
      "SP98": {
        "valeur": "2.144",
        "maj": "2026-07-21 00:01:00"
      }
    }
  },
  {
    "id": "75013024",
    "dep": "75",
    "enseigne": "TotalEnergies",
    "adresse": "114 BD DE L HOPITAL",
    "cp": "75013",
    "ville": "PARIS",
    "latitude": 48.835,
    "longitude": 2.358,
    "carburants": {
      "Gazole": {
        "valeur": "2.260",
        "maj": "2026-07-21 00:01:00"
      }
    }
  },
  {
    "id": "75018014",
    "dep": "75",
    "enseigne": "TotalEnergies",
    "adresse": "32 AVENUE DE LA PORTE DE ST OUEN",
    "cp": "75018",
    "ville": "PARIS",
    "latitude": 48.899525999474,
    "longitude": 2.3298743609466,
    "carburants": {
      "Gazole": {
        "valeur": "2.259",
        "maj": "2026-07-21 00:01:00"
      },
      "E85": {
        "valeur": "0.879",
        "maj": "2026-07-21 00:01:00"
      },
      "E10": {
        "valeur": "2.104",
        "maj": "2026-07-21 00:01:00"
      },
      "SP98": {
        "valeur": "2.214",
        "maj": "2026-07-21 00:01:00"
      }
    }
  },
  {
    "id": "75019013",
    "dep": "75",
    "enseigne": "TotalEnergies",
    "adresse": "BLD DU PERIPHERIQUE EXTERIEUR",
    "cp": "75019",
    "ville": "Paris",
    "latitude": 48.90076705756,
    "longitude": 2.3747491379377,
    "carburants": {
      "E85": {
        "valeur": "0.899",
        "maj": "2026-07-21 00:01:00"
      },
      "E10": {
        "valeur": "2.104",
        "maj": "2026-07-21 00:01:00"
      },
      "SP98": {
        "valeur": "2.214",
        "maj": "2026-07-21 00:01:00"
      }
    }
  },
  {
    "id": "75018013",
    "dep": "75",
    "enseigne": "TotalEnergies",
    "adresse": "30 AV PTE CLIGNANCOURT",
    "cp": "75018",
    "ville": "PARIS",
    "latitude": 48.9,
    "longitude": 2.344,
    "carburants": {
      "Gazole": {
        "valeur": "2.259",
        "maj": "2026-07-21 00:01:00"
      },
      "E10": {
        "valeur": "2.104",
        "maj": "2026-07-21 00:01:00"
      },
      "SP98": {
        "valeur": "2.214",
        "maj": "2026-07-21 00:01:00"
      }
    }
  },
  {
    "id": "75008009",
    "dep": "75",
    "enseigne": "TotalEnergies",
    "adresse": "FACE 55 AV. GEORGES V - PARKG GE",
    "cp": "75008",
    "ville": "PARIS",
    "latitude": 48.872,
    "longitude": 2.301,
    "carburants": {}
  },
  {
    "id": "75012020",
    "dep": "75",
    "enseigne": "TotalEnergies",
    "adresse": "238 RUE DE CHARENTON",
    "cp": "75012",
    "ville": "Paris",
    "latitude": 48.83905,
    "longitude": 2.38906,
    "carburants": {
      "Gazole": {
        "valeur": "2.239",
        "maj": "2026-07-20 06:00:00"
      },
      "E10": {
        "valeur": "2.104",
        "maj": "2026-07-20 06:00:00"
      },
      "SP98": {
        "valeur": "2.184",
        "maj": "2026-07-20 06:00:00"
      }
    }
  },
  {
    "id": "75013022",
    "dep": "75",
    "enseigne": "TotalEnergies",
    "adresse": "27 AVENUE DE LA PORTE D'ITALIE",
    "cp": "75013",
    "ville": "Paris",
    "latitude": 48.817,
    "longitude": 2.36,
    "carburants": {
      "Gazole": {
        "valeur": "2.264",
        "maj": "2026-07-21 00:01:00"
      },
      "E85": {
        "valeur": "0.889",
        "maj": "2026-07-21 00:01:00"
      },
      "E10": {
        "valeur": "2.104",
        "maj": "2026-07-21 00:01:00"
      },
      "SP98": {
        "valeur": "2.214",
        "maj": "2026-07-21 00:01:00"
      }
    }
  },
  {
    "id": "75010002",
    "dep": "75",
    "enseigne": "Avia",
    "adresse": "1 Boulevard de la Chapelle",
    "cp": "75010",
    "ville": "PARIS",
    "latitude": 48.884,
    "longitude": 2.364,
    "carburants": {
      "Gazole": {
        "valeur": "2.199",
        "maj": "2026-07-17 06:00:00"
      },
      "SP95": {
        "valeur": "2.149",
        "maj": "2026-07-17 05:00:00"
      },
      "SP98": {
        "valeur": "2.229",
        "maj": "2026-07-17 06:00:00"
      }
    }
  },
  {
    "id": "75014012",
    "dep": "75",
    "enseigne": "TotalEnergies",
    "adresse": "154 Rue d'Alésia",
    "cp": "75014",
    "ville": "Paris",
    "latitude": 48.832,
    "longitude": 2.316,
    "carburants": {
      "Gazole": {
        "valeur": "2.264",
        "maj": "2026-07-20 21:00:16"
      },
      "E10": {
        "valeur": "2.104",
        "maj": "2026-07-20 21:00:17"
      },
      "SP98": {
        "valeur": "2.214",
        "maj": "2026-07-20 21:00:17"
      }
    }
  },
  {
    "id": "75016022",
    "dep": "75",
    "enseigne": "Esso",
    "adresse": "26 AV PAUL DOUMER",
    "cp": "75016",
    "ville": "PARIS",
    "latitude": 48.861,
    "longitude": 2.283,
    "carburants": {
      "Gazole": {
        "valeur": "2.379",
        "maj": "2026-07-20 22:06:33"
      },
      "E10": {
        "valeur": "2.279",
        "maj": "2026-07-20 22:06:33"
      },
      "SP98": {
        "valeur": "2.409",
        "maj": "2026-07-20 22:06:33"
      }
    }
  },
  {
    "id": "75016006",
    "dep": "75",
    "enseigne": "Avia",
    "adresse": "PLACE TATTEGRAIN",
    "cp": "75116",
    "ville": "PARIS",
    "latitude": 48.864,
    "longitude": 2.272,
    "carburants": {
      "Gazole": {
        "valeur": "2.249",
        "maj": "2026-07-17 07:00:00"
      },
      "E10": {
        "valeur": "2.199",
        "maj": "2026-07-17 07:00:00"
      },
      "SP98": {
        "valeur": "2.299",
        "maj": "2026-07-17 07:00:00"
      }
    }
  },
  {
    "id": "75019016",
    "dep": "75",
    "enseigne": "TotalEnergies",
    "adresse": "234 RUE DE CRIMEE",
    "cp": "75019",
    "ville": "PARIS",
    "latitude": 48.894,
    "longitude": 2.373,
    "carburants": {
      "Gazole": {
        "valeur": "2.254",
        "maj": "2026-07-21 00:01:00"
      }
    }
  },
  {
    "id": "75012021",
    "dep": "75",
    "enseigne": "TotalEnergies",
    "adresse": "55 BLD DE PICPUS",
    "cp": "75012",
    "ville": "PARIS",
    "latitude": 48.846,
    "longitude": 2.401,
    "carburants": {
      "Gazole": {
        "valeur": "2.258",
        "maj": "2026-07-21 00:01:00"
      },
      "E10": {
        "valeur": "2.104",
        "maj": "2026-07-21 00:01:00"
      },
      "SP98": {
        "valeur": "2.214",
        "maj": "2026-07-21 00:01:00"
      }
    }
  },
  {
    "id": "75007004",
    "dep": "75",
    "enseigne": "TotalEnergies",
    "adresse": "37 RUE FABERT",
    "cp": "75007",
    "ville": "Paris",
    "latitude": 48.85862,
    "longitude": 2.31125,
    "carburants": {
      "Gazole": {
        "valeur": "2.241",
        "maj": "2026-07-20 06:00:00"
      },
      "E10": {
        "valeur": "2.104",
        "maj": "2026-07-20 06:00:00"
      },
      "SP98": {
        "valeur": "2.184",
        "maj": "2026-07-20 06:00:00"
      }
    }
  },
  {
    "id": "75016017",
    "dep": "75",
    "enseigne": "TotalEnergies",
    "adresse": "2 AV DE LA PORTE DE ST CLOUD",
    "cp": "75016",
    "ville": "PARIS",
    "latitude": 48.83868,
    "longitude": 2.25394,
    "carburants": {
      "Gazole": {
        "valeur": "2.264",
        "maj": "2026-07-21 00:01:00"
      },
      "E85": {
        "valeur": "0.889",
        "maj": "2026-07-21 00:01:00"
      },
      "E10": {
        "valeur": "2.104",
        "maj": "2026-07-21 00:01:00"
      },
      "SP98": {
        "valeur": "2.214",
        "maj": "2026-07-21 00:01:00"
      }
    }
  },
  {
    "id": "75010003",
    "dep": "75",
    "enseigne": "Esso Express",
    "adresse": "2/6 RUE LOUIS BLANC",
    "cp": "75010",
    "ville": "Paris",
    "latitude": 48.879,
    "longitude": 2.37,
    "carburants": {
      "Gazole": {
        "valeur": "2.163",
        "maj": "2026-07-18 07:51:00"
      },
      "E10": {
        "valeur": "2.049",
        "maj": "2026-07-18 07:51:00"
      },
      "SP98": {
        "valeur": "2.129",
        "maj": "2026-07-18 07:51:00"
      }
    }
  },
  {
    "id": "75013023",
    "dep": "75",
    "enseigne": "TotalEnergies",
    "adresse": "RUE JEAN-BAPTISTE BERLIER - QUAI",
    "cp": "75013",
    "ville": "PARIS 13",
    "latitude": 48.82586,
    "longitude": 2.38433,
    "carburants": {
      "Gazole": {
        "valeur": "2.244",
        "maj": "2026-07-20 06:00:00"
      },
      "E10": {
        "valeur": "2.104",
        "maj": "2026-07-20 06:00:00"
      },
      "SP98": {
        "valeur": "2.184",
        "maj": "2026-07-20 06:00:00"
      }
    }
  },
  {
    "id": "75015030",
    "dep": "75",
    "enseigne": "Esso Express",
    "adresse": "1 QUATER BOULEVARD VICTOR",
    "cp": "75015",
    "ville": "PARIS",
    "latitude": 48.834,
    "longitude": 2.285,
    "carburants": {
      "Gazole": {
        "valeur": "2.259",
        "maj": "2026-07-20 22:09:13"
      },
      "E10": {
        "valeur": "2.139",
        "maj": "2026-07-20 22:09:13"
      },
      "SP98": {
        "valeur": "2.289",
        "maj": "2026-07-20 22:09:13"
      }
    }
  },
  {
    "id": "75017019",
    "dep": "75",
    "enseigne": "Esso",
    "adresse": "3-5 AVENUE DE LA PORTE D'ASNIERES",
    "cp": "75017",
    "ville": "PARIS",
    "latitude": 48.890454894335,
    "longitude": 2.3033190283505998,
    "carburants": {
      "Gazole": {
        "valeur": "2.200",
        "maj": "2026-03-31 11:41:09"
      },
      "SP95": {
        "valeur": "2.150",
        "maj": "2026-03-31 11:41:10"
      },
      "E10": {
        "valeur": "1.880",
        "maj": "2025-08-04 10:22:45"
      },
      "SP98": {
        "valeur": "2.180",
        "maj": "2026-03-31 11:41:10"
      }
    }
  },
  {
    "id": "75012005",
    "dep": "75",
    "enseigne": "TotalEnergies",
    "adresse": "173 Avenue Daumesnil",
    "cp": "75012",
    "ville": "Paris",
    "latitude": 48.84074,
    "longitude": 2.39104,
    "carburants": {
      "Gazole": {
        "valeur": "2.040",
        "maj": "2026-07-03 19:04:13"
      },
      "E10": {
        "valeur": "1.990",
        "maj": "2026-07-03 19:04:13"
      },
      "SP98": {
        "valeur": "1.990",
        "maj": "2026-07-03 19:04:13"
      }
    }
  },
  {
    "id": "75008006",
    "dep": "75",
    "enseigne": "Avia",
    "adresse": "164 Boulevard Haussmann",
    "cp": "75008",
    "ville": "PARIS",
    "latitude": 48.875,
    "longitude": 2.31,
    "carburants": {
      "Gazole": {
        "valeur": "2.270",
        "maj": "2026-07-17 07:00:00"
      },
      "E10": {
        "valeur": "2.160",
        "maj": "2026-07-17 07:00:00"
      },
      "SP98": {
        "valeur": "2.260",
        "maj": "2026-07-17 07:00:00"
      }
    }
  },
  {
    "id": "75012023",
    "dep": "75",
    "enseigne": "Avia",
    "adresse": "32 rue de Reuilly",
    "cp": "75012",
    "ville": "Paris",
    "latitude": 48.84655403,
    "longitude": 2.38741851,
    "carburants": {
      "Gazole": {
        "valeur": "2.279",
        "maj": "2026-07-17 07:00:00"
      },
      "E10": {
        "valeur": "2.169",
        "maj": "2026-07-17 07:00:00"
      },
      "SP98": {
        "valeur": "2.269",
        "maj": "2026-07-17 07:00:00"
      }
    }
  },
  {
    "id": "75016023",
    "dep": "75",
    "enseigne": "Esso",
    "adresse": "7 BOULEVARD MURAT",
    "cp": "75016",
    "ville": "PARIS",
    "latitude": 48.847,
    "longitude": 2.259,
    "carburants": {
      "Gazole": {
        "valeur": "2.389",
        "maj": "2026-07-20 10:32:33"
      },
      "E10": {
        "valeur": "2.289",
        "maj": "2026-07-20 10:32:33"
      }
    }
  },
  {
    "id": "75019015",
    "dep": "75",
    "enseigne": "TotalEnergies",
    "adresse": "121 RUE MANIN",
    "cp": "75019",
    "ville": "PARIS",
    "latitude": 48.884,
    "longitude": 2.39,
    "carburants": {}
  },
  {
    "id": "75017017",
    "dep": "75",
    "enseigne": "TotalEnergies",
    "adresse": "190 AVENUE DE CLICHY",
    "cp": "75017",
    "ville": "PARIS",
    "latitude": 48.89345,
    "longitude": 2.3154,
    "carburants": {
      "Gazole": {
        "valeur": "2.254",
        "maj": "2026-07-21 00:01:00"
      },
      "E10": {
        "valeur": "2.104",
        "maj": "2026-07-21 00:01:00"
      },
      "SP98": {
        "valeur": "2.214",
        "maj": "2026-07-21 00:01:00"
      }
    }
  },
  {
    "id": "75019014",
    "dep": "75",
    "enseigne": "TotalEnergies",
    "adresse": "BLD DU PERIPHERIQUE INTERIEUR",
    "cp": "75019",
    "ville": "Paris",
    "latitude": 48.9,
    "longitude": 2.373,
    "carburants": {
      "E85": {
        "valeur": "0.899",
        "maj": "2026-07-21 00:01:00"
      },
      "GPLc": {
        "valeur": "0.999",
        "maj": "2026-07-21 00:01:00"
      },
      "E10": {
        "valeur": "2.104",
        "maj": "2026-07-21 00:01:00"
      },
      "SP98": {
        "valeur": "2.214",
        "maj": "2026-07-21 00:01:00"
      }
    }
  },
  {
    "id": "75013028",
    "dep": "75",
    "enseigne": "Esso",
    "adresse": "85 RUE JEANNE DARC",
    "cp": "75013",
    "ville": "PARIS",
    "latitude": 48.832,
    "longitude": 2.365,
    "carburants": {
      "Gazole": {
        "valeur": "2.229",
        "maj": "2026-07-18 10:55:33"
      },
      "E10": {
        "valeur": "2.119",
        "maj": "2026-07-18 10:55:33"
      },
      "SP98": {
        "valeur": "2.219",
        "maj": "2026-07-18 10:55:33"
      }
    }
  },
  {
    "id": "75015026",
    "dep": "75",
    "enseigne": "TotalEnergies",
    "adresse": "QUAI D'ISSY LES MOULINEAUX",
    "cp": "75015",
    "ville": "Paris",
    "latitude": 48.835,
    "longitude": 2.266,
    "carburants": {
      "E85": {
        "valeur": "0.889",
        "maj": "2026-07-21 00:01:00"
      },
      "E10": {
        "valeur": "2.104",
        "maj": "2026-07-21 00:01:00"
      },
      "SP98": {
        "valeur": "2.214",
        "maj": "2026-07-21 00:01:00"
      }
    }
  },
  {
    "id": "75007003",
    "dep": "75",
    "enseigne": "Avia",
    "adresse": "15 Avenue Duquesne",
    "cp": "75007",
    "ville": "PARIS",
    "latitude": 48.853,
    "longitude": 2.308,
    "carburants": {
      "Gazole": {
        "valeur": "2.800",
        "maj": "2026-04-02 12:10:20"
      },
      "SP98": {
        "valeur": "2.690",
        "maj": "2026-04-02 12:10:20"
      }
    }
  },
  {
    "id": "75015003",
    "dep": "75",
    "enseigne": "Esso",
    "adresse": "151 Rue de la Convention",
    "cp": "75015",
    "ville": "Paris",
    "latitude": 48.839,
    "longitude": 2.292,
    "carburants": {
      "Gazole": {
        "valeur": "2.299",
        "maj": "2026-07-20 22:09:53"
      },
      "E85": {
        "valeur": "1.149",
        "maj": "2026-07-20 22:09:53"
      },
      "E10": {
        "valeur": "2.199",
        "maj": "2026-07-20 22:09:53"
      },
      "SP98": {
        "valeur": "2.299",
        "maj": "2026-07-20 22:09:53"
      }
    }
  },
  {
    "id": "75001003",
    "dep": "75",
    "enseigne": "Oil France",
    "adresse": "8,10,10bis Rue Bailleul",
    "cp": "75001",
    "ville": "PARIS",
    "latitude": 48.861,
    "longitude": 2.341,
    "carburants": {
      "Gazole": {
        "valeur": "2.590",
        "maj": "2026-06-12 16:35:11"
      },
      "SP95": {
        "valeur": "2.390",
        "maj": "2026-06-12 16:35:12"
      },
      "SP98": {
        "valeur": "2.460",
        "maj": "2026-06-12 16:35:12"
      }
    }
  },
  {
    "id": "75008010",
    "dep": "75",
    "enseigne": "TotalEnergies",
    "adresse": "FACE 35 BLD MALESHERBES",
    "cp": "75008",
    "ville": "Paris",
    "latitude": 48.873,
    "longitude": 2.311,
    "carburants": {}
  },
  {
    "id": "75015034",
    "dep": "75",
    "enseigne": "Avia",
    "adresse": "11 BOULEVARD GARIBALDI",
    "cp": "75015",
    "ville": "PARIS",
    "latitude": 48.848,
    "longitude": 2.303,
    "carburants": {
      "Gazole": {
        "valeur": "2.279",
        "maj": "2026-07-17 17:31:10"
      },
      "SP98": {
        "valeur": "2.269",
        "maj": "2026-07-17 17:31:10"
      }
    }
  },
  {
    "id": "92300004",
    "dep": "75",
    "enseigne": "Leclerc",
    "adresse": "2/10 BLD FORT DE VAUX",
    "cp": "75017",
    "ville": "PARIS",
    "latitude": 48.893,
    "longitude": 2.302,
    "carburants": {
      "Gazole": {
        "valeur": "2.135",
        "maj": "2026-07-20 09:31:59"
      },
      "E85": {
        "valeur": "0.875",
        "maj": "2026-07-13 09:49:54"
      },
      "E10": {
        "valeur": "2.045",
        "maj": "2026-07-20 09:31:59"
      },
      "SP98": {
        "valeur": "2.059",
        "maj": "2026-07-20 09:31:59"
      }
    }
  },
  {
    "id": "75015011",
    "dep": "75",
    "enseigne": "Esso Express",
    "adresse": "19 BD DES FRERES VOISINS",
    "cp": "75015",
    "ville": "Paris",
    "latitude": 48.828,
    "longitude": 2.272,
    "carburants": {
      "Gazole": {
        "valeur": "2.154",
        "maj": "2026-07-18 07:51:00"
      },
      "E10": {
        "valeur": "2.049",
        "maj": "2026-07-18 07:51:00"
      },
      "SP98": {
        "valeur": "2.129",
        "maj": "2026-07-18 07:51:00"
      }
    }
  },
  {
    "id": "75012010",
    "dep": "75",
    "enseigne": "Esso Express",
    "adresse": "36 Quai de la Rapée",
    "cp": "75012",
    "ville": "Paris",
    "latitude": 48.842,
    "longitude": 2.373,
    "carburants": {
      "Gazole": {
        "valeur": "2.163",
        "maj": "2026-07-18 07:50:00"
      },
      "E10": {
        "valeur": "2.058",
        "maj": "2026-07-18 07:50:00"
      },
      "SP98": {
        "valeur": "2.138",
        "maj": "2026-07-18 07:50:00"
      }
    }
  },
  {
    "id": "75020010",
    "dep": "75",
    "enseigne": "TotalEnergies",
    "adresse": "101 BLD MORTIER",
    "cp": "75020",
    "ville": "Paris",
    "latitude": 48.871,
    "longitude": 2.409,
    "carburants": {
      "Gazole": {
        "valeur": "2.261",
        "maj": "2026-07-21 00:01:00"
      },
      "E10": {
        "valeur": "2.104",
        "maj": "2026-07-21 00:01:00"
      },
      "SP98": {
        "valeur": "2.214",
        "maj": "2026-07-21 00:01:00"
      }
    }
  },
  {
    "id": "75015036",
    "dep": "75",
    "enseigne": "Avia",
    "adresse": "21 AVENUE EMILE ZOLA",
    "cp": "75015",
    "ville": "PARIS",
    "latitude": 48.846443,
    "longitude": 2.280126,
    "carburants": {
      "Gazole": {
        "valeur": "2.259",
        "maj": "2026-07-15 23:46:00"
      },
      "E85": {
        "valeur": "0.995",
        "maj": "2026-07-15 23:46:00"
      },
      "GPLc": {
        "valeur": "0.825",
        "maj": "2025-09-04 23:16:00"
      },
      "E10": {
        "valeur": "2.139",
        "maj": "2026-07-15 23:46:00"
      },
      "SP98": {
        "valeur": "2.219",
        "maj": "2026-07-15 23:46:00"
      }
    }
  },
  {
    "id": "75014010",
    "dep": "75",
    "enseigne": "TotalEnergies",
    "adresse": "RUE LEGION ETRANGERE",
    "cp": "75014",
    "ville": "Paris",
    "latitude": 48.829,
    "longitude": 2.326,
    "carburants": {
      "E85": {
        "valeur": "0.889",
        "maj": "2026-07-21 00:01:00"
      },
      "E10": {
        "valeur": "2.104",
        "maj": "2026-07-21 00:01:00"
      },
      "SP98": {
        "valeur": "2.214",
        "maj": "2026-07-21 00:01:00"
      }
    }
  },
  {
    "id": "75020008",
    "dep": "75",
    "enseigne": "TotalEnergies",
    "adresse": "217 BOULEVARD MARECHAL DAVOUT",
    "cp": "75020",
    "ville": "PARIS",
    "latitude": 48.863,
    "longitude": 2.407,
    "carburants": {
      "Gazole": {
        "valeur": "2.254",
        "maj": "2026-07-21 00:01:00"
      },
      "E85": {
        "valeur": "0.889",
        "maj": "2026-07-21 00:01:00"
      },
      "E10": {
        "valeur": "2.104",
        "maj": "2026-07-21 00:01:00"
      },
      "SP98": {
        "valeur": "2.214",
        "maj": "2026-07-21 00:01:00"
      }
    }
  },
  {
    "id": "75013026",
    "dep": "75",
    "enseigne": "Esso",
    "adresse": "231 Rue de Tolbiac",
    "cp": "75013",
    "ville": "Paris",
    "latitude": 48.826,
    "longitude": 2.344,
    "carburants": {
      "Gazole": {
        "valeur": "2.119",
        "maj": "2026-07-17 10:20:50"
      },
      "E10": {
        "valeur": "2.225",
        "maj": "2026-07-17 10:20:50"
      },
      "SP98": {
        "valeur": "2.249",
        "maj": "2026-07-17 10:20:50"
      }
    }
  },
  {
    "id": "75016029",
    "dep": "75",
    "enseigne": "TotalEnergies",
    "adresse": "99 AVENUE DE VERSAILLES",
    "cp": "75016",
    "ville": "PARIS",
    "latitude": 48.845,
    "longitude": 2.271,
    "carburants": {
      "Gazole": {
        "valeur": "2.250",
        "maj": "2026-07-20 18:02:42"
      }
    }
  }
]