{
  "departement": "82",
  "date": "2026-05-25",
  "stations": [
    {
      "id": "82800001",
      "lat": 44.07487,
      "lon": 1.51788,
      "cp": "82800",
      "ville": "NEGREPELISSE",
      "prix": {
        "Gazole": 0.002149,
        "SP95": 0.002169,
        "E85": 0.000819,
        "E10": 0.0021190000000000002,
        "SP98": 0.002179
      },
      "maj_gouv": {
        "Gazole": "2026-05-22 08:57:42",
        "SP95": "2026-05-19 09:56:40",
        "E85": "2026-05-07 08:17:51",
        "E10": "2026-05-19 09:56:40",
        "SP98": "2026-05-08 09:13:11"
      }
    },
    {
      "id": "82700001",
      "lat": 43.956,
      "lon": 1.221,
      "cp": "82700",
      "ville": "Montech",
      "prix": {
        "Gazole": 0.00209,
        "SP95": 0.00199
      },
      "maj_gouv": {
        "Gazole": "2026-05-22 20:13:57",
        "SP95": "2026-05-22 20:13:57"
      }
    },
    {
      "id": "82710003",
      "lat": 43.968,
      "lon": 1.339,
      "cp": "82710",
      "ville": "BRESSOLS",
      "prix": {
        "Gazole": 0.0022879999999999997,
        "E10": 0.002236,
        "SP98": 0.002336
      },
      "maj_gouv": {
        "Gazole": "2026-05-23 07:50:00",
        "E10": "2026-05-23 07:50:00",
        "SP98": "2026-05-23 07:50:00"
      }
    },
    {
      "id": "82240001",
      "lat": 44.17787,
      "lon": 1.62304,
      "cp": "82240",
      "ville": "Septfonds",
      "prix": {
        "Gazole": 0.002139,
        "E10": 0.002099,
        "SP98": 0.002199
      },
      "maj_gouv": {
        "Gazole": "2026-05-22 12:28:07",
        "E10": "2026-05-22 12:28:08",
        "SP98": "2026-05-22 12:28:08"
      }
    },
    {
      "id": "82500002",
      "lat": 43.878,
      "lon": 0.988,
      "cp": "82500",
      "ville": "Beaumont-de-Lomagne",
      "prix": {
        "Gazole": 0.002099,
        "E10": 0.002039,
        "SP98": 0.002169
      },
      "maj_gouv": {
        "Gazole": "2026-05-13 12:17:48",
        "E10": "2026-05-07 15:48:21",
        "SP98": "2026-05-22 10:58:19"
      }
    },
    {
      "id": "82000007",
      "lat": 44.025,
      "lon": 1.331,
      "cp": "82000",
      "ville": "MONTAUBAN",
      "prix": {
        "Gazole": 0.00209
      },
      "maj_gouv": {
        "Gazole": "2026-05-23 00:01:00"
      }
    },
    {
      "id": "82440003",
      "lat": 44.116,
      "lon": 1.48,
      "cp": "82440",
      "ville": "Réalville",
      "prix": {
        "E85": 0.000856
      },
      "maj_gouv": {
        "E85": "2026-04-20 07:37:27"
      }
    },
    {
      "id": "82600002",
      "lat": 43.8,
      "lon": 1.221,
      "cp": "82600",
      "ville": "AUCAMVILLE",
      "prix": {
        "Gazole": 0.00209
      },
      "maj_gouv": {
        "Gazole": "2026-05-23 00:01:00"
      }
    },
    {
      "id": "82000010",
      "lat": 44.033,
      "lon": 1.375,
      "cp": "82000",
      "ville": "Montauban",
      "prix": {
        "Gazole": 0.002111,
        "E85": 0.0008179999999999999,
        "GPLc": 0.001049,
        "E10": 0.002079,
        "SP98": 0.002145
      },
      "maj_gouv": {
        "Gazole": "2026-05-25 01:16:00",
        "E85": "2026-05-25 01:16:00",
        "GPLc": "2026-05-25 01:16:00",
        "E10": "2026-05-25 01:16:00",
        "SP98": "2026-05-25 01:16:00"
      }
    },
    {
      "id": "82210005",
      "lat": 44.064539599999996,
      "lon": 1.0239215776700998,
      "cp": "82210",
      "ville": "St Nicolas de la Grave",
      "prix": {
        "Gazole": 0.00209,
        "E10": 0.00199,
        "SP98": 0.00199
      },
      "maj_gouv": {
        "Gazole": "2026-05-23 07:45:11",
        "E10": "2026-05-11 15:46:05",
        "SP98": "2026-05-11 15:46:05"
      }
    },
    {
      "id": "82210006",
      "lat": 44.041,
      "lon": 1.004,
      "cp": "82210",
      "ville": "Saint-Nicolas-de-la-Grave",
      "prix": {
        "Gazole": 0.002234,
        "E85": 0.001099,
        "GPLc": 0.001064,
        "E10": 0.002149,
        "SP98": 0.002218
      },
      "maj_gouv": {
        "Gazole": "2026-05-22 00:00:00",
        "E85": "2026-05-22 00:00:00",
        "GPLc": "2026-05-22 00:00:00",
        "E10": "2026-05-22 00:00:00",
        "SP98": "2026-05-22 00:00:00"
      }
    },
    {
      "id": "82000011",
      "lat": 44.022,
      "lon": 1.379,
      "cp": "82000",
      "ville": "Montauban",
      "prix": {
        "Gazole": 0.002176,
        "E85": 0.0008179999999999999,
        "E10": 0.002079,
        "SP98": 0.002145
      },
      "maj_gouv": {
        "Gazole": "2026-04-30 11:03:59",
        "E85": "2026-04-17 09:18:24",
        "E10": "2026-05-21 10:38:59",
        "SP98": "2026-05-21 10:39:00"
      }
    },
    {
      "id": "82370003",
      "lat": 43.899215466932006,
      "lon": 1.3109821834536,
      "cp": "82370",
      "ville": "CAMPSAS",
      "prix": {
        "Gazole": 0.0021190000000000002,
        "E85": 0.001239,
        "E10": 0.002059
      },
      "maj_gouv": {
        "Gazole": "2026-05-18 08:30:51",
        "E85": "2026-04-20 09:11:30",
        "E10": "2026-05-18 08:30:52"
      }
    },
    {
      "id": "82000016",
      "lat": 44.026,
      "lon": 1.332,
      "cp": "82000",
      "ville": "MONTAUBAN",
      "prix": {
        "E85": 0.000869
      },
      "maj_gouv": {
        "E85": "2026-05-25 00:01:00"
      }
    },
    {
      "id": "82200009",
      "lat": 44.114084407834994,
      "lon": 1.1124635755837,
      "cp": "82200",
      "ville": "MOISSAC",
      "prix": {
        "Gazole": 0.002157,
        "SP95": 0.002099,
        "E85": 0.000819,
        "E10": 0.002059
      },
      "maj_gouv": {
        "Gazole": "2026-05-13 09:46:32",
        "SP95": "2026-05-15 09:32:24",
        "E85": "2026-04-20 09:21:27",
        "E10": "2026-05-15 09:32:24"
      }
    },
    {
      "id": "82110001",
      "lat": 44.261,
      "lon": 1.145,
      "cp": "82110",
      "ville": "LAUZERTE",
      "prix": {
        "Gazole": 0.002115,
        "E85": 0.000798,
        "E10": 0.002079,
        "SP98": 0.00217
      },
      "maj_gouv": {
        "Gazole": "2026-05-22 08:21:22",
        "E85": "2026-05-19 09:44:10",
        "E10": "2026-05-22 08:21:22",
        "SP98": "2026-05-22 08:21:22"
      }
    },
    {
      "id": "82270002",
      "lat": 44.23161,
      "lon": 1.52955,
      "cp": "82270",
      "ville": "MONTALZAT",
      "prix": {
        "Gazole": 0.00209,
        "E85": 0.000998,
        "GPLc": 0.001098,
        "E10": 0.00199,
        "SP98": 0.00199
      },
      "maj_gouv": {
        "Gazole": "2026-05-25 00:01:00",
        "E85": "2026-05-25 00:01:00",
        "GPLc": "2026-05-25 00:01:00",
        "E10": "2026-05-25 00:01:00",
        "SP98": "2026-05-25 00:01:00"
      }
    },
    {
      "id": "82400005",
      "lat": 44.111797793400996,
      "lon": 0.87839676380174,
      "cp": "82400",
      "ville": "VALENCE-D'AGEN",
      "prix": {
        "Gazole": 0.00214,
        "E85": 0.00093,
        "E10": 0.00212
      },
      "maj_gouv": {
        "Gazole": "2026-05-21 08:24:37",
        "E85": "2026-04-24 16:20:03",
        "E10": "2026-05-21 08:24:37"
      }
    },
    {
      "id": "82600003",
      "lat": 43.83852,
      "lon": 1.23942,
      "cp": "82600",
      "ville": "Verdun-sur-Garonne",
      "prix": {
        "Gazole": 0.002149,
        "E10": 0.002084,
        "SP98": 0.002149
      },
      "maj_gouv": {
        "Gazole": "2026-05-15 11:08:22",
        "E10": "2026-05-15 11:08:23",
        "SP98": "2026-05-15 11:08:23"
      }
    },
    {
      "id": "82160002",
      "lat": 44.2314,
      "lon": 1.75828,
      "cp": "82160",
      "ville": "Caylus",
      "prix": {
        "Gazole": 0.002199,
        "SP95": 0.002159,
        "SP98": 0.002219
      },
      "maj_gouv": {
        "Gazole": "2026-05-17 16:40:23",
        "SP95": "2026-05-10 18:48:25",
        "SP98": "2026-05-10 18:49:23"
      }
    },
    {
      "id": "82120001",
      "lat": 43.959,
      "lon": 0.921,
      "cp": "82120",
      "ville": "Lavit",
      "prix": {
        "Gazole": 0.00219,
        "E10": 0.00215,
        "SP98": 0.00228
      },
      "maj_gouv": {
        "Gazole": "2026-05-13 10:29:35",
        "E10": "2026-05-20 13:14:05",
        "SP98": "2026-05-20 13:14:05"
      }
    },
    {
      "id": "82410003",
      "lat": 44.049,
      "lon": 1.463,
      "cp": "82410",
      "ville": "Saint-Étienne-de-Tulmont",
      "prix": {
        "Gazole": 0.002129,
        "E10": 0.002069,
        "SP98": 0.002189
      },
      "maj_gouv": {
        "Gazole": "2026-05-19 12:00:46",
        "E10": "2026-05-19 12:00:46",
        "SP98": "2026-05-19 12:00:47"
      }
    },
    {
      "id": "82300006",
      "lat": 44.163,
      "lon": 1.553,
      "cp": "82300",
      "ville": "Monteils",
      "prix": {
        "Gazole": 0.002139,
        "E10": 0.002099,
        "SP98": 0.002199
      },
      "maj_gouv": {
        "Gazole": "2026-05-22 09:02:05",
        "E10": "2026-05-22 09:02:05",
        "SP98": "2026-05-22 08:08:47"
      }
    },
    {
      "id": "82500003",
      "lat": 43.892,
      "lon": 1.012,
      "cp": "82500",
      "ville": "Beaumont-de-Lomagne",
      "prix": {
        "Gazole": 0.002129,
        "SP95": 0.002149,
        "SP98": 0.002189
      },
      "maj_gouv": {
        "Gazole": "2026-05-22 08:43:16",
        "SP95": "2026-05-22 08:43:16",
        "SP98": "2026-05-22 08:43:16"
      }
    },
    {
      "id": "82110002",
      "lat": 44.235,
      "lon": 1.207,
      "cp": "82110",
      "ville": "Cazes-Mondenard",
      "prix": {
        "Gazole": 0.0022299999999999998,
        "E10": 0.00211
      },
      "maj_gouv": {
        "Gazole": "2026-05-13 10:40:36",
        "E10": "2026-05-13 10:40:37"
      }
    },
    {
      "id": "82700003",
      "lat": 43.986,
      "lon": 1.194,
      "cp": "82700",
      "ville": "Escatalens",
      "prix": {
        "Gazole": 0.00216,
        "E10": 0.00212,
        "SP98": 0.00225
      },
      "maj_gouv": {
        "Gazole": "2026-05-19 11:22:36",
        "E10": "2026-05-19 11:22:37",
        "SP98": "2026-05-19 11:22:37"
      }
    },
    {
      "id": "82000019",
      "lat": 43.989,
      "lon": 1.331,
      "cp": "82000",
      "ville": "MONTAUBAN",
      "prix": {
        "Gazole": 0.002111,
        "SP95": 0.002125,
        "E85": 0.0008179999999999999,
        "E10": 0.002079,
        "SP98": 0.0021669999999999997
      },
      "maj_gouv": {
        "Gazole": "2026-05-23 10:17:15",
        "SP95": "2026-05-21 10:29:11",
        "E85": "2026-05-21 10:29:11",
        "E10": "2026-05-21 10:29:11",
        "SP98": "2026-05-23 10:17:15"
      }
    },
    {
      "id": "82500004",
      "lat": 43.851,
      "lon": 0.941,
      "cp": "82500",
      "ville": "GIMAT",
      "prix": {
        "Gazole": 0.00209,
        "E85": 0.000966
      },
      "maj_gouv": {
        "Gazole": "2026-05-23 07:25:00",
        "E85": "2026-05-19 16:04:46"
      }
    },
    {
      "id": "82000018",
      "lat": 44.026,
      "lon": 1.366,
      "cp": "82000",
      "ville": "Montauban",
      "prix": {
        "Gazole": 0.00209,
        "E10": 0.00199,
        "SP98": 0.00199
      },
      "maj_gouv": {
        "Gazole": "2026-05-23 07:19:01",
        "E10": "2026-05-21 14:06:08",
        "SP98": "2026-05-21 14:06:08"
      }
    },
    {
      "id": "82400012",
      "lat": 44.109,
      "lon": 0.888,
      "cp": "82400",
      "ville": "VALENCE D'AGEN",
      "prix": {},
      "maj_gouv": {}
    },
    {
      "id": "82220001",
      "lat": 44.19,
      "lon": 1.285,
      "cp": "82220",
      "ville": "Vazerac",
      "prix": {
        "Gazole": 0.002169,
        "E10": 0.002059,
        "SP98": 0.002169
      },
      "maj_gouv": {
        "Gazole": "2026-05-04 07:23:07",
        "E10": "2026-05-04 07:23:07",
        "SP98": "2026-05-04 07:23:07"
      }
    },
    {
      "id": "82400009",
      "lat": 44.109,
      "lon": 0.891,
      "cp": "82400",
      "ville": "Valence-d'Agen",
      "prix": {
        "Gazole": 0.00219,
        "SP95": 0.00216
      },
      "maj_gouv": {
        "Gazole": "2026-05-11 17:05:49",
        "SP95": "2026-05-04 17:20:30"
      }
    },
    {
      "id": "82700002",
      "lat": 43.964,
      "lon": 1.246,
      "cp": "82700",
      "ville": "Montech",
      "prix": {
        "Gazole": 0.002099,
        "E85": 0.000798,
        "GPLc": 0.001089,
        "E10": 0.002049,
        "SP98": 0.002189
      },
      "maj_gouv": {
        "Gazole": "2026-05-22 09:04:12",
        "E85": "2026-05-22 09:04:12",
        "GPLc": "2026-04-10 14:22:13",
        "E10": "2026-05-22 09:04:12",
        "SP98": "2026-05-15 07:58:23"
      }
    },
    {
      "id": "82290001",
      "lat": 44.034,
      "lon": 1.219,
      "cp": "82290",
      "ville": "LA VILLE DIEU DU TEMPLE",
      "prix": {
        "Gazole": 0.002099,
        "E85": 0.000798,
        "E10": 0.002049,
        "SP98": 0.002189
      },
      "maj_gouv": {
        "Gazole": "2026-05-22 09:47:36",
        "E85": "2026-05-22 09:47:37",
        "E10": "2026-05-22 09:47:37",
        "SP98": "2026-05-22 09:47:37"
      }
    },
    {
      "id": "82600001",
      "lat": 43.854,
      "lon": 1.228,
      "cp": "82600",
      "ville": "VERDUN-SUR-GARONNE",
      "prix": {
        "Gazole": 0.002139,
        "SP95": 0.002129,
        "SP98": 0.002149
      },
      "maj_gouv": {
        "Gazole": "2026-05-19 06:00:00",
        "SP95": "2026-05-19 06:00:00",
        "SP98": "2026-05-19 06:00:00"
      }
    },
    {
      "id": "82100006",
      "lat": 44.057,
      "lon": 1.102,
      "cp": "82100",
      "ville": "Castelsarrasin",
      "prix": {
        "Gazole": 0.002115,
        "SP95": 0.002109,
        "E85": 0.000819,
        "E10": 0.002059,
        "SP98": 0.00217
      },
      "maj_gouv": {
        "Gazole": "2026-05-21 07:49:21",
        "SP95": "2026-05-21 07:49:21",
        "E85": "2026-04-17 07:16:28",
        "E10": "2026-05-19 07:30:11",
        "SP98": "2026-05-19 07:30:11"
      }
    },
    {
      "id": "82370004",
      "lat": 43.915,
      "lon": 1.308,
      "cp": "82370",
      "ville": "LA BASTIDE ST PIERRE",
      "prix": {
        "Gazole": 0.002178,
        "E85": 0.000825,
        "E10": 0.002139,
        "SP98": 0.002238
      },
      "maj_gouv": {
        "Gazole": "2026-05-21 23:50:00",
        "E85": "2026-05-18 23:50:00",
        "E10": "2026-05-19 23:50:00",
        "SP98": "2026-05-18 23:50:00"
      }
    },
    {
      "id": "82800002",
      "lat": 44.077,
      "lon": 1.571,
      "cp": "82800",
      "ville": "NEGREPELISSE",
      "prix": {
        "Gazole": 0.002149,
        "E10": 0.0021190000000000002,
        "SP98": 0.002179
      },
      "maj_gouv": {
        "Gazole": "2026-05-23 06:14:19",
        "E10": "2026-05-20 05:48:39",
        "SP98": "2026-05-20 05:48:39"
      }
    },
    {
      "id": "82170002",
      "lat": 43.813,
      "lon": 1.316,
      "cp": "82170",
      "ville": "POMPIGNAN",
      "prix": {
        "Gazole": 0.00209
      },
      "maj_gouv": {
        "Gazole": "2026-05-23 00:01:00"
      }
    },
    {
      "id": "82100007",
      "lat": 44.045,
      "lon": 1.115,
      "cp": "82100",
      "ville": "CASTELSARRASIN",
      "prix": {
        "Gazole": 0.00209,
        "E85": 0.000886,
        "E10": 0.00199
      },
      "maj_gouv": {
        "Gazole": "2026-05-23 09:13:10",
        "E85": "2026-05-23 09:13:10",
        "E10": "2026-05-23 09:13:10"
      }
    },
    {
      "id": "82100004",
      "lat": 44.061,
      "lon": 1.098,
      "cp": "82100",
      "ville": "Castelsarrasin",
      "prix": {
        "Gazole": 0.002097,
        "SP95": 0.002113,
        "E85": 0.000796,
        "E10": 0.00207,
        "SP98": 0.002137
      },
      "maj_gouv": {
        "Gazole": "2026-05-25 01:17:00",
        "SP95": "2026-05-25 01:17:00",
        "E85": "2026-05-25 01:17:00",
        "E10": "2026-05-25 01:17:00",
        "SP98": "2026-05-25 01:17:00"
      }
    },
    {
      "id": "82140003",
      "lat": 44.15,
      "lon": 1.749,
      "cp": "82140",
      "ville": "Saint-Antonin-Noble-Val",
      "prix": {
        "Gazole": 0.002129,
        "E10": 0.002079,
        "SP98": 0.002179
      },
      "maj_gouv": {
        "Gazole": "2026-05-20 13:47:32",
        "E10": "2026-05-20 13:47:32",
        "SP98": "2026-05-20 13:47:32"
      }
    },
    {
      "id": "82350001",
      "lat": 44.09,
      "lon": 1.447,
      "cp": "82350",
      "ville": "Albias",
      "prix": {
        "Gazole": 0.002139,
        "E10": 0.002099,
        "SP98": 0.002199
      },
      "maj_gouv": {
        "Gazole": "2026-05-22 17:55:11",
        "E10": "2026-05-22 17:55:11",
        "SP98": "2026-05-22 17:55:11"
      }
    },
    {
      "id": "82290002",
      "lat": 44.012,
      "lon": 1.287,
      "cp": "82290",
      "ville": "Montbeton",
      "prix": {
        "Gazole": 0.00216,
        "E85": 0.00116,
        "E10": 0.00212
      },
      "maj_gouv": {
        "Gazole": "2026-05-19 11:15:19",
        "E85": "2026-05-19 11:15:19",
        "E10": "2026-05-19 11:15:19"
      }
    },
    {
      "id": "82300005",
      "lat": 44.154819601911996,
      "lon": 1.5304675092927,
      "cp": "82300",
      "ville": "CAUSSADE",
      "prix": {
        "Gazole": 0.002129,
        "E85": 0.000798,
        "E10": 0.002079,
        "SP98": 0.002179
      },
      "maj_gouv": {
        "Gazole": "2026-05-18 09:10:00",
        "E85": "2026-05-22 10:00:00",
        "E10": "2026-05-18 09:10:00",
        "SP98": "2026-05-18 09:10:00"
      }
    },
    {
      "id": "82000006",
      "lat": 44.003462549649,
      "lon": 1.35560564736,
      "cp": "82000",
      "ville": "Montauban",
      "prix": {
        "Gazole": 0.002111,
        "E85": 0.0008179999999999999,
        "GPLc": 0.001049,
        "E10": 0.002079,
        "SP98": 0.0021669999999999997
      },
      "maj_gouv": {
        "Gazole": "2026-05-25 01:17:00",
        "E85": "2026-05-25 01:17:00",
        "GPLc": "2026-05-25 01:17:00",
        "E10": "2026-05-25 01:17:00",
        "SP98": "2026-05-25 01:17:00"
      }
    },
    {
      "id": "82700004",
      "lat": 43.914,
      "lon": 1.224,
      "cp": "82700",
      "ville": "Finhan",
      "prix": {
        "Gazole": 0.002249,
        "E10": 0.002099,
        "SP98": 0.0022589999999999997
      },
      "maj_gouv": {
        "Gazole": "2026-05-12 06:42:26",
        "E10": "2026-05-12 06:42:26",
        "SP98": "2026-05-12 06:42:26"
      }
    },
    {
      "id": "82200008",
      "lat": 44.119363006266,
      "lon": 1.1200459498617001,
      "cp": "82200",
      "ville": "MOISSAC",
      "prix": {
        "Gazole": 0.002099,
        "E85": 0.000798,
        "GPLc": 0.001089,
        "E10": 0.002049,
        "SP98": 0.002139
      },
      "maj_gouv": {
        "Gazole": "2026-05-13 09:45:58",
        "E85": "2026-05-22 07:54:38",
        "GPLc": "2026-04-13 10:42:32",
        "E10": "2026-05-19 10:23:33",
        "SP98": "2026-05-13 09:45:59"
      }
    },
    {
      "id": "82130002",
      "lat": 44.07564,
      "lon": 1.37073,
      "cp": "82130",
      "ville": "Lamothe-Capdeville",
      "prix": {
        "Gazole": 0.002139,
        "E10": 0.002099,
        "SP98": 0.002199
      },
      "maj_gouv": {
        "Gazole": "2026-05-22 17:55:40",
        "E10": "2026-05-22 17:55:40",
        "SP98": "2026-05-22 17:55:40"
      }
    },
    {
      "id": "82600004",
      "lat": 43.897,
      "lon": 1.134,
      "cp": "82600",
      "ville": "Saint-Sardos",
      "prix": {
        "Gazole": 0.0022,
        "E85": 0.00098,
        "E10": 0.00212
      },
      "maj_gouv": {
        "Gazole": "2026-05-19 11:20:29",
        "E85": "2026-04-28 11:51:41",
        "E10": "2026-05-19 11:20:29"
      }
    },
    {
      "id": "82170001",
      "lat": 43.8241,
      "lon": 1.28994,
      "cp": "82170",
      "ville": "Grisolles",
      "prix": {
        "Gazole": 0.002139,
        "SP95": 0.0021190000000000002,
        "SP98": 0.002199
      },
      "maj_gouv": {
        "Gazole": "2026-05-19 12:11:21",
        "SP95": "2026-05-19 12:11:21",
        "SP98": "2026-05-19 12:11:21"
      }
    },
    {
      "id": "82400006",
      "lat": 44.114,
      "lon": 0.851,
      "cp": "82400",
      "ville": "Golfech",
      "prix": {
        "Gazole": 0.00214,
        "E10": 0.00212,
        "SP98": 0.00228
      },
      "maj_gouv": {
        "Gazole": "2026-05-21 08:25:58",
        "E10": "2026-05-21 08:25:59",
        "SP98": "2026-05-21 08:25:59"
      }
    },
    {
      "id": "82150001",
      "lat": 44.337,
      "lon": 1.019,
      "cp": "82150",
      "ville": "Montaigu-de-Quercy",
      "prix": {
        "Gazole": 0.002157,
        "SP95": 0.00214,
        "SP98": 0.0022010000000000003
      },
      "maj_gouv": {
        "Gazole": "2026-05-20 18:28:53",
        "SP95": "2026-05-20 18:28:54",
        "SP98": "2026-05-20 18:28:54"
      }
    },
    {
      "id": "82210003",
      "lat": 44.06415,
      "lon": 1.02228,
      "cp": "82210",
      "ville": "Saint-Nicolas-de-la-Grave",
      "prix": {
        "Gazole": 0.002099,
        "SP95": 0.0021190000000000002,
        "SP98": 0.002189
      },
      "maj_gouv": {
        "Gazole": "2026-05-22 08:08:35",
        "SP95": "2026-05-22 08:08:35",
        "SP98": "2026-05-22 08:08:36"
      }
    },
    {
      "id": "82370005",
      "lat": 43.913071791656,
      "lon": 1.3682546190490998,
      "cp": "82370",
      "ville": "LABASTIDE ST PIERRE",
      "prix": {
        "Gazole": 0.002199,
        "SP95": 0.002085,
        "E85": 0.000795
      },
      "maj_gouv": {
        "Gazole": "2026-04-30 12:52:42",
        "SP95": "2026-05-21 10:46:39",
        "E85": "2026-05-18 11:24:12"
      }
    },
    {
      "id": "82130003",
      "lat": 44.125427426197,
      "lon": 1.2295896220207,
      "cp": "82130",
      "ville": "Lafrançaise",
      "prix": {
        "Gazole": 0.00212,
        "SP95": 0.00211,
        "SP98": 0.00219
      },
      "maj_gouv": {
        "Gazole": "2026-05-22 06:40:58",
        "SP95": "2026-05-22 06:40:58",
        "SP98": "2026-05-22 06:40:59"
      }
    },
    {
      "id": "82300004",
      "lat": 44.155515,
      "lon": 1.52676783,
      "cp": "82300",
      "ville": "CAUSSADE",
      "prix": {
        "Gazole": 0.002139,
        "E85": 0.000819,
        "E10": 0.002099,
        "SP98": 0.002199
      },
      "maj_gouv": {
        "Gazole": "2026-05-20 12:45:00",
        "E85": "2026-04-23 08:30:00",
        "E10": "2026-05-20 12:45:00",
        "SP98": "2026-05-20 11:39:24"
      }
    },
    {
      "id": "82100003",
      "lat": 44.04315,
      "lon": 1.10469,
      "cp": "82100",
      "ville": "Castelsarrasin",
      "prix": {
        "Gazole": 0.00209,
        "E85": 0.000885,
        "GPLc": 0.00111,
        "E10": 0.00199
      },
      "maj_gouv": {
        "Gazole": "2026-05-22 18:53:11",
        "E85": "2026-05-22 18:53:11",
        "GPLc": "2026-05-22 18:53:11",
        "E10": "2026-05-22 18:53:11"
      }
    },
    {
      "id": "82160001",
      "lat": 44.2778249504,
      "lon": 1.8577940301800002,
      "cp": "82160",
      "ville": "PARISOT",
      "prix": {
        "Gazole": 0.002146,
        "SP95": 0.00199
      },
      "maj_gouv": {
        "Gazole": "2026-05-22 11:14:36",
        "SP95": "2026-05-22 11:14:36"
      }
    },
    {
      "id": "82200001",
      "lat": 44.11,
      "lon": 1.103,
      "cp": "82200",
      "ville": "Moissac",
      "prix": {
        "Gazole": 0.00209,
        "E85": 0.000862,
        "E10": 0.00199,
        "SP98": 0.00199
      },
      "maj_gouv": {
        "Gazole": "2026-05-23 08:42:16",
        "E85": "2026-05-23 08:42:17",
        "E10": "2026-05-23 08:42:17",
        "SP98": "2026-05-23 08:42:17"
      }
    },
    {
      "id": "82200010",
      "lat": 44.09100599999999,
      "lon": 1.087072,
      "cp": "82200",
      "ville": "MOISSAC",
      "prix": {
        "Gazole": 0.002195,
        "E10": 0.002059,
        "SP98": 0.002155
      },
      "maj_gouv": {
        "Gazole": "2026-05-18 12:35:29",
        "E10": "2026-05-18 12:35:29",
        "SP98": "2026-05-18 12:35:29"
      }
    },
    {
      "id": "82000015",
      "lat": 44.004,
      "lon": 1.341,
      "cp": "82000",
      "ville": "MONTAUBAN",
      "prix": {
        "Gazole": 0.00209,
        "E85": 0.000869
      },
      "maj_gouv": {
        "Gazole": "2026-05-25 00:01:00",
        "E85": "2026-05-25 00:01:00"
      }
    },
    {
      "id": "82017001",
      "lat": 44.029,
      "lon": 1.37,
      "cp": "82000",
      "ville": "MONTAUBAN",
      "prix": {
        "Gazole": 0.002111,
        "GPLc": 0.001049,
        "E10": 0.002079,
        "SP98": 0.002145
      },
      "maj_gouv": {
        "Gazole": "2026-05-23 09:39:54",
        "GPLc": "2026-05-23 09:39:54",
        "E10": "2026-05-23 09:39:54",
        "SP98": "2026-05-23 09:39:54"
      }
    },
    {
      "id": "82370001",
      "lat": 43.917,
      "lon": 1.369,
      "cp": "82370",
      "ville": "Labastide-Saint-Pierre",
      "prix": {
        "Gazole": 0.002115,
        "E10": 0.002099,
        "SP98": 0.002199
      },
      "maj_gouv": {
        "Gazole": "2026-05-21 10:42:26",
        "E10": "2026-05-22 14:31:47",
        "SP98": "2026-05-22 14:31:47"
      }
    },
    {
      "id": "82400003",
      "lat": 44.11,
      "lon": 0.882,
      "cp": "82400",
      "ville": "VALENCE D'AGEN",
      "prix": {
        "Gazole": 0.002094,
        "E85": 0.000798,
        "GPLc": 0.000959,
        "E10": 0.00202,
        "SP98": 0.002129
      },
      "maj_gouv": {
        "Gazole": "2026-05-23 08:39:40",
        "E85": "2026-05-15 10:18:18",
        "GPLc": "2026-05-21 10:08:56",
        "E10": "2026-05-18 11:53:46",
        "SP98": "2026-05-21 10:03:03"
      }
    }
  ]
}