{
  "departement": "64",
  "date": "2026-05-11",
  "stations": [
    {
      "id": "64500006",
      "lat": 43.382,
      "lon": -1.649,
      "cp": "64500",
      "ville": "Saint-Jean-de-Luz",
      "prix": {},
      "maj_gouv": {}
    },
    {
      "id": "64330001",
      "lat": 43.557,
      "lon": -0.284,
      "cp": "64330",
      "ville": "GARLIN",
      "prix": {
        "Gazole": 0.002196,
        "E85": 0.0008179999999999999,
        "E10": 0.002019,
        "SP98": 0.002196
      },
      "maj_gouv": {
        "Gazole": "2026-05-10 11:55:22",
        "E85": "2026-05-10 11:55:22",
        "E10": "2026-05-10 11:55:22",
        "SP98": "2026-05-10 11:55:22"
      }
    },
    {
      "id": "64100010",
      "lat": 43.483,
      "lon": -1.488,
      "cp": "64100",
      "ville": "Bayonne",
      "prix": {
        "Gazole": 0.002179,
        "SP95": 0.002096,
        "SP98": 0.002179
      },
      "maj_gouv": {
        "Gazole": "2026-05-07 09:59:40",
        "SP95": "2026-05-07 09:59:40",
        "SP98": "2026-05-07 09:59:40"
      }
    },
    {
      "id": "64520001",
      "lat": 43.482,
      "lon": -1.144,
      "cp": "64520",
      "ville": "BIDACHE",
      "prix": {
        "Gazole": 0.00225,
        "SP95": 0.00199
      },
      "maj_gouv": {
        "Gazole": "2026-04-08 08:50:28",
        "SP95": "2026-03-09 20:13:28"
      }
    },
    {
      "id": "64150008",
      "lat": 43.385654130567,
      "lon": -0.61129551817699,
      "cp": "64150",
      "ville": "OS MARSILLON",
      "prix": {
        "Gazole": 0.002185,
        "SP95": 0.002033,
        "SP98": 0.002113
      },
      "maj_gouv": {
        "Gazole": "2026-05-09 19:00:00",
        "SP95": "2026-05-09 19:00:00",
        "SP98": "2026-05-09 19:00:00"
      }
    },
    {
      "id": "64210005",
      "lat": 43.42214,
      "lon": -1.5976,
      "cp": "64210",
      "ville": "BIDART",
      "prix": {
        "Gazole": 0.00225,
        "E85": 0.000998,
        "GPLc": 0.001089,
        "E10": 0.00199,
        "SP98": 0.00199
      },
      "maj_gouv": {
        "Gazole": "2026-05-11 00:01:00",
        "E85": "2026-05-11 00:01:00",
        "GPLc": "2026-05-11 00:01:00",
        "E10": "2026-05-11 00:01:00",
        "SP98": "2026-05-11 00:01:00"
      }
    },
    {
      "id": "64000009",
      "lat": 43.317,
      "lon": -0.356,
      "cp": "64000",
      "ville": "PAU",
      "prix": {
        "Gazole": 0.002169,
        "SP95": 0.002099,
        "E85": 0.000768,
        "E10": 0.002029,
        "SP98": 0.002115
      },
      "maj_gouv": {
        "Gazole": "2026-05-11 01:16:00",
        "SP95": "2026-05-11 01:16:00",
        "E85": "2026-05-11 01:16:00",
        "E10": "2026-05-11 01:16:00",
        "SP98": "2026-05-11 01:16:00"
      }
    },
    {
      "id": "64240005",
      "lat": 43.49396204,
      "lon": -1.29340512,
      "cp": "64240",
      "ville": "URT",
      "prix": {
        "Gazole": 0.002214,
        "SP95": 0.002089,
        "SP98": 0.002144
      },
      "maj_gouv": {
        "Gazole": "2026-05-09 09:56:35",
        "SP95": "2026-05-09 09:56:35",
        "SP98": "2026-05-09 09:56:35"
      }
    },
    {
      "id": "64500003",
      "lat": 43.403,
      "lon": -1.627,
      "cp": "64500",
      "ville": "SAINT-JEAN-DE-LUZ",
      "prix": {
        "Gazole": 0.002091,
        "SP95": 0.002061,
        "E85": 0.000815,
        "GPLc": 0.000999,
        "E10": 0.002005,
        "SP98": 0.00214
      },
      "maj_gouv": {
        "Gazole": "2026-05-11 00:42:00",
        "SP95": "2026-05-11 00:42:00",
        "E85": "2026-05-11 00:42:00",
        "GPLc": "2026-04-23 00:40:00",
        "E10": "2026-05-11 00:42:00",
        "SP98": "2026-05-11 00:42:00"
      }
    },
    {
      "id": "64240004",
      "lat": 43.385,
      "lon": -1.297,
      "cp": "64240",
      "ville": "HASPARREN",
      "prix": {
        "Gazole": 0.0023490000000000004,
        "SP95": 0.002199,
        "E85": 0.000909,
        "SP98": 0.0022389999999999997
      },
      "maj_gouv": {
        "Gazole": "2026-05-07 10:07:42",
        "SP95": "2026-05-07 10:07:42",
        "E85": "2026-03-30 09:00:40",
        "SP98": "2026-05-05 14:34:42"
      }
    },
    {
      "id": "64000016",
      "lat": 43.3186488,
      "lon": -0.37831660000000006,
      "cp": "64000",
      "ville": "PAU",
      "prix": {
        "Gazole": 0.002091,
        "E85": 0.0008489999999999999,
        "GPLc": 0.001049,
        "E10": 0.00199,
        "SP98": 0.00199
      },
      "maj_gouv": {
        "Gazole": "2026-05-11 00:01:00",
        "E85": "2026-05-11 00:01:00",
        "GPLc": "2026-05-11 00:01:00",
        "E10": "2026-05-11 00:01:00",
        "SP98": "2026-05-11 00:01:00"
      }
    },
    {
      "id": "64440002",
      "lat": 42.99129,
      "lon": -0.42454,
      "cp": "64440",
      "ville": "LARUNS",
      "prix": {
        "Gazole": 0.0021880000000000003,
        "SP95": 0.002088,
        "E10": 0.002034
      },
      "maj_gouv": {
        "Gazole": "2026-05-07 14:05:27",
        "SP95": "2026-05-07 14:05:28",
        "E10": "2026-05-07 14:05:28"
      }
    },
    {
      "id": "64190004",
      "lat": 43.32,
      "lon": -0.755,
      "cp": "64190",
      "ville": "Navarrenx",
      "prix": {
        "Gazole": 0.002245,
        "SP95": 0.00215,
        "SP98": 0.00225
      },
      "maj_gouv": {
        "Gazole": "2026-04-25 11:42:08",
        "SP95": "2026-04-25 11:42:08",
        "SP98": "2026-04-25 11:42:08"
      }
    },
    {
      "id": "64210006",
      "lat": 43.42244,
      "lon": -1.59844,
      "cp": "64210",
      "ville": "BIDART",
      "prix": {
        "Gazole": 0.00225,
        "E85": 0.000998,
        "GPLc": 0.001089,
        "E10": 0.00199,
        "SP98": 0.00199
      },
      "maj_gouv": {
        "Gazole": "2026-05-11 00:01:00",
        "E85": "2026-05-11 00:01:00",
        "GPLc": "2026-05-11 00:01:00",
        "E10": "2026-05-11 00:01:00",
        "SP98": "2026-05-11 00:01:00"
      }
    },
    {
      "id": "64520002",
      "lat": 43.48409,
      "lon": -1.13843,
      "cp": "64520",
      "ville": "BIDACHE",
      "prix": {
        "Gazole": 0.0022389999999999997,
        "SP95": 0.002069,
        "E10": 0.002069
      },
      "maj_gouv": {
        "Gazole": "2026-04-29 09:00:22",
        "SP95": "2026-04-29 09:00:44",
        "E10": "2026-05-06 09:03:40"
      }
    },
    {
      "id": "64400005",
      "lat": 43.181,
      "lon": -0.615,
      "cp": "64400",
      "ville": "Oloron-Sainte-Marie",
      "prix": {
        "Gazole": 0.002185,
        "E10": 0.0020299999999999997,
        "SP98": 0.002143
      },
      "maj_gouv": {
        "Gazole": "2026-05-07 11:02:22",
        "E10": "2026-05-07 11:02:22",
        "SP98": "2026-05-07 11:02:23"
      }
    },
    {
      "id": "64200006",
      "lat": 43.464,
      "lon": -1.539,
      "cp": "64200",
      "ville": "Biarritz",
      "prix": {
        "Gazole": 0.002029,
        "E85": 0.00079,
        "E10": 0.0019590000000000002,
        "SP98": 0.0020440000000000002
      },
      "maj_gouv": {
        "Gazole": "2026-05-09 10:13:49",
        "E85": "2026-04-21 09:50:11",
        "E10": "2026-05-09 10:13:49",
        "SP98": "2026-05-09 10:13:49"
      }
    },
    {
      "id": "64390002",
      "lat": 43.401,
      "lon": -0.948,
      "cp": "64390",
      "ville": "SAUVETERRE-DE-BéARN",
      "prix": {
        "Gazole": 0.002219,
        "SP95": 0.0021190000000000002,
        "E10": 0.0020819999999999996
      },
      "maj_gouv": {
        "Gazole": "2026-05-06 08:28:44",
        "SP95": "2026-05-06 08:28:44",
        "E10": "2026-05-06 08:28:44"
      }
    },
    {
      "id": "64430001",
      "lat": 43.183,
      "lon": -1.335,
      "cp": "64430",
      "ville": "Saint-Étienne-de-Baïgorry",
      "prix": {
        "Gazole": 0.00217,
        "E10": 0.001964,
        "SP98": 0.0020870000000000003
      },
      "maj_gouv": {
        "Gazole": "2026-05-02 07:38:52",
        "E10": "2026-04-09 08:22:11",
        "SP98": "2026-04-09 08:22:21"
      }
    },
    {
      "id": "64120005",
      "lat": 43.3324985,
      "lon": -1.0161424000000001,
      "cp": "64120",
      "ville": "Aïcirits-Camou-Suhast",
      "prix": {
        "Gazole": 0.002179,
        "SP95": 0.002079,
        "E85": 0.000838,
        "E10": 0.002049
      },
      "maj_gouv": {
        "Gazole": "2026-05-07 09:54:09",
        "SP95": "2026-05-07 09:54:09",
        "E85": "2026-05-04 09:06:05",
        "E10": "2026-05-07 09:54:09"
      }
    },
    {
      "id": "64300002",
      "lat": 43.49,
      "lon": -0.787,
      "cp": "64300",
      "ville": "ORTHEZ",
      "prix": {
        "Gazole": 0.00209,
        "E85": 0.000963
      },
      "maj_gouv": {
        "Gazole": "2026-05-09 08:41:33",
        "E85": "2026-05-09 08:41:33"
      }
    },
    {
      "id": "64160001",
      "lat": 43.351,
      "lon": -0.263,
      "cp": "64160",
      "ville": "MORLAàS",
      "prix": {
        "Gazole": 0.00222,
        "E85": 0.000859,
        "E10": 0.002033,
        "SP98": 0.002144
      },
      "maj_gouv": {
        "Gazole": "2026-05-07 12:45:08",
        "E85": "2026-05-07 12:45:09",
        "E10": "2026-05-07 12:45:09",
        "SP98": "2026-05-07 12:45:09"
      }
    },
    {
      "id": "64200008",
      "lat": 43.46,
      "lon": -1.548,
      "cp": "64200",
      "ville": "BIARRITZ",
      "prix": {
        "Gazole": 0.002129,
        "E10": 0.002009,
        "SP98": 0.002139
      },
      "maj_gouv": {
        "Gazole": "2026-05-09 12:53:59",
        "E10": "2026-05-09 12:53:59",
        "SP98": "2026-05-09 12:53:59"
      }
    },
    {
      "id": "64800005",
      "lat": 43.1749,
      "lon": -0.23574,
      "cp": "64800",
      "ville": "COARRAZE",
      "prix": {
        "Gazole": 0.002216,
        "SP95": 0.0020710000000000004,
        "E10": 0.0020150000000000003,
        "SP98": 0.002127
      },
      "maj_gouv": {
        "Gazole": "2026-05-02 14:40:00",
        "SP95": "2026-04-30 14:48:02",
        "E10": "2026-05-02 14:40:00",
        "SP98": "2026-05-02 14:40:00"
      }
    },
    {
      "id": "64600007",
      "lat": 43.492,
      "lon": -1.533,
      "cp": "64600",
      "ville": "ANGLET",
      "prix": {
        "Gazole": 0.002091,
        "E85": 0.000859,
        "E10": 0.00199,
        "SP98": 0.00199
      },
      "maj_gouv": {
        "Gazole": "2026-05-11 00:01:00",
        "E85": "2026-05-11 00:01:00",
        "E10": "2026-05-11 00:01:00",
        "SP98": "2026-05-11 00:01:00"
      }
    },
    {
      "id": "64160003",
      "lat": 43.347,
      "lon": -0.254,
      "cp": "64160",
      "ville": "Morlaàs",
      "prix": {
        "Gazole": 0.002213,
        "E10": 0.002033,
        "SP98": 0.002144
      },
      "maj_gouv": {
        "Gazole": "2026-05-06 15:14:02",
        "E10": "2026-05-06 15:14:02",
        "SP98": "2026-05-06 15:14:02"
      }
    },
    {
      "id": "64290001",
      "lat": 43.218,
      "lon": -0.384,
      "cp": "64290",
      "ville": "GAN",
      "prix": {
        "Gazole": 0.002199,
        "E85": 0.00079,
        "E10": 0.002099,
        "SP98": 0.002159
      },
      "maj_gouv": {
        "Gazole": "2026-05-07 15:30:08",
        "E85": "2026-05-07 15:30:08",
        "E10": "2026-05-07 15:30:08",
        "SP98": "2026-05-07 15:30:08"
      }
    },
    {
      "id": "64600009",
      "lat": 43.484,
      "lon": -1.501,
      "cp": "64600",
      "ville": "Anglet",
      "prix": {
        "Gazole": 0.002085,
        "E10": 0.0019890000000000003,
        "SP98": 0.002065
      },
      "maj_gouv": {
        "Gazole": "2026-05-09 11:09:43",
        "E10": "2026-05-09 11:09:43",
        "SP98": "2026-05-09 11:09:43"
      }
    },
    {
      "id": "64800007",
      "lat": 43.186,
      "lon": -0.24,
      "cp": "64800",
      "ville": "Bénéjacq",
      "prix": {
        "Gazole": 0.002249,
        "SP95": 0.002099,
        "E10": 0.00206,
        "SP98": 0.002149
      },
      "maj_gouv": {
        "Gazole": "2026-05-05 09:52:46",
        "SP95": "2026-05-05 09:52:46",
        "E10": "2026-05-05 09:52:46",
        "SP98": "2026-05-05 09:52:47"
      }
    },
    {
      "id": "64000001",
      "lat": 43.305,
      "lon": -0.33,
      "cp": "64000",
      "ville": "Pau",
      "prix": {
        "Gazole": 0.002179,
        "E85": 0.000768,
        "GPLc": 0.001059,
        "E10": 0.002027,
        "SP98": 0.002118
      },
      "maj_gouv": {
        "Gazole": "2026-05-04 09:50:30",
        "E85": "2026-05-04 09:50:30",
        "GPLc": "2026-04-30 09:50:29",
        "E10": "2026-05-06 10:13:48",
        "SP98": "2026-05-04 09:50:31"
      }
    },
    {
      "id": "64100014",
      "lat": 43.50489,
      "lon": -1.46719,
      "cp": "64100",
      "ville": "BAYONNE",
      "prix": {
        "Gazole": 0.002091,
        "E85": 0.000851
      },
      "maj_gouv": {
        "Gazole": "2026-05-11 00:01:00",
        "E85": "2026-05-11 00:01:00"
      }
    },
    {
      "id": "64800003",
      "lat": 43.157,
      "lon": -0.23,
      "cp": "64800",
      "ville": "IGON",
      "prix": {
        "Gazole": 0.00225
      },
      "maj_gouv": {
        "Gazole": "2026-04-13 13:22:33"
      }
    },
    {
      "id": "64140006",
      "lat": 43.319,
      "lon": -0.379,
      "cp": "64140",
      "ville": "Lons",
      "prix": {
        "Gazole": 0.002199,
        "E85": 0.0008179999999999999
      },
      "maj_gouv": {
        "Gazole": "2026-05-04 13:35:19",
        "E85": "2026-05-04 13:35:20"
      }
    },
    {
      "id": "64420001",
      "lat": 43.27,
      "lon": -0.201,
      "cp": "64420",
      "ville": "NOUSTY",
      "prix": {
        "Gazole": 0.002249,
        "SP95": 0.002099,
        "E85": 0.000819,
        "E10": 0.00206,
        "SP98": 0.002149
      },
      "maj_gouv": {
        "Gazole": "2026-05-06 09:02:38",
        "SP95": "2026-05-06 09:02:39",
        "E85": "2026-04-18 11:13:52",
        "E10": "2026-05-06 09:02:39",
        "SP98": "2026-05-06 09:02:39"
      }
    },
    {
      "id": "64121003",
      "lat": 43.354,
      "lon": -0.38,
      "cp": "64121",
      "ville": "Montardon",
      "prix": {},
      "maj_gouv": {}
    },
    {
      "id": "64121004",
      "lat": 43.376,
      "lon": -0.38,
      "cp": "64121",
      "ville": "Serres-Castet",
      "prix": {
        "Gazole": 0.002219,
        "GPLc": 0.001159,
        "E10": 0.002055,
        "SP98": 0.002169
      },
      "maj_gouv": {
        "Gazole": "2026-05-05 08:07:20",
        "GPLc": "2026-05-04 08:30:00",
        "E10": "2026-05-06 07:58:48",
        "SP98": "2026-05-06 07:58:48"
      }
    },
    {
      "id": "64990001",
      "lat": 43.478,
      "lon": -1.457,
      "cp": "64990",
      "ville": "SAINT-PIERRE-D'IRUBE",
      "prix": {
        "Gazole": 0.00209,
        "E10": 0.00199,
        "SP98": 0.00199
      },
      "maj_gouv": {
        "Gazole": "2026-05-09 10:58:46",
        "E10": "2026-05-09 10:58:46",
        "SP98": "2026-05-09 10:58:46"
      }
    },
    {
      "id": "64400003",
      "lat": 43.1973594487,
      "lon": -0.617139056977,
      "cp": "64400",
      "ville": "OLORON-SAINTE-MARIE",
      "prix": {
        "Gazole": 0.002179,
        "SP95": 0.002075,
        "E85": 0.000789,
        "E10": 0.00199
      },
      "maj_gouv": {
        "Gazole": "2026-05-07 08:31:06",
        "SP95": "2026-05-06 08:25:17",
        "E85": "2026-05-06 08:25:17",
        "E10": "2026-05-02 08:37:55"
      }
    },
    {
      "id": "64320003",
      "lat": 43.295,
      "lon": -0.322,
      "cp": "64320",
      "ville": "IDRON",
      "prix": {
        "Gazole": 0.002189,
        "E10": 0.002089,
        "SP98": 0.0021349999999999997
      },
      "maj_gouv": {
        "Gazole": "2026-05-07 12:55:44",
        "E10": "2026-05-07 12:55:45",
        "SP98": "2026-05-07 12:55:45"
      }
    },
    {
      "id": "64230006",
      "lat": 43.346495316027,
      "lon": -0.47879722090508003,
      "cp": "64230",
      "ville": "POEY-DE-LESCAR",
      "prix": {
        "Gazole": 0.002229,
        "SP95": 0.00209,
        "SP98": 0.002159
      },
      "maj_gouv": {
        "Gazole": "2026-05-05 08:17:03",
        "SP95": "2026-05-05 08:17:03",
        "SP98": "2026-05-05 08:17:03"
      }
    },
    {
      "id": "64100009",
      "lat": 43.491699413999996,
      "lon": -1.45279168155,
      "cp": "64100",
      "ville": "BAYONNE",
      "prix": {
        "Gazole": 0.0021669999999999997,
        "E85": 0.000819,
        "E10": 0.002013,
        "SP98": 0.002125
      },
      "maj_gouv": {
        "Gazole": "2026-05-08 09:33:29",
        "E85": "2026-04-20 08:57:15",
        "E10": "2026-05-08 09:33:29",
        "SP98": "2026-05-08 09:33:29"
      }
    },
    {
      "id": "64370001",
      "lat": 43.476,
      "lon": -0.613,
      "cp": "64370",
      "ville": "Arthez-de-Béarn",
      "prix": {
        "Gazole": 0.002229,
        "SP95": 0.002099,
        "SP98": 0.002109
      },
      "maj_gouv": {
        "Gazole": "2026-05-05 09:49:52",
        "SP95": "2026-05-05 09:49:52",
        "SP98": "2026-05-05 09:49:52"
      }
    },
    {
      "id": "64120004",
      "lat": 43.327,
      "lon": -1.033,
      "cp": "64120",
      "ville": "Amendeuix-Oneix",
      "prix": {
        "Gazole": 0.002179,
        "SP95": 0.002079,
        "E10": 0.002049,
        "SP98": 0.002179
      },
      "maj_gouv": {
        "Gazole": "2026-05-07 11:04:46",
        "SP95": "2026-05-07 11:04:46",
        "E10": "2026-05-07 11:04:46",
        "SP98": "2026-05-04 16:18:15"
      }
    },
    {
      "id": "64000011",
      "lat": 43.319,
      "lon": -0.347,
      "cp": "64000",
      "ville": "PAU",
      "prix": {
        "Gazole": 0.002218,
        "E85": 0.0008179999999999999,
        "E10": 0.002039,
        "SP98": 0.0020800000000000003
      },
      "maj_gouv": {
        "Gazole": "2026-05-05 08:34:00",
        "E85": "2026-04-29 08:30:00",
        "E10": "2026-05-05 14:03:09",
        "SP98": "2026-04-30 08:30:00"
      }
    },
    {
      "id": "64300005",
      "lat": 43.48,
      "lon": -0.748,
      "cp": "64300",
      "ville": "Orthez",
      "prix": {
        "Gazole": 0.002199,
        "E85": 0.000839,
        "E10": 0.002048,
        "SP98": 0.002085
      },
      "maj_gouv": {
        "Gazole": "2026-05-05 08:48:18",
        "E85": "2026-04-22 08:02:04",
        "E10": "2026-05-05 08:48:18",
        "SP98": "2026-05-06 08:51:41"
      }
    },
    {
      "id": "64310001",
      "lat": 43.359,
      "lon": -1.575,
      "cp": "64310",
      "ville": "SAINT-PEE-SUR-NIVELLE",
      "prix": {
        "Gazole": 0.002169,
        "E85": 0.000819,
        "E10": 0.001999,
        "SP98": 0.002079
      },
      "maj_gouv": {
        "Gazole": "2026-05-06 11:43:26",
        "E85": "2026-04-16 16:16:47",
        "E10": "2026-05-04 11:03:21",
        "SP98": "2026-05-06 11:43:27"
      }
    },
    {
      "id": "64130003",
      "lat": 43.23,
      "lon": -0.874,
      "cp": "64130",
      "ville": "Chéraute",
      "prix": {
        "Gazole": 0.002199,
        "SP95": 0.002076,
        "E85": 0.0008179999999999999,
        "E10": 0.002021,
        "SP98": 0.00213
      },
      "maj_gouv": {
        "Gazole": "2026-05-07 11:54:50",
        "SP95": "2026-05-07 11:54:50",
        "E85": "2026-04-24 11:07:37",
        "E10": "2026-05-07 11:54:50",
        "SP98": "2026-05-07 11:54:50"
      }
    },
    {
      "id": "64500005",
      "lat": 43.401559341893,
      "lon": -1.6332701136,
      "cp": "64500",
      "ville": "Saint-Jean-de-Luz",
      "prix": {
        "Gazole": 0.002159,
        "SP95": 0.002059,
        "E10": 0.002019,
        "SP98": 0.002099
      },
      "maj_gouv": {
        "Gazole": "2026-05-11 01:17:00",
        "SP95": "2026-05-11 01:17:00",
        "E10": "2026-05-11 01:17:00",
        "SP98": "2026-05-11 01:17:00"
      }
    },
    {
      "id": "64150003",
      "lat": 43.367,
      "lon": -0.581,
      "cp": "64150",
      "ville": "Pardies",
      "prix": {
        "Gazole": 0.002197,
        "E85": 0.000909,
        "E10": 0.00199
      },
      "maj_gouv": {
        "Gazole": "2026-05-07 08:47:43",
        "E85": "2026-04-14 10:44:43",
        "E10": "2026-04-21 14:10:00"
      }
    },
    {
      "id": "64103001",
      "lat": 43.505,
      "lon": -1.444,
      "cp": "64100",
      "ville": "BAYONNE",
      "prix": {
        "Gazole": 0.002132,
        "SP95": 0.002142,
        "E10": 0.002022,
        "SP98": 0.002095
      },
      "maj_gouv": {
        "Gazole": "2026-05-11 01:16:00",
        "SP95": "2026-05-11 01:16:00",
        "E10": "2026-05-11 01:16:00",
        "SP98": "2026-05-11 01:16:00"
      }
    },
    {
      "id": "64210004",
      "lat": 43.44745,
      "lon": -1.57436,
      "cp": "64210",
      "ville": "Bidart",
      "prix": {
        "Gazole": 0.002159,
        "SP95": 0.002059,
        "E85": 0.000819,
        "E10": 0.002019,
        "SP98": 0.002099
      },
      "maj_gouv": {
        "Gazole": "2026-05-07 14:16:25",
        "SP95": "2026-05-06 09:37:47",
        "E85": "2026-04-16 08:07:57",
        "E10": "2026-05-07 14:16:25",
        "SP98": "2026-05-05 08:55:04"
      }
    },
    {
      "id": "64600002",
      "lat": 43.486,
      "lon": -1.501,
      "cp": "64600",
      "ville": "Anglet",
      "prix": {
        "Gazole": 0.00215,
        "E85": 0.000855,
        "GPLc": 0.000999,
        "E10": 0.0020350000000000004,
        "SP98": 0.002105
      },
      "maj_gouv": {
        "Gazole": "2026-05-08 08:28:17",
        "E85": "2026-05-04 08:58:51",
        "GPLc": "2026-05-05 12:20:02",
        "E10": "2026-05-08 08:28:18",
        "SP98": "2026-05-08 08:28:18"
      }
    },
    {
      "id": "64140004",
      "lat": 43.304,
      "lon": -0.4,
      "cp": "64140",
      "ville": "Billère",
      "prix": {
        "Gazole": 0.0021880000000000003,
        "E85": 0.0008179999999999999,
        "E10": 0.002045,
        "SP98": 0.0021019999999999997
      },
      "maj_gouv": {
        "Gazole": "2026-05-04 10:40:21",
        "E85": "2026-05-04 10:40:21",
        "E10": "2026-05-04 10:40:21",
        "SP98": "2026-05-04 10:40:21"
      }
    },
    {
      "id": "64170012",
      "lat": 43.421426,
      "lon": -0.598996,
      "cp": "64170",
      "ville": "LACQ AUDEJOS SUD",
      "prix": {
        "Gazole": 0.002399,
        "E85": 0.001049,
        "GPLc": 0.001149,
        "E10": 0.002269,
        "SP98": 0.002369
      },
      "maj_gouv": {
        "Gazole": "2026-05-11 00:01:00",
        "E85": "2026-05-11 00:01:00",
        "GPLc": "2026-05-11 00:01:00",
        "E10": "2026-05-11 00:01:00",
        "SP98": "2026-05-11 00:01:00"
      }
    },
    {
      "id": "64170013",
      "lat": 43.418747,
      "lon": -0.584483,
      "cp": "64170",
      "ville": "LACQ AUDEJOS NORD - ARTIX",
      "prix": {
        "Gazole": 0.002399,
        "E10": 0.002269,
        "SP98": 0.002369
      },
      "maj_gouv": {
        "Gazole": "2026-05-11 00:01:00",
        "E10": "2026-05-11 00:01:00",
        "SP98": "2026-05-11 00:01:00"
      }
    },
    {
      "id": "64270001",
      "lat": 43.475,
      "lon": -0.913,
      "cp": "64270",
      "ville": "SALIES-DE-BéARN",
      "prix": {
        "Gazole": 0.00209
      },
      "maj_gouv": {
        "Gazole": "2026-05-09 08:12:33"
      }
    },
    {
      "id": "64360000",
      "lat": 43.336,
      "lon": -0.583,
      "cp": "64360",
      "ville": "Monein",
      "prix": {
        "Gazole": 0.002199,
        "SP95": 0.002099,
        "SP98": 0.002149
      },
      "maj_gouv": {
        "Gazole": "2026-05-07 12:30:00",
        "SP95": "2026-05-07 12:30:00",
        "SP98": "2026-05-07 12:30:00"
      }
    },
    {
      "id": "64700001",
      "lat": 43.347,
      "lon": -1.766,
      "cp": "64700",
      "ville": "HENDAYE",
      "prix": {
        "Gazole": 0.00225,
        "E10": 0.00199
      },
      "maj_gouv": {
        "Gazole": "2026-05-11 00:01:00",
        "E10": "2026-03-30 09:46:22"
      }
    },
    {
      "id": "64120001",
      "lat": 43.331,
      "lon": -1.039,
      "cp": "64120",
      "ville": "Amendeuix-Oneix",
      "prix": {
        "Gazole": 0.00225,
        "E10": 0.00199,
        "SP98": 0.00199
      },
      "maj_gouv": {
        "Gazole": "2026-05-11 00:01:00",
        "E10": "2026-04-21 07:40:27",
        "SP98": "2026-04-21 07:40:27"
      }
    },
    {
      "id": "64000015",
      "lat": 43.323,
      "lon": -0.368,
      "cp": "64000",
      "ville": "PAU",
      "prix": {
        "Gazole": 0.002144
      },
      "maj_gouv": {
        "Gazole": "2026-05-11 00:01:00"
      }
    },
    {
      "id": "64140005",
      "lat": 43.306,
      "lon": -0.403,
      "cp": "64140",
      "ville": "BILLERE",
      "prix": {
        "Gazole": 0.002145,
        "GPLc": 0.001089
      },
      "maj_gouv": {
        "Gazole": "2026-05-11 00:01:00",
        "GPLc": "2026-05-11 00:01:00"
      }
    },
    {
      "id": "64230004",
      "lat": 43.436444,
      "lon": -0.4664254,
      "cp": "64230",
      "ville": "MAZEROLLES",
      "prix": {
        "Gazole": 0.002128,
        "SP98": 0.00199
      },
      "maj_gouv": {
        "Gazole": "2026-05-11 00:01:00",
        "SP98": "2026-05-11 00:01:00"
      }
    },
    {
      "id": "64320005",
      "lat": 43.303805476815995,
      "lon": -0.32323738530372,
      "cp": "64320",
      "ville": "BIZANOS",
      "prix": {
        "GPLc": 0.001059
      },
      "maj_gouv": {
        "GPLc": "2026-05-11 00:01:00"
      }
    },
    {
      "id": "64400002",
      "lat": 43.19072,
      "lon": -0.61765,
      "cp": "64400",
      "ville": "Oloron-Sainte-Marie",
      "prix": {
        "Gazole": 0.00209,
        "E85": 0.000874,
        "GPLc": 0.0011899999999999999,
        "E10": 0.00199,
        "SP98": 0.00199
      },
      "maj_gouv": {
        "Gazole": "2026-05-08 08:31:19",
        "E85": "2026-04-28 06:39:47",
        "GPLc": "2026-04-01 09:47:26",
        "E10": "2026-04-21 07:05:39",
        "SP98": "2026-04-24 16:01:01"
      }
    },
    {
      "id": "64990002",
      "lat": 43.487,
      "lon": -1.357,
      "cp": "64990",
      "ville": "URCUIT",
      "prix": {
        "Gazole": 0.002198,
        "SP95": 0.002088,
        "E10": 0.002054,
        "SP98": 0.0021469999999999996
      },
      "maj_gouv": {
        "Gazole": "2026-05-04 13:41:28",
        "SP95": "2026-05-04 13:41:28",
        "E10": "2026-05-04 13:41:28",
        "SP98": "2026-05-04 13:41:28"
      }
    },
    {
      "id": "64233001",
      "lat": 43.318,
      "lon": -0.424,
      "cp": "64230",
      "ville": "LESCAR",
      "prix": {
        "Gazole": 0.002112,
        "SP95": 0.00207,
        "E85": 0.000759,
        "E10": 0.002009,
        "SP98": 0.00215
      },
      "maj_gouv": {
        "Gazole": "2026-05-11 00:42:00",
        "SP95": "2026-05-11 00:42:00",
        "E85": "2026-05-11 00:42:00",
        "E10": "2026-05-11 00:42:00",
        "SP98": "2026-05-11 00:42:00"
      }
    },
    {
      "id": "64470001",
      "lat": 43.121,
      "lon": -0.867,
      "cp": "64470",
      "ville": "TARDETS-SORHOLUS",
      "prix": {
        "SP95": 0.00199,
        "SP98": 0.00199
      },
      "maj_gouv": {
        "SP95": "2026-05-04 08:10:46",
        "SP98": "2026-05-04 08:10:46"
      }
    },
    {
      "id": "64410001",
      "lat": 43.536,
      "lon": -0.41,
      "cp": "64410",
      "ville": "ARZACQARRAZIGUET",
      "prix": {
        "Gazole": 0.0022389999999999997,
        "SP95": 0.0021000000000000003,
        "SP98": 0.002182
      },
      "maj_gouv": {
        "Gazole": "2026-05-07 10:34:13",
        "SP95": "2026-05-07 10:34:13",
        "SP98": "2026-05-07 10:34:14"
      }
    },
    {
      "id": "64270002",
      "lat": 43.47492,
      "lon": -0.91425000000002,
      "cp": "64270",
      "ville": "Salies-de-Béarn",
      "prix": {
        "Gazole": 0.002099,
        "E10": 0.0019790000000000003,
        "SP98": 0.002099
      },
      "maj_gouv": {
        "Gazole": "2026-05-09 08:14:42",
        "E10": "2026-05-09 08:14:43",
        "SP98": "2026-05-09 08:14:43"
      }
    },
    {
      "id": "64110006",
      "lat": 43.28562,
      "lon": -0.38335,
      "cp": "64110",
      "ville": "JURANCON",
      "prix": {
        "E85": 0.0008489999999999999
      },
      "maj_gouv": {
        "E85": "2026-05-11 00:01:00"
      }
    },
    {
      "id": "64570002",
      "lat": 43.122,
      "lon": -0.727,
      "cp": "64570",
      "ville": "ARAMITS",
      "prix": {
        "Gazole": 0.00219,
        "E10": 0.00207,
        "SP98": 0.00211
      },
      "maj_gouv": {
        "Gazole": "2026-04-22 09:04:45",
        "E10": "2026-05-07 19:13:51",
        "SP98": "2026-04-07 10:01:50"
      }
    },
    {
      "id": "64510001",
      "lat": 43.25,
      "lon": -0.279,
      "cp": "64510",
      "ville": "BORDES",
      "prix": {
        "Gazole": 0.002219,
        "SP95": 0.002099,
        "SP98": 0.002149
      },
      "maj_gouv": {
        "Gazole": "2026-05-04 14:35:19",
        "SP95": "2026-05-04 14:35:19",
        "SP98": "2026-05-04 14:35:19"
      }
    },
    {
      "id": "64310002",
      "lat": 43.352,
      "lon": -1.55,
      "cp": "64310",
      "ville": "Saint-Pée-sur-Nivelle",
      "prix": {
        "Gazole": 0.002169,
        "SP95": 0.002039,
        "E10": 0.001999
      },
      "maj_gouv": {
        "Gazole": "2026-05-06 11:43:44",
        "SP95": "2026-05-04 11:03:48",
        "E10": "2026-05-04 11:03:48"
      }
    },
    {
      "id": "64100016",
      "lat": 43.512,
      "lon": -1.44,
      "cp": "64100",
      "ville": "Bayonne",
      "prix": {
        "Gazole": 0.00209,
        "E85": 0.000889
      },
      "maj_gouv": {
        "Gazole": "2026-05-08 09:35:14",
        "E85": "2026-05-06 09:57:16"
      }
    },
    {
      "id": "64530004",
      "lat": 43.23019,
      "lon": -0.07925,
      "cp": "64530",
      "ville": "GER",
      "prix": {
        "Gazole": 0.00225,
        "E85": 0.000999,
        "GPLc": 0.001099,
        "E10": 0.00199,
        "SP98": 0.00199
      },
      "maj_gouv": {
        "Gazole": "2026-05-11 00:01:00",
        "E85": "2026-05-11 00:01:00",
        "GPLc": "2026-05-11 00:01:00",
        "E10": "2026-05-11 00:01:00",
        "SP98": "2026-05-11 00:01:00"
      }
    },
    {
      "id": "64190002",
      "lat": 43.31906,
      "lon": -0.7712,
      "cp": "64190",
      "ville": "Susmiou",
      "prix": {
        "Gazole": 0.0022389999999999997,
        "E85": 0.0008179999999999999,
        "E10": 0.002068,
        "SP98": 0.002144
      },
      "maj_gouv": {
        "Gazole": "2026-05-08 16:17:48",
        "E85": "2026-05-08 16:17:49",
        "E10": "2026-05-08 16:17:49",
        "SP98": "2026-05-08 16:17:49"
      }
    },
    {
      "id": "64300006",
      "lat": 43.464,
      "lon": -0.741,
      "cp": "64300",
      "ville": "BIRON",
      "prix": {},
      "maj_gouv": {}
    },
    {
      "id": "64480005",
      "lat": 43.423,
      "lon": -1.465,
      "cp": "64480",
      "ville": "USTARITZ",
      "prix": {
        "Gazole": 0.00209,
        "SP95": 0.00199
      },
      "maj_gouv": {
        "Gazole": "2026-05-07 18:13:02",
        "SP95": "2026-05-07 18:13:02"
      }
    },
    {
      "id": "64122001",
      "lat": 43.375,
      "lon": -1.679,
      "cp": "64122",
      "ville": "Urrugne",
      "prix": {
        "Gazole": 0.002159,
        "SP95": 0.002059,
        "E10": 0.0022,
        "SP98": 0.002099
      },
      "maj_gouv": {
        "Gazole": "2026-05-11 01:18:00",
        "SP95": "2026-05-11 01:18:00",
        "E10": "2026-05-11 01:18:00",
        "SP98": "2026-05-11 01:18:00"
      }
    },
    {
      "id": "64240006",
      "lat": 43.386440367815,
      "lon": -1.313921444,
      "cp": "64240",
      "ville": "Hasparren",
      "prix": {
        "Gazole": 0.00221,
        "E10": 0.0020459999999999996,
        "SP98": 0.002148
      },
      "maj_gouv": {
        "Gazole": "2026-05-11 01:17:00",
        "E10": "2026-05-11 01:17:00",
        "SP98": "2026-05-11 01:17:00"
      }
    },
    {
      "id": "64480004",
      "lat": 43.372,
      "lon": -1.435,
      "cp": "64480",
      "ville": "LARRESSORE",
      "prix": {
        "Gazole": 0.00209,
        "E10": 0.00199,
        "SP98": 0.00199
      },
      "maj_gouv": {
        "Gazole": "2026-05-07 11:03:19",
        "E10": "2026-04-09 09:33:55",
        "SP98": "2026-04-09 09:33:55"
      }
    },
    {
      "id": "64260005",
      "lat": 43.098,
      "lon": -0.416,
      "cp": "64260",
      "ville": "Louvie-Juzon",
      "prix": {
        "Gazole": 0.002186,
        "E10": 0.0020150000000000003,
        "SP98": 0.0021379999999999997
      },
      "maj_gouv": {
        "Gazole": "2026-05-04 19:15:00",
        "E10": "2026-05-04 19:15:00",
        "SP98": "2026-05-04 19:15:00"
      }
    },
    {
      "id": "64300007",
      "lat": 43.542533211343994,
      "lon": -0.6828918786267301,
      "cp": "64300",
      "ville": "SAULT DE NAVAILLES",
      "prix": {
        "Gazole": 0.002199,
        "E10": 0.002049,
        "SP98": 0.002089
      },
      "maj_gouv": {
        "Gazole": "2026-05-06 14:46:23",
        "E10": "2026-05-06 14:46:23",
        "SP98": "2026-05-06 14:46:23"
      }
    },
    {
      "id": "64530002",
      "lat": 43.186,
      "lon": -0.115,
      "cp": "64530",
      "ville": "PONTACQ",
      "prix": {
        "Gazole": 0.002249,
        "E10": 0.00206,
        "SP98": 0.002149
      },
      "maj_gouv": {
        "Gazole": "2026-05-06 11:45:53",
        "E10": "2026-05-06 11:45:53",
        "SP98": "2026-05-06 11:45:53"
      }
    },
    {
      "id": "64490001",
      "lat": 42.974,
      "lon": -0.601,
      "cp": "64490",
      "ville": "Accous",
      "prix": {
        "Gazole": 0.002219,
        "SP95": 0.002099,
        "SP98": 0.002149
      },
      "maj_gouv": {
        "Gazole": "2026-05-05 13:14:45",
        "SP95": "2026-05-05 13:14:45",
        "SP98": "2026-05-05 13:14:45"
      }
    },
    {
      "id": "64260002",
      "lat": 43.109,
      "lon": -0.432,
      "cp": "64260",
      "ville": "ARUDY",
      "prix": {
        "Gazole": 0.002196,
        "SP95": 0.002062,
        "SP98": 0.002143
      },
      "maj_gouv": {
        "Gazole": "2026-05-07 19:00:00",
        "SP95": "2026-05-07 19:00:00",
        "SP98": "2026-05-07 19:00:00"
      }
    },
    {
      "id": "64250001",
      "lat": 43.338,
      "lon": -1.405,
      "cp": "64250",
      "ville": "ITXASSOU",
      "prix": {
        "Gazole": 0.002199,
        "SP95": 0.002039,
        "E10": 0.002029,
        "SP98": 0.002079
      },
      "maj_gouv": {
        "Gazole": "2026-05-07 10:19:27",
        "SP95": "2026-05-07 10:19:27",
        "E10": "2026-05-07 10:19:27",
        "SP98": "2026-05-05 12:55:25"
      }
    },
    {
      "id": "64200009",
      "lat": 43.482,
      "lon": -1.543,
      "cp": "64200",
      "ville": "BIARRITZ",
      "prix": {
        "Gazole": 0.002132,
        "E85": 0.0008810000000000001
      },
      "maj_gouv": {
        "Gazole": "2026-05-11 00:01:00",
        "E85": "2026-05-11 00:01:00"
      }
    },
    {
      "id": "64270005",
      "lat": 43.527,
      "lon": -0.917,
      "cp": "64270",
      "ville": "PUYOO",
      "prix": {
        "Gazole": 0.0021680000000000002,
        "E85": 0.000838,
        "E10": 0.002023
      },
      "maj_gouv": {
        "Gazole": "2026-05-11 01:16:00",
        "E85": "2026-05-11 01:16:00",
        "E10": "2026-05-11 01:16:00"
      }
    },
    {
      "id": "64110004",
      "lat": 43.279,
      "lon": -0.361,
      "cp": "64110",
      "ville": "Mazères-Lezons",
      "prix": {
        "Gazole": 0.002179,
        "E85": 0.000759,
        "GPLc": 0.001059,
        "E10": 0.002021,
        "SP98": 0.002091
      },
      "maj_gouv": {
        "Gazole": "2026-05-11 01:18:00",
        "E85": "2026-05-11 01:18:00",
        "GPLc": "2026-05-11 01:18:00",
        "E10": "2026-05-11 01:18:00",
        "SP98": "2026-05-11 01:18:00"
      }
    },
    {
      "id": "64500004",
      "lat": 43.39172,
      "lon": -1.65483,
      "cp": "64500",
      "ville": "SAINT-JEAN-DE-LUZ",
      "prix": {
        "Gazole": 0.00209,
        "E10": 0.00199
      },
      "maj_gouv": {
        "Gazole": "2026-05-09 09:15:25",
        "E10": "2026-05-09 09:15:25"
      }
    },
    {
      "id": "64780001",
      "lat": 43.234385637161,
      "lon": -1.2965108393474,
      "cp": "64780",
      "ville": "Ossès",
      "prix": {
        "Gazole": 0.002199,
        "E10": 0.002029,
        "SP98": 0.0020870000000000003
      },
      "maj_gouv": {
        "Gazole": "2026-05-11 01:16:00",
        "E10": "2026-05-11 01:16:00",
        "SP98": "2026-05-11 01:16:00"
      }
    },
    {
      "id": "64220004",
      "lat": 43.165,
      "lon": -1.234,
      "cp": "64220",
      "ville": "Saint-Jean-Pied-de-Port",
      "prix": {
        "Gazole": 0.0022719999999999997,
        "SP95": 0.002111,
        "E85": 0.000973,
        "SP98": 0.0021920000000000004
      },
      "maj_gouv": {
        "Gazole": "2026-05-05 08:50:31",
        "SP95": "2026-05-05 08:50:31",
        "E85": "2026-05-05 08:50:32",
        "SP98": "2026-05-05 08:50:32"
      }
    },
    {
      "id": "64100015",
      "lat": 43.492,
      "lon": -1.459,
      "cp": "64100",
      "ville": "BAYONNE",
      "prix": {
        "Gazole": 0.002091,
        "E85": 0.000851,
        "GPLc": 0.000984,
        "E10": 0.00199
      },
      "maj_gouv": {
        "Gazole": "2026-05-11 00:01:00",
        "E85": "2026-05-11 00:01:00",
        "GPLc": "2026-05-11 00:01:00",
        "E10": "2026-05-11 00:01:00"
      }
    },
    {
      "id": "64140007",
      "lat": 43.329,
      "lon": -0.382,
      "cp": "64140",
      "ville": "Lons",
      "prix": {
        "Gazole": 0.002189,
        "E85": 0.000768,
        "GPLc": 0.0011690000000000001,
        "E10": 0.0020369999999999997,
        "SP98": 0.002118
      },
      "maj_gouv": {
        "Gazole": "2026-05-07 09:56:54",
        "E85": "2026-05-07 09:56:54",
        "GPLc": "2026-05-07 09:56:54",
        "E10": "2026-05-07 09:56:54",
        "SP98": "2026-05-07 09:56:54"
      }
    },
    {
      "id": "64150004",
      "lat": 43.374,
      "lon": -0.623,
      "cp": "64150",
      "ville": "Mourenx",
      "prix": {
        "Gazole": 0.002129,
        "SP95": 0.0020350000000000004,
        "E10": 0.0019950000000000002
      },
      "maj_gouv": {
        "Gazole": "2026-05-10 09:24:14",
        "SP95": "2026-04-30 17:55:00",
        "E10": "2026-04-30 17:55:00"
      }
    },
    {
      "id": "64000007",
      "lat": 43.339,
      "lon": -0.38,
      "cp": "64000",
      "ville": "Pau",
      "prix": {
        "Gazole": 0.002169,
        "E85": 0.000969,
        "E10": 0.002055,
        "SP98": 0.0021349999999999997
      },
      "maj_gouv": {
        "Gazole": "2026-05-08 06:31:00",
        "E85": "2026-05-08 06:31:00",
        "E10": "2026-05-08 06:31:00",
        "SP98": "2026-05-08 06:31:00"
      }
    },
    {
      "id": "64110003",
      "lat": 43.28,
      "lon": -0.388,
      "cp": "64110",
      "ville": "Jurançon",
      "prix": {
        "Gazole": 0.00209,
        "E10": 0.00199
      },
      "maj_gouv": {
        "Gazole": "2026-05-09 12:20:04",
        "E10": "2026-05-09 12:20:04"
      }
    },
    {
      "id": "64220003",
      "lat": 43.169,
      "lon": -1.228,
      "cp": "64220",
      "ville": "Ispoure",
      "prix": {
        "Gazole": 0.002179,
        "SP95": 0.002062,
        "E10": 0.001999,
        "SP98": 0.002079
      },
      "maj_gouv": {
        "Gazole": "2026-04-30 09:12:57",
        "SP95": "2026-04-30 09:12:57",
        "E10": "2026-04-30 09:12:57",
        "SP98": "2026-04-30 09:12:57"
      }
    },
    {
      "id": "64250006",
      "lat": 43.361990417914996,
      "lon": -1.4037713241495,
      "cp": "64250",
      "ville": "CAMBO-LES-BAINS",
      "prix": {
        "Gazole": 0.0022389999999999997,
        "SP95": 0.002079,
        "SP98": 0.002179
      },
      "maj_gouv": {
        "Gazole": "2026-04-28 06:34:01",
        "SP95": "2026-04-28 06:34:01",
        "SP98": "2026-03-31 12:36:37"
      }
    },
    {
      "id": "64000017",
      "lat": 43.307,
      "lon": -0.376,
      "cp": "64000",
      "ville": "PAU",
      "prix": {
        "Gazole": 0.0022589999999999997,
        "E85": 0.000915,
        "GPLc": 0.001089,
        "E10": 0.002089,
        "SP98": 0.002179
      },
      "maj_gouv": {
        "Gazole": "2026-05-08 23:50:00",
        "E85": "2026-05-08 23:50:00",
        "GPLc": "2026-05-08 23:50:00",
        "E10": "2026-05-08 23:50:00",
        "SP98": "2026-05-08 23:50:00"
      }
    },
    {
      "id": "64200002",
      "lat": 43.475,
      "lon": -1.553,
      "cp": "64200",
      "ville": "Biarritz",
      "prix": {
        "Gazole": 0.00225,
        "E10": 0.00199
      },
      "maj_gouv": {
        "Gazole": "2026-05-10 17:51:36",
        "E10": "2026-03-14 13:29:51"
      }
    },
    {
      "id": "64170001",
      "lat": 43.415,
      "lon": -0.628,
      "cp": "64170",
      "ville": "LACQ",
      "prix": {
        "Gazole": 0.0021469999999999996,
        "E85": 0.000909,
        "E10": 0.00199,
        "SP98": 0.00199
      },
      "maj_gouv": {
        "Gazole": "2026-05-10 22:20:00",
        "E85": "2026-05-10 17:58:05",
        "E10": "2026-05-10 17:58:05",
        "SP98": "2026-05-10 17:58:05"
      }
    },
    {
      "id": "64220002",
      "lat": 43.165,
      "lon": -1.195,
      "cp": "64220",
      "ville": "SAINT-JEAN-LE-VIEUX",
      "prix": {
        "Gazole": 0.00209,
        "E10": 0.00199,
        "SP98": 0.00199
      },
      "maj_gouv": {
        "Gazole": "2026-05-09 08:11:00",
        "E10": "2026-05-07 07:24:59",
        "SP98": "2026-05-07 07:24:59"
      }
    },
    {
      "id": "64450001",
      "lat": 43.444,
      "lon": -0.324,
      "cp": "64450",
      "ville": "Astis",
      "prix": {
        "Gazole": 0.002199,
        "E10": 0.001999,
        "SP98": 0.002099
      },
      "maj_gouv": {
        "Gazole": "2026-04-30 10:55:46",
        "E10": "2026-04-30 10:55:46",
        "SP98": "2026-04-30 10:55:46"
      }
    },
    {
      "id": "64170005",
      "lat": 43.398,
      "lon": -0.571,
      "cp": "64170",
      "ville": "Artix",
      "prix": {
        "Gazole": 0.002129,
        "SP95": 0.0020350000000000004,
        "SP98": 0.002069
      },
      "maj_gouv": {
        "Gazole": "2026-05-09 18:00:00",
        "SP95": "2026-04-30 17:55:00",
        "SP98": "2026-04-30 17:55:00"
      }
    },
    {
      "id": "64450002",
      "lat": 43.466308074834004,
      "lon": -0.32354437640108,
      "cp": "64450",
      "ville": "AURIAC",
      "prix": {},
      "maj_gouv": {}
    },
    {
      "id": "64100013",
      "lat": 43.482,
      "lon": -1.483,
      "cp": "64100",
      "ville": "BAYONNE",
      "prix": {
        "Gazole": 0.002169,
        "E10": 0.002039
      },
      "maj_gouv": {
        "Gazole": "2026-05-08 11:40:59",
        "E10": "2026-05-08 11:40:59"
      }
    },
    {
      "id": "64240003",
      "lat": 43.385,
      "lon": -1.313,
      "cp": "64240",
      "ville": "Hasparren",
      "prix": {
        "Gazole": 0.00221,
        "E85": 0.0008179999999999999,
        "E10": 0.0020459999999999996,
        "SP98": 0.002148
      },
      "maj_gouv": {
        "Gazole": "2026-05-09 09:23:44",
        "E85": "2026-05-09 09:23:44",
        "E10": "2026-05-09 09:23:45",
        "SP98": "2026-05-09 09:23:45"
      }
    },
    {
      "id": "64300003",
      "lat": 43.49,
      "lon": -0.797,
      "cp": "64300",
      "ville": "Orthez",
      "prix": {
        "Gazole": 0.0021680000000000002,
        "E85": 0.000838,
        "GPLc": 0.001047,
        "E10": 0.002006,
        "SP98": 0.0020819999999999996
      },
      "maj_gouv": {
        "Gazole": "2026-05-11 01:17:00",
        "E85": "2026-05-11 01:17:00",
        "GPLc": "2026-05-11 01:17:00",
        "E10": "2026-05-11 01:17:00",
        "SP98": "2026-05-11 01:17:00"
      }
    },
    {
      "id": "64350003",
      "lat": 43.450533459820996,
      "lon": -0.10784007597158,
      "cp": "64350",
      "ville": "LEMBEYE",
      "prix": {
        "Gazole": 0.0022170000000000002,
        "SP98": 0.0021190000000000002
      },
      "maj_gouv": {
        "Gazole": "2026-05-07 12:35:26",
        "SP98": "2026-05-07 12:35:26"
      }
    },
    {
      "id": "64480001",
      "lat": 43.393,
      "lon": -1.457,
      "cp": "64480",
      "ville": "Ustaritz",
      "prix": {
        "Gazole": 0.002209,
        "E85": 0.000855,
        "E10": 0.002049,
        "SP98": 0.0021190000000000002
      },
      "maj_gouv": {
        "Gazole": "2026-05-04 12:37:50",
        "E85": "2026-04-27 15:23:55",
        "E10": "2026-05-06 09:44:24",
        "SP98": "2026-05-05 13:16:16"
      }
    },
    {
      "id": "64604001",
      "lat": 43.49346,
      "lon": -1.51826,
      "cp": "64600",
      "ville": "Anglet",
      "prix": {
        "Gazole": 0.00215,
        "SP95": 0.002075,
        "E85": 0.000855,
        "E10": 0.0020350000000000004,
        "SP98": 0.002105
      },
      "maj_gouv": {
        "Gazole": "2026-05-07 08:25:52",
        "SP95": "2026-05-07 08:25:52",
        "E85": "2026-04-11 09:38:53",
        "E10": "2026-05-07 08:25:52",
        "SP98": "2026-05-07 08:25:52"
      }
    },
    {
      "id": "64170014",
      "lat": 43.392439,
      "lon": -0.555477,
      "cp": "64170",
      "ville": "ARTIX",
      "prix": {
        "Gazole": 0.002189,
        "E85": 0.000909,
        "GPLc": 0.00109,
        "E10": 0.002055,
        "SP98": 0.002128
      },
      "maj_gouv": {
        "Gazole": "2026-05-07 10:10:55",
        "E85": "2026-05-05 11:59:39",
        "GPLc": "2026-04-24 15:31:35",
        "E10": "2026-05-07 08:13:22",
        "SP98": "2026-05-07 08:13:22"
      }
    },
    {
      "id": "64130006",
      "lat": 43.226,
      "lon": -0.886,
      "cp": "64130",
      "ville": "MAULEON LICHARRE",
      "prix": {
        "Gazole": 0.00239,
        "SP95": 0.0020499999999999997,
        "SP98": 0.002098
      },
      "maj_gouv": {
        "Gazole": "2026-04-04 08:19:26",
        "SP95": "2026-04-04 08:19:26",
        "SP98": "2026-04-04 08:19:26"
      }
    },
    {
      "id": "64440003",
      "lat": 42.981734,
      "lon": -0.422651,
      "cp": "64440",
      "ville": "LARUNS",
      "prix": {
        "Gazole": 0.00209,
        "SP95": 0.00199,
        "SP98": 0.00199
      },
      "maj_gouv": {
        "Gazole": "2026-05-07 18:45:17",
        "SP95": "2026-05-07 18:45:18",
        "SP98": "2026-05-07 18:45:18"
      }
    }
  ]
}