{
  "departement": "19",
  "date": "2026-05-17",
  "stations": [
    {
      "id": "19300002",
      "lat": 45.402,
      "lon": 2.042,
      "cp": "19300",
      "ville": "ÉGLETONS",
      "prix": {
        "Gazole": 0.002115,
        "E10": 0.002029,
        "SP98": 0.002164
      },
      "maj_gouv": {
        "Gazole": "2026-05-16 13:51:03",
        "E10": "2026-05-16 13:51:03",
        "SP98": "2026-05-16 13:51:03"
      }
    },
    {
      "id": "19190002",
      "lat": 45.071202,
      "lon": 1.737681,
      "cp": "19190",
      "ville": "LE PESCHER",
      "prix": {},
      "maj_gouv": {}
    },
    {
      "id": "19200007",
      "lat": 45.556389740201,
      "lon": 2.3152420027136,
      "cp": "19200",
      "ville": "Ussel",
      "prix": {
        "Gazole": 0.002199,
        "E10": 0.002041,
        "SP98": 0.002139
      },
      "maj_gouv": {
        "Gazole": "2026-05-08 08:19:34",
        "E10": "2026-05-11 08:39:04",
        "SP98": "2026-05-11 08:39:04"
      }
    },
    {
      "id": "19200002",
      "lat": 45.557,
      "lon": 2.302,
      "cp": "19200",
      "ville": "USSEL",
      "prix": {
        "Gazole": 0.002275,
        "SP95": 0.0022299999999999998,
        "E85": 0.0009459999999999999
      },
      "maj_gouv": {
        "Gazole": "2026-05-07 06:31:41",
        "SP95": "2026-05-07 06:31:41",
        "E85": "2026-05-07 06:31:41"
      }
    },
    {
      "id": "19100014",
      "lat": 45.153,
      "lon": 1.536,
      "cp": "19100",
      "ville": "BRIVE-LA-GAILLARDE",
      "prix": {
        "Gazole": 0.002159,
        "E10": 0.002079,
        "SP98": 0.002199
      },
      "maj_gouv": {
        "Gazole": "2026-05-15 12:03:23",
        "E10": "2026-05-15 12:03:23",
        "SP98": "2026-05-15 12:03:23"
      }
    },
    {
      "id": "19316001",
      "lat": 45.145,
      "lon": 1.483,
      "cp": "19100",
      "ville": "BRIVE-LA-GAILLARDE",
      "prix": {
        "Gazole": 0.0021349999999999997,
        "SP95": 0.002129,
        "SP98": 0.0022170000000000002
      },
      "maj_gouv": {
        "Gazole": "2026-05-16 00:42:00",
        "SP95": "2026-05-16 00:42:00",
        "SP98": "2026-05-16 00:42:00"
      }
    },
    {
      "id": "19510002",
      "lat": 45.54068,
      "lon": 1.52039,
      "cp": "19510",
      "ville": "MASSERET",
      "prix": {
        "Gazole": 0.00209,
        "E85": 0.000988,
        "E10": 0.00199,
        "SP98": 0.00199
      },
      "maj_gouv": {
        "Gazole": "2026-05-17 00:01:00",
        "E85": "2026-05-17 00:01:00",
        "E10": "2026-05-17 00:01:00",
        "SP98": "2026-05-17 00:01:00"
      }
    },
    {
      "id": "19600001",
      "lat": 45.195,
      "lon": 1.542,
      "cp": "19270",
      "ville": "Ussac",
      "prix": {
        "Gazole": 0.0022389999999999997,
        "E10": 0.002059,
        "SP98": 0.002199
      },
      "maj_gouv": {
        "Gazole": "2026-05-05 11:48:12",
        "E10": "2026-05-05 11:48:12",
        "SP98": "2026-05-05 11:48:12"
      }
    },
    {
      "id": "19100016",
      "lat": 45.156,
      "lon": 1.518,
      "cp": "19100",
      "ville": "Brive-la-Gaillarde",
      "prix": {
        "Gazole": 0.00209,
        "E85": 0.000841
      },
      "maj_gouv": {
        "Gazole": "2026-05-17 00:01:00",
        "E85": "2026-05-17 00:01:00"
      }
    },
    {
      "id": "19100017",
      "lat": 45.165,
      "lon": 1.511,
      "cp": "19100",
      "ville": "Brive-la-Gaillarde",
      "prix": {
        "Gazole": 0.00209
      },
      "maj_gouv": {
        "Gazole": "2026-05-17 00:01:00"
      }
    },
    {
      "id": "19290002",
      "lat": 45.662,
      "lon": 2.202,
      "cp": "19290",
      "ville": "Sornac",
      "prix": {
        "Gazole": 0.00215,
        "SP95": 0.0021070000000000004
      },
      "maj_gouv": {
        "Gazole": "2026-05-13 16:00:00",
        "SP95": "2026-05-13 16:00:00"
      }
    },
    {
      "id": "19350002",
      "lat": 45.316831661467006,
      "lon": 1.3369771188772999,
      "cp": "19350",
      "ville": "Chabrignac",
      "prix": {
        "Gazole": 0.0021469999999999996,
        "E10": 0.00206,
        "SP98": 0.002218
      },
      "maj_gouv": {
        "Gazole": "2026-05-15 20:00:19",
        "E10": "2026-05-15 20:00:19",
        "SP98": "2026-05-15 20:00:19"
      }
    },
    {
      "id": "19800004",
      "lat": 45.343,
      "lon": 1.934,
      "cp": "19800",
      "ville": "EYREIN",
      "prix": {
        "Gazole": 0.0022930000000000003,
        "SP95": 0.002176,
        "SP98": 0.002212
      },
      "maj_gouv": {
        "Gazole": "2026-05-06 19:19:55",
        "SP95": "2026-05-06 19:19:55",
        "SP98": "2026-05-06 19:19:55"
      }
    },
    {
      "id": "19150002",
      "lat": 45.24621,
      "lon": 1.77323,
      "cp": "19150",
      "ville": "Laguenne",
      "prix": {
        "Gazole": 0.002149,
        "SP95": 0.002099,
        "E85": 0.0008179999999999999,
        "GPLc": 0.001099,
        "SP98": 0.002139
      },
      "maj_gouv": {
        "Gazole": "2026-05-13 09:44:49",
        "SP95": "2026-05-07 12:28:49",
        "E85": "2026-05-06 09:15:30",
        "GPLc": "2026-04-13 10:05:12",
        "SP98": "2026-05-07 12:28:49"
      }
    },
    {
      "id": "19140001",
      "lat": 45.44,
      "lon": 1.561,
      "cp": "19140",
      "ville": "UZERCHE",
      "prix": {
        "Gazole": 0.00209,
        "E85": 0.0008129999999999999,
        "E10": 0.002064,
        "SP98": 0.002139
      },
      "maj_gouv": {
        "Gazole": "2026-05-15 13:08:41",
        "E85": "2026-05-15 13:08:42",
        "E10": "2026-05-15 13:08:42",
        "SP98": "2026-05-15 13:08:42"
      }
    },
    {
      "id": "19400005",
      "lat": 45.091,
      "lon": 1.941,
      "cp": "19400",
      "ville": "ARGENTAT",
      "prix": {
        "Gazole": 0.00209,
        "E10": 0.00199
      },
      "maj_gouv": {
        "Gazole": "2026-05-14 08:35:38",
        "E10": "2026-05-14 08:35:38"
      }
    },
    {
      "id": "19360002",
      "lat": 45.116,
      "lon": 1.56,
      "cp": "19360",
      "ville": "COSNAC",
      "prix": {
        "Gazole": 0.0021939999999999998,
        "E85": 0.0009459999999999999,
        "E10": 0.002091,
        "SP98": 0.002197
      },
      "maj_gouv": {
        "Gazole": "2026-05-13 08:36:57",
        "E85": "2026-04-07 19:39:57",
        "E10": "2026-05-13 08:36:57",
        "SP98": "2026-05-13 08:36:57"
      }
    },
    {
      "id": "19200006",
      "lat": 45.555,
      "lon": 2.316,
      "cp": "19200",
      "ville": "USSEL",
      "prix": {
        "Gazole": 0.002189,
        "E10": 0.00199
      },
      "maj_gouv": {
        "Gazole": "2026-05-12 10:50:12",
        "E10": "2026-05-12 10:50:12"
      }
    },
    {
      "id": "19000006",
      "lat": 45.2721892408,
      "lon": 1.77587665476,
      "cp": "19000",
      "ville": "TULLE",
      "prix": {
        "Gazole": 0.002106,
        "E85": 0.0008179999999999999,
        "E10": 0.002029
      },
      "maj_gouv": {
        "Gazole": "2026-05-14 09:45:50",
        "E85": "2026-04-20 11:12:49",
        "E10": "2026-05-14 09:45:51"
      }
    },
    {
      "id": "19100015",
      "lat": 45.167,
      "lon": 1.55,
      "cp": "19100",
      "ville": "BRIVE-LA-GAILLARDE",
      "prix": {
        "Gazole": 0.002099,
        "E10": 0.002079,
        "SP98": 0.002199
      },
      "maj_gouv": {
        "Gazole": "2026-05-15 12:04:25",
        "E10": "2026-05-15 12:04:25",
        "SP98": "2026-05-15 12:04:25"
      }
    },
    {
      "id": "19170001",
      "lat": 45.59855,
      "lon": 1.92571,
      "cp": "19170",
      "ville": "Bugeat",
      "prix": {
        "Gazole": 0.00209,
        "SP95": 0.00199
      },
      "maj_gouv": {
        "Gazole": "2026-05-14 10:20:07",
        "SP95": "2026-05-14 10:20:08"
      }
    },
    {
      "id": "19500002",
      "lat": 45.056,
      "lon": 1.669,
      "cp": "19500",
      "ville": "Meyssac",
      "prix": {
        "Gazole": 0.002128,
        "E10": 0.0020670000000000003,
        "SP98": 0.0021469999999999996
      },
      "maj_gouv": {
        "Gazole": "2026-05-11 13:42:45",
        "E10": "2026-05-11 13:42:45",
        "SP98": "2026-05-11 13:42:45"
      }
    },
    {
      "id": "19250003",
      "lat": 45.532,
      "lon": 2.142,
      "cp": "19250",
      "ville": "MEYMAC",
      "prix": {
        "Gazole": 0.002129,
        "SP95": 0.002099,
        "E10": 0.002049
      },
      "maj_gouv": {
        "Gazole": "2026-05-15 11:10:58",
        "SP95": "2026-05-15 11:10:59",
        "E10": "2026-05-15 11:10:59"
      }
    },
    {
      "id": "19200003",
      "lat": 45.54275,
      "lon": 2.29749,
      "cp": "19200",
      "ville": "Ussel",
      "prix": {
        "Gazole": 0.002114,
        "SP95": 0.002065,
        "E85": 0.000841,
        "GPLc": 0.001063,
        "E10": 0.002029,
        "SP98": 0.002098
      },
      "maj_gouv": {
        "Gazole": "2026-05-12 18:30:00",
        "SP95": "2026-05-05 18:30:00",
        "E85": "2026-05-13 18:30:00",
        "GPLc": "2026-04-22 18:30:00",
        "E10": "2026-05-11 18:30:00",
        "SP98": "2026-05-11 18:30:00"
      }
    },
    {
      "id": "19340003",
      "lat": 45.624,
      "lon": 2.481,
      "cp": "19340",
      "ville": "Merlines",
      "prix": {
        "Gazole": 0.002379,
        "GPLc": 0.001064,
        "E10": 0.002169,
        "SP98": 0.002269
      },
      "maj_gouv": {
        "Gazole": "2026-05-06 06:00:00",
        "GPLc": "2026-04-14 15:58:26",
        "E10": "2026-05-06 06:00:00",
        "SP98": "2026-05-06 06:00:00"
      }
    },
    {
      "id": "19260002",
      "lat": 45.533,
      "lon": 1.804,
      "cp": "19260",
      "ville": "TREIGNAC",
      "prix": {
        "Gazole": 0.002213,
        "E85": 0.000819,
        "E10": 0.0020169999999999997,
        "SP98": 0.002129
      },
      "maj_gouv": {
        "Gazole": "2026-05-09 23:45:00",
        "E85": "2026-04-15 23:45:00",
        "E10": "2026-05-16 23:45:00",
        "SP98": "2026-05-16 23:45:00"
      }
    },
    {
      "id": "19100009",
      "lat": 45.158,
      "lon": 1.563,
      "cp": "19100",
      "ville": "BRIVE-LA-GAILLARDE",
      "prix": {
        "Gazole": 0.002101,
        "SP95": 0.002075,
        "E85": 0.000819,
        "E10": 0.002021
      },
      "maj_gouv": {
        "Gazole": "2026-05-16 19:25:00",
        "SP95": "2026-05-16 19:25:00",
        "E85": "2026-05-13 10:02:06",
        "E10": "2026-05-16 19:25:00"
      }
    },
    {
      "id": "19000008",
      "lat": 45.2617,
      "lon": 1.75672,
      "cp": "19000",
      "ville": "TULLE",
      "prix": {
        "Gazole": 0.00209,
        "E10": 0.00199,
        "SP98": 0.00199
      },
      "maj_gouv": {
        "Gazole": "2026-05-17 00:01:00",
        "E10": "2026-05-17 00:01:00",
        "SP98": "2026-05-17 00:01:00"
      }
    },
    {
      "id": "19800005",
      "lat": 45.3594571,
      "lon": 1.9372625,
      "cp": "19800",
      "ville": "Vitrac-sur-Montane",
      "prix": {
        "Gazole": 0.0022660000000000002,
        "E10": 0.0021379999999999997,
        "SP98": 0.0022080000000000003
      },
      "maj_gouv": {
        "Gazole": "2026-05-12 10:56:34",
        "E10": "2026-05-12 10:56:34",
        "SP98": "2026-05-12 10:56:34"
      }
    },
    {
      "id": "19190001",
      "lat": 45.125542413999995,
      "lon": 1.7225066547599999,
      "cp": "19190",
      "ville": "BEYNAT",
      "prix": {
        "Gazole": 0.0022389999999999997,
        "E10": 0.001999,
        "SP98": 0.002179
      },
      "maj_gouv": {
        "Gazole": "2026-05-06 07:25:40",
        "E10": "2026-04-25 11:29:03",
        "SP98": "2026-05-06 07:25:40"
      }
    },
    {
      "id": "19250001",
      "lat": 45.534,
      "lon": 2.148,
      "cp": "19250",
      "ville": "Meymac",
      "prix": {
        "Gazole": 0.00209,
        "SP95": 0.00199
      },
      "maj_gouv": {
        "Gazole": "2026-05-13 19:06:13",
        "SP95": "2026-05-13 19:06:13"
      }
    },
    {
      "id": "19130002",
      "lat": 45.259,
      "lon": 1.413,
      "cp": "19130",
      "ville": "OBJAT",
      "prix": {
        "Gazole": 0.002089,
        "SP95": 0.00204,
        "SP98": 0.00218
      },
      "maj_gouv": {
        "Gazole": "2026-05-14 08:30:51",
        "SP95": "2026-05-14 08:30:51",
        "SP98": "2026-05-14 08:50:00"
      }
    },
    {
      "id": "19400006",
      "lat": 45.092,
      "lon": 1.931,
      "cp": "19400",
      "ville": "ARGENTAT SUR DORDOGNE",
      "prix": {
        "Gazole": 0.002159,
        "E10": 0.002059,
        "SP98": 0.002169
      },
      "maj_gouv": {
        "Gazole": "2026-05-15 13:30:16",
        "E10": "2026-05-15 13:30:17",
        "SP98": "2026-05-15 13:30:17"
      }
    },
    {
      "id": "19110001",
      "lat": 45.4041032586,
      "lon": 2.4999235676100002,
      "cp": "19110",
      "ville": "BORT-LES-ORGUES",
      "prix": {
        "Gazole": 0.002139,
        "E85": 0.000842,
        "E10": 0.002068,
        "SP98": 0.002149
      },
      "maj_gouv": {
        "Gazole": "2026-05-15 08:33:31",
        "E85": "2026-05-05 18:55:00",
        "E10": "2026-05-15 08:33:31",
        "SP98": "2026-05-05 18:55:00"
      }
    },
    {
      "id": "19340002",
      "lat": 45.646,
      "lon": 2.445,
      "cp": "19340",
      "ville": "EYGURANDE",
      "prix": {
        "Gazole": 0.00209,
        "SP95": 0.00199
      },
      "maj_gouv": {
        "Gazole": "2026-05-14 00:04:00",
        "SP95": "2026-05-04 10:56:23"
      }
    },
    {
      "id": "19700001",
      "lat": 45.36779,
      "lon": 1.7155,
      "cp": "19700",
      "ville": "SEILHAC",
      "prix": {
        "Gazole": 0.00216,
        "E85": 0.000799,
        "E10": 0.002049,
        "SP98": 0.002139
      },
      "maj_gouv": {
        "Gazole": "2026-05-12 10:08:10",
        "E85": "2026-05-14 08:36:35",
        "E10": "2026-05-02 07:42:33",
        "SP98": "2026-05-12 10:08:10"
      }
    },
    {
      "id": "19600003",
      "lat": 45.033,
      "lon": 1.503,
      "cp": "19600",
      "ville": "Nespouls",
      "prix": {
        "Gazole": 0.00209,
        "E85": 0.000874,
        "E10": 0.00199
      },
      "maj_gouv": {
        "Gazole": "2026-05-16 08:18:35",
        "E85": "2026-05-16 08:18:35",
        "E10": "2026-05-16 08:18:35"
      }
    },
    {
      "id": "19460002",
      "lat": 45.316,
      "lon": 1.77,
      "cp": "19460",
      "ville": "NAVES",
      "prix": {
        "Gazole": 0.00209,
        "E85": 0.000842,
        "E10": 0.00199,
        "SP98": 0.00199
      },
      "maj_gouv": {
        "Gazole": "2026-05-15 10:06:24",
        "E85": "2026-05-15 10:06:24",
        "E10": "2026-05-15 10:06:24",
        "SP98": "2026-05-15 10:06:24"
      }
    },
    {
      "id": "19100011",
      "lat": 45.16671,
      "lon": 1.5459,
      "cp": "19100",
      "ville": "Brive-la-Gaillarde",
      "prix": {
        "Gazole": 0.002089,
        "SP95": 0.002089,
        "SP98": 0.002129
      },
      "maj_gouv": {
        "Gazole": "2026-05-12 08:35:37",
        "SP95": "2026-05-16 08:20:27",
        "SP98": "2026-05-16 08:20:27"
      }
    },
    {
      "id": "19160001",
      "lat": 45.384,
      "lon": 2.269,
      "cp": "19160",
      "ville": "Neuvic",
      "prix": {
        "Gazole": 0.002249,
        "E10": 0.0020299999999999997,
        "SP98": 0.002141
      },
      "maj_gouv": {
        "Gazole": "2026-05-09 13:42:43",
        "E10": "2026-05-09 13:42:43",
        "SP98": "2026-05-09 13:43:28"
      }
    },
    {
      "id": "19120001",
      "lat": 44.973,
      "lon": 1.849,
      "cp": "19120",
      "ville": "Altillac",
      "prix": {
        "Gazole": 0.002094,
        "SP95": 0.002081,
        "E10": 0.002016
      },
      "maj_gouv": {
        "Gazole": "2026-05-13 17:51:00",
        "SP95": "2026-05-13 17:51:00",
        "E10": "2026-05-13 17:51:00"
      }
    },
    {
      "id": "19210001",
      "lat": 45.438,
      "lon": 1.397,
      "cp": "19210",
      "ville": "LUBERSAC",
      "prix": {
        "Gazole": 0.002129,
        "SP95": 0.002129,
        "E10": 0.002079,
        "SP98": 0.002179
      },
      "maj_gouv": {
        "Gazole": "2026-05-16 06:15:37",
        "SP95": "2026-05-16 06:15:37",
        "E10": "2026-05-16 06:15:37",
        "SP98": "2026-05-16 06:15:37"
      }
    },
    {
      "id": "19330002",
      "lat": 45.28398,
      "lon": 1.65828,
      "cp": "19330",
      "ville": "Saint-Mexant",
      "prix": {
        "Gazole": 0.002099,
        "E10": 0.002029,
        "SP98": 0.002169
      },
      "maj_gouv": {
        "Gazole": "2026-05-12 15:42:13",
        "E10": "2026-05-07 07:49:18",
        "SP98": "2026-05-07 07:49:18"
      }
    },
    {
      "id": "19490002",
      "lat": 45.196,
      "lon": 1.774,
      "cp": "19490",
      "ville": "STE FORTUNADE",
      "prix": {
        "Gazole": 0.00209,
        "E10": 0.00199,
        "SP98": 0.00199
      },
      "maj_gouv": {
        "Gazole": "2026-05-14 12:34:47",
        "E10": "2026-05-12 09:42:07",
        "SP98": "2026-05-12 09:42:07"
      }
    },
    {
      "id": "19300001",
      "lat": 45.40194,
      "lon": 2.0428,
      "cp": "19300",
      "ville": "ÉGLETONS",
      "prix": {
        "Gazole": 0.002115,
        "E10": 0.002038,
        "SP98": 0.002164
      },
      "maj_gouv": {
        "Gazole": "2026-05-16 10:49:41",
        "E10": "2026-05-16 10:49:41",
        "SP98": "2026-05-16 16:31:12"
      }
    },
    {
      "id": "19130001",
      "lat": 45.23073,
      "lon": 1.37255,
      "cp": "19130",
      "ville": "Saint-Aulaire",
      "prix": {
        "Gazole": 0.002157,
        "SP95": 0.002095,
        "E10": 0.002045,
        "SP98": 0.002197
      },
      "maj_gouv": {
        "Gazole": "2026-05-15 12:22:06",
        "SP95": "2026-05-06 15:26:21",
        "E10": "2026-05-06 15:26:21",
        "SP98": "2026-05-11 10:54:13"
      }
    },
    {
      "id": "19270004",
      "lat": 45.310634037541,
      "lon": 1.5625461874608,
      "cp": "19270",
      "ville": "Saint-Pardoux-l'Ortigier",
      "prix": {
        "Gazole": 0.00209,
        "SP95": 0.00199
      },
      "maj_gouv": {
        "Gazole": "2026-05-13 23:42:48",
        "SP95": "2026-05-13 23:42:48"
      }
    },
    {
      "id": "19270003",
      "lat": 45.219,
      "lon": 1.521,
      "cp": "19270",
      "ville": "Donzenac",
      "prix": {
        "Gazole": 0.002099,
        "E10": 0.002019,
        "SP98": 0.002139
      },
      "maj_gouv": {
        "Gazole": "2026-05-16 08:54:38",
        "E10": "2026-05-16 08:54:38",
        "SP98": "2026-05-16 08:54:38"
      }
    },
    {
      "id": "19230001",
      "lat": 45.393,
      "lon": 1.377,
      "cp": "19230",
      "ville": "POMPADOUR",
      "prix": {
        "Gazole": 0.002139,
        "E85": 0.0008179999999999999,
        "E10": 0.002049,
        "SP98": 0.002139
      },
      "maj_gouv": {
        "Gazole": "2026-05-12 15:54:49",
        "E85": "2026-04-21 09:59:41",
        "E10": "2026-05-12 15:54:49",
        "SP98": "2026-05-12 15:54:49"
      }
    },
    {
      "id": "19000002",
      "lat": 45.258,
      "lon": 1.749,
      "cp": "19000",
      "ville": "TULLE",
      "prix": {
        "Gazole": 0.002105,
        "SP95": 0.0020670000000000003,
        "E10": 0.002028,
        "SP98": 0.002106
      },
      "maj_gouv": {
        "Gazole": "2026-05-13 09:06:35",
        "SP95": "2026-05-13 09:06:35",
        "E10": "2026-05-13 09:06:35",
        "SP98": "2026-05-13 09:06:35"
      }
    },
    {
      "id": "19100010",
      "lat": 45.165,
      "lon": 1.504,
      "cp": "19100",
      "ville": "BRIVE-LA-GAILLARDE",
      "prix": {
        "Gazole": 0.002099,
        "SP95": 0.002088,
        "E10": 0.001999
      },
      "maj_gouv": {
        "Gazole": "2026-05-13 08:22:50",
        "SP95": "2026-05-13 08:22:50",
        "E10": "2026-05-13 08:22:50"
      }
    },
    {
      "id": "19240002",
      "lat": 45.19264,
      "lon": 1.45208,
      "cp": "19240",
      "ville": "Varetz",
      "prix": {
        "Gazole": 0.002198,
        "SP95": 0.002078,
        "SP98": 0.0021579999999999998
      },
      "maj_gouv": {
        "Gazole": "2026-05-14 11:31:14",
        "SP95": "2026-04-29 10:36:02",
        "SP98": "2026-04-29 10:36:02"
      }
    },
    {
      "id": "19250006",
      "lat": 45.475950999999995,
      "lon": 2.160925,
      "cp": "19250",
      "ville": "MEYMAC",
      "prix": {
        "Gazole": 0.0022589999999999997,
        "E10": 0.002069,
        "SP98": 0.002099
      },
      "maj_gouv": {
        "Gazole": "2026-04-23 08:13:06",
        "E10": "2026-05-07 13:36:59",
        "SP98": "2026-03-24 11:38:55"
      }
    },
    {
      "id": "19130003",
      "lat": 45.244,
      "lon": 1.415,
      "cp": "19130",
      "ville": "OBJAT",
      "prix": {
        "Gazole": 0.002095,
        "E10": 0.00199
      },
      "maj_gouv": {
        "Gazole": "2026-05-13 08:42:44",
        "E10": "2026-05-13 08:42:44"
      }
    },
    {
      "id": "19100001",
      "lat": 45.153,
      "lon": 1.509,
      "cp": "19100",
      "ville": "BRIVE-LA-GAILLARDE",
      "prix": {
        "Gazole": 0.002099,
        "E10": 0.001999,
        "SP98": 0.002113
      },
      "maj_gouv": {
        "Gazole": "2026-05-14 09:42:33",
        "E10": "2026-05-14 09:42:34",
        "SP98": "2026-05-14 09:42:34"
      }
    },
    {
      "id": "19240003",
      "lat": 45.253,
      "lon": 1.461,
      "cp": "19240",
      "ville": "ALLASSAC",
      "prix": {
        "Gazole": 0.002129,
        "E85": 0.0008219999999999999,
        "E10": 0.002033
      },
      "maj_gouv": {
        "Gazole": "2026-05-15 14:49:45",
        "E85": "2026-05-11 14:09:55",
        "E10": "2026-05-11 14:09:55"
      }
    },
    {
      "id": "19300003",
      "lat": 45.398,
      "lon": 2.036,
      "cp": "19300",
      "ville": "Égletons",
      "prix": {
        "Gazole": 0.00209,
        "E10": 0.00199
      },
      "maj_gouv": {
        "Gazole": "2026-05-16 09:51:51",
        "E10": "2026-05-16 09:51:52"
      }
    },
    {
      "id": "19600004",
      "lat": 45.160552290935,
      "lon": 1.4398200337318,
      "cp": "19600",
      "ville": "SAINT PANTALEON DE L'ARCHE",
      "prix": {
        "Gazole": 0.0022660000000000002,
        "E10": 0.0021379999999999997,
        "SP98": 0.002247
      },
      "maj_gouv": {
        "Gazole": "2026-05-12 09:30:00",
        "E10": "2026-05-12 09:30:00",
        "SP98": "2026-05-12 09:30:00"
      }
    },
    {
      "id": "19550001",
      "lat": 45.275370825651,
      "lon": 2.2012866038764,
      "cp": "19550",
      "ville": "SOURSAC",
      "prix": {
        "Gazole": 0.0025099999999999996,
        "SP95": 0.00214
      },
      "maj_gouv": {
        "Gazole": "2026-04-10 11:28:02",
        "SP95": "2026-04-10 11:28:02"
      }
    },
    {
      "id": "19140003",
      "lat": 45.41736,
      "lon": 1.58159,
      "cp": "19140",
      "ville": "Uzerche",
      "prix": {
        "Gazole": 0.00209,
        "E10": 0.002009,
        "SP98": 0.002105
      },
      "maj_gouv": {
        "Gazole": "2026-05-13 09:44:00",
        "E10": "2026-05-11 08:00:00",
        "SP98": "2026-05-13 09:44:00"
      }
    },
    {
      "id": "19800007",
      "lat": 45.317480999999994,
      "lon": 1.8390879999999998,
      "cp": "19800",
      "ville": "GIMEL LES CASCADES",
      "prix": {
        "Gazole": 0.00225
      },
      "maj_gouv": {
        "Gazole": "2026-04-08 18:00:59"
      }
    },
    {
      "id": "19360003",
      "lat": 45.178,
      "lon": 1.597,
      "cp": "19360",
      "ville": "MALEMORT",
      "prix": {
        "Gazole": 0.002079,
        "E85": 0.000819,
        "GPLc": 0.001099,
        "E10": 0.002039,
        "SP98": 0.002109
      },
      "maj_gouv": {
        "Gazole": "2026-05-13 08:53:46",
        "E85": "2026-04-15 10:16:09",
        "GPLc": "2026-04-13 10:42:53",
        "E10": "2026-05-13 08:53:46",
        "SP98": "2026-05-13 08:53:46"
      }
    },
    {
      "id": "19110003",
      "lat": 45.393176,
      "lon": 2.493496,
      "cp": "19110",
      "ville": "BORT LES ORGUES",
      "prix": {
        "Gazole": 0.00225,
        "SP95": 0.00199,
        "SP98": 0.00199
      },
      "maj_gouv": {
        "Gazole": "2026-04-10 13:52:18",
        "SP95": "2026-04-10 13:52:18",
        "SP98": "2026-04-10 13:52:18"
      }
    },
    {
      "id": "19130004",
      "lat": 45.245,
      "lon": 1.413,
      "cp": "19130",
      "ville": "Objat",
      "prix": {
        "Gazole": 0.00209,
        "E85": 0.000819,
        "E10": 0.00199
      },
      "maj_gouv": {
        "Gazole": "2026-05-15 09:05:19",
        "E85": "2026-04-21 07:21:06",
        "E10": "2026-05-15 09:05:19"
      }
    }
  ]
}