{
  "departement": "95",
  "date": "2026-05-17",
  "stations": [
    {
      "id": "95350002",
      "lat": 49.00763,
      "lon": 2.35163,
      "cp": "95350",
      "ville": "SAINT-BRICE-SOUS-FORêT",
      "prix": {
        "Gazole": 0.0021349999999999997,
        "SP95": 0.001738,
        "E85": 0.000764,
        "GPLc": 0.000949,
        "E10": 0.002061,
        "SP98": 0.0022069999999999998
      },
      "maj_gouv": {
        "Gazole": "2026-05-16 15:36:22",
        "SP95": "2025-12-31 19:37:56",
        "E85": "2026-05-16 15:36:22",
        "GPLc": "2026-05-16 15:36:22",
        "E10": "2026-05-16 15:36:22",
        "SP98": "2026-05-16 15:36:22"
      }
    },
    {
      "id": "95100011",
      "lat": 48.943,
      "lon": 2.253,
      "cp": "95100",
      "ville": "Argenteuil",
      "prix": {
        "Gazole": 0.0021379999999999997,
        "E85": 0.000966,
        "E10": 0.002045,
        "SP98": 0.002125
      },
      "maj_gouv": {
        "Gazole": "2026-05-14 06:31:00",
        "E85": "2026-05-14 06:31:00",
        "E10": "2026-05-14 06:31:00",
        "SP98": "2026-05-14 06:31:00"
      }
    },
    {
      "id": "95440001",
      "lat": 49.027,
      "lon": 2.369,
      "cp": "95440",
      "ville": "Écouen",
      "prix": {
        "Gazole": 0.002141,
        "E85": 0.0007650000000000001,
        "E10": 0.002109,
        "SP98": 0.002182
      },
      "maj_gouv": {
        "Gazole": "2026-05-15 08:48:40",
        "E85": "2026-05-15 08:48:40",
        "E10": "2026-05-15 08:48:40",
        "SP98": "2026-05-15 08:48:41"
      }
    },
    {
      "id": "95100030",
      "lat": 48.95763,
      "lon": 2.27971,
      "cp": "95100",
      "ville": "ARGENTEUIL",
      "prix": {
        "Gazole": 0.00209,
        "E85": 0.0009040000000000001,
        "E10": 0.00199,
        "SP98": 0.00199
      },
      "maj_gouv": {
        "Gazole": "2026-05-17 00:01:00",
        "E85": "2026-05-17 00:01:00",
        "E10": "2026-05-17 00:01:00",
        "SP98": "2026-05-17 00:01:00"
      }
    },
    {
      "id": "95130001",
      "lat": 48.986,
      "lon": 2.238,
      "cp": "95130",
      "ville": "Franconville",
      "prix": {
        "Gazole": 0.002108,
        "E10": 0.002068,
        "SP98": 0.0021379999999999997
      },
      "maj_gouv": {
        "Gazole": "2026-05-15 11:21:00",
        "E10": "2026-05-15 11:21:00",
        "SP98": "2026-05-15 11:21:00"
      }
    },
    {
      "id": "95220003",
      "lat": 49.006,
      "lon": 2.172,
      "cp": "95220",
      "ville": "Herblay",
      "prix": {
        "Gazole": 0.0021190000000000002,
        "E10": 0.002058,
        "SP98": 0.0021379999999999997
      },
      "maj_gouv": {
        "Gazole": "2026-05-14 07:41:00",
        "E10": "2026-05-14 07:41:00",
        "SP98": "2026-05-14 07:41:00"
      }
    },
    {
      "id": "95400003",
      "lat": 48.982,
      "lon": 2.431,
      "cp": "95400",
      "ville": "Arnouville-lès-Gonesse",
      "prix": {
        "Gazole": 0.002126,
        "E10": 0.002059,
        "SP98": 0.002139
      },
      "maj_gouv": {
        "Gazole": "2026-05-16 06:31:00",
        "E10": "2026-05-16 06:31:00",
        "SP98": "2026-05-16 06:31:00"
      }
    },
    {
      "id": "95600002",
      "lat": 48.994,
      "lon": 2.28,
      "cp": "95600",
      "ville": "Eaubonne",
      "prix": {
        "Gazole": 0.002104,
        "E85": 0.0009559999999999999,
        "E10": 0.002008,
        "SP98": 0.002124
      },
      "maj_gouv": {
        "Gazole": "2026-05-16 06:31:00",
        "E85": "2026-05-16 06:31:00",
        "E10": "2026-05-16 06:31:00",
        "SP98": "2026-05-16 06:31:00"
      }
    },
    {
      "id": "95570007",
      "lat": 49.041,
      "lon": 2.343,
      "cp": "95570",
      "ville": "Moisselles",
      "prix": {
        "Gazole": 0.002154,
        "E10": 0.00207,
        "SP98": 0.002216
      },
      "maj_gouv": {
        "Gazole": "2026-05-16 07:41:00",
        "E10": "2026-05-16 07:41:00",
        "SP98": "2026-05-16 07:41:00"
      }
    },
    {
      "id": "95800003",
      "lat": 49.052993645837,
      "lon": 2.0463281651542,
      "cp": "95800",
      "ville": "Cergy",
      "prix": {
        "Gazole": 0.002124,
        "E10": 0.002059,
        "SP98": 0.002148
      },
      "maj_gouv": {
        "Gazole": "2026-05-15 11:21:00",
        "E10": "2026-05-15 11:21:00",
        "SP98": "2026-05-15 11:21:00"
      }
    },
    {
      "id": "95570009",
      "lat": 49.06,
      "lon": 2.348,
      "cp": "95570",
      "ville": "ATTAINVILLE",
      "prix": {
        "Gazole": 0.002169,
        "GPLc": 0.001239,
        "E10": 0.002169,
        "SP98": 0.002339
      },
      "maj_gouv": {
        "Gazole": "2026-05-16 22:14:19",
        "GPLc": "2026-05-16 22:14:19",
        "E10": "2026-05-16 22:14:19",
        "SP98": "2026-05-16 22:14:19"
      }
    },
    {
      "id": "95310010",
      "lat": 49.04,
      "lon": 2.116,
      "cp": "95310",
      "ville": "Saint-Ouen-l'Aumône",
      "prix": {
        "Gazole": 0.002129,
        "E10": 0.002109,
        "SP98": 0.002229
      },
      "maj_gouv": {
        "Gazole": "2026-05-16 22:04:22",
        "E10": "2026-05-16 22:04:22",
        "SP98": "2026-05-16 22:04:22"
      }
    },
    {
      "id": "95610007",
      "lat": 49.026,
      "lon": 2.103,
      "cp": "95610",
      "ville": "ERAGNY-SUR-OISE",
      "prix": {
        "Gazole": 0.0021190000000000002,
        "E10": 0.002059,
        "SP98": 0.002169
      },
      "maj_gouv": {
        "Gazole": "2026-05-15 11:50:04",
        "E10": "2026-05-15 11:50:04",
        "SP98": "2026-05-15 11:50:04"
      }
    },
    {
      "id": "95230010",
      "lat": 48.990753655031,
      "lon": 2.2892381272629,
      "cp": "95230",
      "ville": "SOISY-SOUS-MONTMORENCY",
      "prix": {
        "Gazole": 0.00209,
        "E10": 0.00199
      },
      "maj_gouv": {
        "Gazole": "2026-05-16 09:36:18",
        "E10": "2026-05-16 09:36:18"
      }
    },
    {
      "id": "95220006",
      "lat": 49.00291,
      "lon": 2.18698,
      "cp": "95220",
      "ville": "HERBLAY",
      "prix": {},
      "maj_gouv": {}
    },
    {
      "id": "95100035",
      "lat": 48.952306479647,
      "lon": 2.2130157579777,
      "cp": "95100",
      "ville": "ARGENTEUIL",
      "prix": {
        "Gazole": 0.00209,
        "E85": 0.000869,
        "E10": 0.00199,
        "SP98": 0.00199
      },
      "maj_gouv": {
        "Gazole": "2026-05-17 00:01:00",
        "E85": "2026-05-17 00:01:00",
        "E10": "2026-05-17 00:01:00",
        "SP98": "2026-05-17 00:01:00"
      }
    },
    {
      "id": "95450007",
      "lat": 49.064195539574,
      "lon": 1.9827089208983002,
      "cp": "95450",
      "ville": "SAGY",
      "prix": {
        "Gazole": 0.00209,
        "E85": 0.000859,
        "GPLc": 0.001035,
        "E10": 0.00199,
        "SP98": 0.00199
      },
      "maj_gouv": {
        "Gazole": "2026-05-17 00:01:00",
        "E85": "2026-05-17 00:01:00",
        "GPLc": "2026-05-17 00:01:00",
        "E10": "2026-05-17 00:01:00",
        "SP98": "2026-05-17 00:01:00"
      }
    },
    {
      "id": "95420005",
      "lat": 49.13514,
      "lon": 1.78964,
      "cp": "95420",
      "ville": "CHARMONT",
      "prix": {
        "Gazole": 0.00209,
        "E85": 0.000859,
        "E10": 0.00199
      },
      "maj_gouv": {
        "Gazole": "2026-05-17 00:01:00",
        "E85": "2026-05-17 00:01:00",
        "E10": "2026-05-17 00:01:00"
      }
    },
    {
      "id": "95350004",
      "lat": 48.993,
      "lon": 2.359,
      "cp": "95350",
      "ville": "Saint-Brice-sous-Forêt",
      "prix": {
        "Gazole": 0.00209,
        "E85": 0.0008489999999999999
      },
      "maj_gouv": {
        "Gazole": "2026-05-17 00:01:00",
        "E85": "2026-05-17 00:01:00"
      }
    },
    {
      "id": "95230008",
      "lat": 48.9869,
      "lon": 2.29595,
      "cp": "95230",
      "ville": "Soisy-sous-Montmorency",
      "prix": {
        "Gazole": 0.00209,
        "E10": 0.00199,
        "SP98": 0.00199
      },
      "maj_gouv": {
        "Gazole": "2026-05-17 00:01:00",
        "E10": "2026-05-17 00:01:00",
        "SP98": "2026-05-17 00:01:00"
      }
    },
    {
      "id": "95650002",
      "lat": 49.082,
      "lon": 2.069,
      "cp": "95650",
      "ville": "GENICOURT",
      "prix": {
        "Gazole": 0.00209,
        "E85": 0.000841,
        "GPLc": 0.001029,
        "E10": 0.00199
      },
      "maj_gouv": {
        "Gazole": "2026-05-17 00:01:00",
        "E85": "2026-05-17 00:01:00",
        "GPLc": "2026-05-17 00:01:00",
        "E10": "2026-05-17 00:01:00"
      }
    },
    {
      "id": "95160003",
      "lat": 49.01,
      "lon": 2.313,
      "cp": "95160",
      "ville": "MONTMORENCY",
      "prix": {
        "Gazole": 0.002141,
        "E10": 0.00206,
        "SP98": 0.002179
      },
      "maj_gouv": {
        "Gazole": "2026-05-16 08:38:53",
        "E10": "2026-05-15 08:36:14",
        "SP98": "2026-05-15 08:36:14"
      }
    },
    {
      "id": "95870009",
      "lat": 48.936,
      "lon": 2.208,
      "cp": "95870",
      "ville": "BEZONS",
      "prix": {
        "Gazole": 0.00209,
        "E10": 0.00199,
        "SP98": 0.00199
      },
      "maj_gouv": {
        "Gazole": "2026-05-17 00:01:00",
        "E10": "2026-05-17 00:01:00",
        "SP98": "2026-05-17 00:01:00"
      }
    },
    {
      "id": "95340004",
      "lat": 49.146667120000004,
      "lon": 2.2837288200000003,
      "cp": "95340",
      "ville": "Persan",
      "prix": {
        "Gazole": 0.0021190000000000002,
        "E85": 0.001049,
        "E10": 0.002059,
        "SP98": 0.002209
      },
      "maj_gouv": {
        "Gazole": "2026-05-15 11:49:44",
        "E85": "2026-05-15 11:49:44",
        "E10": "2026-05-15 11:49:44",
        "SP98": "2026-05-15 11:49:44"
      }
    },
    {
      "id": "95500010",
      "lat": 48.967,
      "lon": 2.465,
      "cp": "95500",
      "ville": "GONESSE",
      "prix": {
        "Gazole": 0.00209,
        "E85": 0.000889,
        "E10": 0.00199
      },
      "maj_gouv": {
        "Gazole": "2026-05-17 00:01:00",
        "E85": "2026-05-17 00:01:00",
        "E10": "2026-05-17 00:01:00"
      }
    },
    {
      "id": "95500012",
      "lat": 48.99401,
      "lon": 2.42407,
      "cp": "95500",
      "ville": "GONESSE",
      "prix": {
        "Gazole": 0.00209,
        "E85": 0.000889,
        "E10": 0.00199,
        "SP98": 0.00199
      },
      "maj_gouv": {
        "Gazole": "2026-05-17 00:01:00",
        "E85": "2026-05-17 00:01:00",
        "E10": "2026-05-17 00:01:00",
        "SP98": "2026-05-17 00:01:00"
      }
    },
    {
      "id": "95520004",
      "lat": 49.068,
      "lon": 2.088,
      "cp": "95520",
      "ville": "Osny",
      "prix": {
        "Gazole": 0.002089,
        "E85": 0.0008179999999999999,
        "E10": 0.002045,
        "SP98": 0.002134
      },
      "maj_gouv": {
        "Gazole": "2026-05-17 01:15:00",
        "E85": "2026-05-17 01:15:00",
        "E10": "2026-05-17 01:15:00",
        "SP98": "2026-05-17 01:15:00"
      }
    },
    {
      "id": "95470008",
      "lat": 49.071,
      "lon": 2.551,
      "cp": "95470",
      "ville": "VEMARS",
      "prix": {
        "Gazole": 0.002246,
        "E10": 0.002148,
        "SP98": 0.002247
      },
      "maj_gouv": {
        "Gazole": "2026-05-12 09:30:00",
        "E10": "2026-05-12 09:30:00",
        "SP98": "2026-05-12 09:30:00"
      }
    },
    {
      "id": "95110007",
      "lat": 48.963,
      "lon": 2.26,
      "cp": "95110",
      "ville": "SANNOIS",
      "prix": {
        "Gazole": 0.00209,
        "E85": 0.0008950000000000001,
        "E10": 0.00199
      },
      "maj_gouv": {
        "Gazole": "2026-05-17 00:01:00",
        "E85": "2026-05-17 00:01:00",
        "E10": "2026-05-17 00:01:00"
      }
    },
    {
      "id": "95120002",
      "lat": 48.99,
      "lon": 2.257,
      "cp": "95120",
      "ville": "Ermont",
      "prix": {
        "Gazole": 0.002179,
        "E10": 0.002129,
        "SP98": 0.002299
      },
      "maj_gouv": {
        "Gazole": "2026-05-15 11:49:41",
        "E10": "2026-05-15 11:49:41",
        "SP98": "2026-05-15 11:49:41"
      }
    },
    {
      "id": "95190006",
      "lat": 49.038,
      "lon": 2.455,
      "cp": "95190",
      "ville": "GOUSSAINVILLE",
      "prix": {
        "Gazole": 0.00209,
        "E10": 0.00199,
        "SP98": 0.00199
      },
      "maj_gouv": {
        "Gazole": "2026-05-17 00:01:00",
        "E10": "2026-05-17 00:01:00",
        "SP98": "2026-05-17 00:01:00"
      }
    },
    {
      "id": "95331002",
      "lat": 49.028,
      "lon": 2.347,
      "cp": "95331",
      "ville": "Domont",
      "prix": {
        "Gazole": 0.002179,
        "GPLc": 0.001259,
        "E10": 0.002099,
        "SP98": 0.002269
      },
      "maj_gouv": {
        "Gazole": "2026-05-16 22:08:23",
        "GPLc": "2026-05-16 22:08:23",
        "E10": "2026-05-16 22:08:22",
        "SP98": "2026-05-16 22:08:22"
      }
    },
    {
      "id": "95100034",
      "lat": 48.955,
      "lon": 2.273,
      "cp": "95100",
      "ville": "ARGENTEUIL",
      "prix": {
        "Gazole": 0.00209,
        "E10": 0.00199,
        "SP98": 0.00199
      },
      "maj_gouv": {
        "Gazole": "2026-05-17 00:01:00",
        "E10": "2026-05-17 00:01:00",
        "SP98": "2026-05-17 00:01:00"
      }
    },
    {
      "id": "95640001",
      "lat": 49.147,
      "lon": 1.975,
      "cp": "95640",
      "ville": "MARINES",
      "prix": {},
      "maj_gouv": {}
    },
    {
      "id": "95190005",
      "lat": 49.015625843572,
      "lon": 2.4702620933139,
      "cp": "95190",
      "ville": "GOUSSAINVILLE",
      "prix": {
        "Gazole": 0.00209,
        "E85": 0.000892,
        "E10": 0.00199,
        "SP98": 0.00199
      },
      "maj_gouv": {
        "Gazole": "2026-05-17 00:01:00",
        "E85": "2026-05-17 00:01:00",
        "E10": "2026-05-17 00:01:00",
        "SP98": "2026-05-17 00:01:00"
      }
    },
    {
      "id": "95170001",
      "lat": 48.968,
      "lon": 2.316,
      "cp": "95170",
      "ville": "Deuil-la-Barre",
      "prix": {
        "Gazole": 0.002299,
        "E10": 0.002169,
        "SP98": 0.002339
      },
      "maj_gouv": {
        "Gazole": "2026-05-14 13:24:05",
        "E10": "2026-05-14 13:24:05",
        "SP98": "2026-05-14 13:24:05"
      }
    },
    {
      "id": "95610008",
      "lat": 49.026,
      "lon": 2.104,
      "cp": "95610",
      "ville": "Eragny-sur-Oise",
      "prix": {
        "Gazole": 0.002169,
        "E85": 0.0010789999999999999,
        "GPLc": 0.001339,
        "E10": 0.002139,
        "SP98": 0.0022890000000000002
      },
      "maj_gouv": {
        "Gazole": "2026-05-16 22:06:21",
        "E85": "2026-05-16 22:06:21",
        "GPLc": "2026-05-16 22:06:21",
        "E10": "2026-05-16 22:06:21",
        "SP98": "2026-05-16 22:06:21"
      }
    },
    {
      "id": "95520002",
      "lat": 49.05,
      "lon": 2.075,
      "cp": "95520",
      "ville": "OSNY",
      "prix": {
        "Gazole": 0.00209,
        "E85": 0.000879,
        "E10": 0.00199,
        "SP98": 0.00199
      },
      "maj_gouv": {
        "Gazole": "2026-05-14 00:08:04",
        "E85": "2026-05-14 00:08:04",
        "E10": "2026-05-14 00:08:04",
        "SP98": "2026-05-14 00:08:04"
      }
    },
    {
      "id": "95180001",
      "lat": 49.02938,
      "lon": 1.99173,
      "cp": "95180",
      "ville": "MENUCOURT",
      "prix": {
        "Gazole": 0.002085,
        "SP95": 0.0020499999999999997,
        "SP98": 0.0021349999999999997
      },
      "maj_gouv": {
        "Gazole": "2026-05-15 09:01:37",
        "SP95": "2026-05-15 09:01:37",
        "SP98": "2026-05-15 09:01:37"
      }
    },
    {
      "id": "95370001",
      "lat": 48.993,
      "lon": 2.198,
      "cp": "95370",
      "ville": "MONTIGNY-LèS-CORMEILLES",
      "prix": {
        "Gazole": 0.002109,
        "SP95": 0.0021190000000000002,
        "E85": 0.000869,
        "E10": 0.0020350000000000004,
        "SP98": 0.002149
      },
      "maj_gouv": {
        "Gazole": "2026-05-16 10:02:33",
        "SP95": "2026-05-16 10:02:33",
        "E85": "2026-05-16 10:02:33",
        "E10": "2026-05-16 10:02:33",
        "SP98": "2026-05-16 10:02:33"
      }
    },
    {
      "id": "95100006",
      "lat": 48.957,
      "lon": 2.284,
      "cp": "95100",
      "ville": "Argenteuil",
      "prix": {
        "Gazole": 0.0021190000000000002,
        "E10": 0.002089,
        "SP98": 0.0022589999999999997
      },
      "maj_gouv": {
        "Gazole": "2026-05-15 17:04:19",
        "E10": "2026-05-15 17:04:19",
        "SP98": "2026-05-15 17:04:19"
      }
    },
    {
      "id": "95320005",
      "lat": 49.008,
      "lon": 2.242,
      "cp": "95320",
      "ville": "Saint-Leu-la-Forêt",
      "prix": {
        "Gazole": 0.0021190000000000002,
        "E10": 0.002069,
        "SP98": 0.002219
      },
      "maj_gouv": {
        "Gazole": "2026-05-16 22:08:46",
        "E10": "2026-05-16 22:08:46",
        "SP98": "2026-05-16 22:08:46"
      }
    },
    {
      "id": "95370003",
      "lat": 48.992,
      "lon": 2.182,
      "cp": "95370",
      "ville": "MONTIGNY-LES-CORMEILLES",
      "prix": {
        "Gazole": 0.002219,
        "E10": 0.002189,
        "SP98": 0.002339
      },
      "maj_gouv": {
        "Gazole": "2026-05-16 22:10:42",
        "E10": "2026-05-16 22:10:42",
        "SP98": "2026-05-16 22:10:42"
      }
    },
    {
      "id": "95310011",
      "lat": 49.047756660000005,
      "lon": 2.13195072,
      "cp": "95310",
      "ville": "Saint-Ouen-l'Aumône",
      "prix": {
        "Gazole": 0.00209
      },
      "maj_gouv": {
        "Gazole": "2026-05-17 00:01:00"
      }
    },
    {
      "id": "95280001",
      "lat": 49.010841476844,
      "lon": 2.0298330278809,
      "cp": "95280",
      "ville": "Jouy-le-Moutier",
      "prix": {
        "Gazole": 0.002129,
        "SP95": 0.002099,
        "SP98": 0.002179
      },
      "maj_gouv": {
        "Gazole": "2026-05-16 07:13:19",
        "SP95": "2026-05-16 07:13:19",
        "SP98": "2026-05-16 07:13:19"
      }
    },
    {
      "id": "95400008",
      "lat": 49.00053,
      "lon": 2.39389,
      "cp": "95400",
      "ville": "Villiers-le-Bel",
      "prix": {
        "Gazole": 0.00209,
        "E10": 0.00199,
        "SP98": 0.00199
      },
      "maj_gouv": {
        "Gazole": "2026-05-17 00:01:00",
        "E10": "2026-05-17 00:01:00",
        "SP98": "2026-05-17 00:01:00"
      }
    },
    {
      "id": "95290003",
      "lat": 49.110450964099996,
      "lon": 2.22459192177,
      "cp": "95290",
      "ville": "L'Isle-Adam",
      "prix": {
        "Gazole": 0.00209,
        "E85": 0.000909,
        "E10": 0.00199
      },
      "maj_gouv": {
        "Gazole": "2026-05-17 00:01:00",
        "E85": "2026-05-17 00:01:00",
        "E10": "2026-05-17 00:01:00"
      }
    },
    {
      "id": "95600001",
      "lat": 48.978,
      "lon": 2.291,
      "cp": "95600",
      "ville": "EAUBONNE",
      "prix": {
        "Gazole": 0.00209,
        "E10": 0.00199,
        "SP98": 0.00199
      },
      "maj_gouv": {
        "Gazole": "2026-05-15 12:36:58",
        "E10": "2026-04-07 19:31:09",
        "SP98": "2026-04-07 19:31:09"
      }
    },
    {
      "id": "95100021",
      "lat": 48.94,
      "lon": 2.233,
      "cp": "95100",
      "ville": "Argenteuil",
      "prix": {
        "Gazole": 0.002159,
        "E85": 0.0010689999999999999,
        "E10": 0.002109,
        "SP98": 0.0022789999999999998
      },
      "maj_gouv": {
        "Gazole": "2026-05-15 11:59:05",
        "E85": "2026-05-15 11:59:05",
        "E10": "2026-05-15 11:59:05",
        "SP98": "2026-05-15 11:59:05"
      }
    },
    {
      "id": "95870010",
      "lat": 48.936888607759,
      "lon": 2.2069830018219,
      "cp": "95870",
      "ville": "Bezons",
      "prix": {
        "Gazole": 0.00209,
        "E85": 0.000879,
        "E10": 0.00199,
        "SP98": 0.00199
      },
      "maj_gouv": {
        "Gazole": "2026-05-13 22:01:00",
        "E85": "2026-05-16 10:09:27",
        "E10": "2026-05-16 10:08:27",
        "SP98": "2026-05-16 10:09:27"
      }
    },
    {
      "id": "95740005",
      "lat": 49.048,
      "lon": 2.201,
      "cp": "95740",
      "ville": "FREPILLON",
      "prix": {
        "Gazole": 0.00209,
        "E85": 0.000859,
        "E10": 0.00199
      },
      "maj_gouv": {
        "Gazole": "2026-05-17 00:01:00",
        "E85": "2026-05-17 00:01:00",
        "E10": "2026-05-17 00:01:00"
      }
    },
    {
      "id": "95100032",
      "lat": 48.945,
      "lon": 2.207,
      "cp": "95100",
      "ville": "Argenteuil",
      "prix": {
        "Gazole": 0.00209,
        "E85": 0.000869,
        "E10": 0.00199,
        "SP98": 0.00199
      },
      "maj_gouv": {
        "Gazole": "2026-05-17 00:01:00",
        "E85": "2026-05-17 00:01:00",
        "E10": "2026-05-17 00:01:00",
        "SP98": "2026-05-17 00:01:00"
      }
    },
    {
      "id": "95450006",
      "lat": 49.064610342954,
      "lon": 1.9789464314269,
      "cp": "95450",
      "ville": "SAGY",
      "prix": {
        "Gazole": 0.00209,
        "E85": 0.000859,
        "E10": 0.00199,
        "SP98": 0.00199
      },
      "maj_gouv": {
        "Gazole": "2026-05-17 00:01:00",
        "E85": "2026-05-17 00:01:00",
        "E10": "2026-05-17 00:01:00",
        "SP98": "2026-05-17 00:01:00"
      }
    },
    {
      "id": "95240003",
      "lat": 48.971,
      "lon": 2.192,
      "cp": "95240",
      "ville": "CORMEILLES-EN-PARISIS",
      "prix": {
        "Gazole": 0.00209,
        "E10": 0.00199,
        "SP98": 0.00199
      },
      "maj_gouv": {
        "Gazole": "2026-05-16 08:21:23",
        "E10": "2026-05-16 08:21:23",
        "SP98": "2026-05-16 08:21:23"
      }
    },
    {
      "id": "95800001",
      "lat": 49.05575,
      "lon": 2.0188,
      "cp": "95650",
      "ville": "PUISEUX-PONTOISE",
      "prix": {
        "Gazole": 0.0021349999999999997,
        "SP95": 0.0021030000000000003,
        "E85": 0.000859,
        "E10": 0.002052,
        "SP98": 0.0021680000000000002
      },
      "maj_gouv": {
        "Gazole": "2026-05-15 12:36:19",
        "SP95": "2026-05-15 12:36:19",
        "E85": "2026-05-15 12:36:19",
        "E10": "2026-05-15 12:36:19",
        "SP98": "2026-05-15 12:36:19"
      }
    },
    {
      "id": "95380002",
      "lat": 49.04806137,
      "lon": 2.50257752,
      "cp": "95380",
      "ville": "LOUVRES",
      "prix": {
        "Gazole": 0.002219,
        "E10": 0.0021939999999999998,
        "SP98": 0.0022589999999999997
      },
      "maj_gouv": {
        "Gazole": "2026-05-13 08:15:58",
        "E10": "2026-05-13 08:15:58",
        "SP98": "2026-05-13 08:15:58"
      }
    },
    {
      "id": "95540002",
      "lat": 49.061,
      "lon": 2.17,
      "cp": "95540",
      "ville": "MéRY-SUR-OISE",
      "prix": {
        "Gazole": 0.002121,
        "E85": 0.0008179999999999999,
        "E10": 0.002041,
        "SP98": 0.002179
      },
      "maj_gouv": {
        "Gazole": "2026-05-16 08:00:00",
        "E85": "2026-05-16 08:00:00",
        "E10": "2026-05-16 08:00:00",
        "SP98": "2026-05-16 08:00:00"
      }
    },
    {
      "id": "95640002",
      "lat": 49.146725,
      "lon": 1.974442,
      "cp": "95640",
      "ville": "Marines",
      "prix": {
        "Gazole": 0.0021349999999999997,
        "E10": 0.002052,
        "SP98": 0.0021880000000000003
      },
      "maj_gouv": {
        "Gazole": "2026-05-15 14:25:02",
        "E10": "2026-05-15 14:25:02",
        "SP98": "2026-05-15 14:25:02"
      }
    },
    {
      "id": "95150001",
      "lat": 49.0146669398,
      "lon": 2.22190168155,
      "cp": "95150",
      "ville": "TAVERNY",
      "prix": {
        "Gazole": 0.002105,
        "E85": 0.000869,
        "GPLc": 0.0011790000000000001,
        "E10": 0.002059,
        "SP98": 0.002129
      },
      "maj_gouv": {
        "Gazole": "2026-05-11 09:35:22",
        "E85": "2026-05-15 13:42:08",
        "GPLc": "2026-05-15 13:42:08",
        "E10": "2026-05-14 09:27:59",
        "SP98": "2026-05-14 09:28:00"
      }
    },
    {
      "id": "95110006",
      "lat": 48.967,
      "lon": 2.262,
      "cp": "95110",
      "ville": "SANNOIS",
      "prix": {
        "Gazole": 0.00209,
        "E10": 0.00199,
        "SP98": 0.00199
      },
      "maj_gouv": {
        "Gazole": "2026-05-17 00:01:00",
        "E10": "2026-05-17 00:01:00",
        "SP98": "2026-05-17 00:01:00"
      }
    },
    {
      "id": "95370008",
      "lat": 48.99694,
      "lon": 2.18922,
      "cp": "95370",
      "ville": "Montigny-lès-Cormeilles",
      "prix": {
        "Gazole": 0.00209,
        "GPLc": 0.001049,
        "E10": 0.00199
      },
      "maj_gouv": {
        "Gazole": "2026-05-17 00:01:00",
        "GPLc": "2026-05-17 00:01:00",
        "E10": "2026-05-17 00:01:00"
      }
    },
    {
      "id": "95400004",
      "lat": 48.986,
      "lon": 2.413,
      "cp": "95400",
      "ville": "ARNOUVILLE",
      "prix": {
        "Gazole": 0.0021000000000000003,
        "E85": 0.000769,
        "E10": 0.0020499999999999997,
        "SP98": 0.0021469999999999996
      },
      "maj_gouv": {
        "Gazole": "2026-05-13 15:24:13",
        "E85": "2026-05-13 15:24:13",
        "E10": "2026-05-13 15:24:13",
        "SP98": "2026-05-13 15:24:14"
      }
    },
    {
      "id": "95290001",
      "lat": 49.124,
      "lon": 2.248,
      "cp": "95290",
      "ville": "L'ISLE-ADAM",
      "prix": {
        "Gazole": 0.002068,
        "E85": 0.000775,
        "GPLc": 0.000949,
        "E10": 0.002043,
        "SP98": 0.002196
      },
      "maj_gouv": {
        "Gazole": "2026-05-16 08:56:43",
        "E85": "2026-05-16 08:56:43",
        "GPLc": "2026-05-16 08:56:43",
        "E10": "2026-05-16 08:56:43",
        "SP98": "2026-05-16 08:56:44"
      }
    },
    {
      "id": "95570003",
      "lat": 49.041177467467996,
      "lon": 2.3422049553388,
      "cp": "95570",
      "ville": "MOISSELLES",
      "prix": {
        "Gazole": 0.002109,
        "SP95": 0.002109,
        "E85": 0.000759,
        "E10": 0.002079,
        "SP98": 0.002149
      },
      "maj_gouv": {
        "Gazole": "2026-05-15 08:49:44",
        "SP95": "2026-05-15 08:49:44",
        "E85": "2026-04-20 10:36:41",
        "E10": "2026-05-15 08:49:44",
        "SP98": "2026-05-15 08:49:44"
      }
    },
    {
      "id": "95480003",
      "lat": 49.013,
      "lon": 2.149,
      "cp": "95480",
      "ville": "PIERRELAYE",
      "prix": {
        "Gazole": 0.00209,
        "GPLc": 0.001019,
        "E10": 0.00199
      },
      "maj_gouv": {
        "Gazole": "2026-05-17 00:01:00",
        "GPLc": "2026-05-17 00:01:00",
        "E10": "2026-05-17 00:01:00"
      }
    },
    {
      "id": "95520001",
      "lat": 49.077,
      "lon": 2.077,
      "cp": "95520",
      "ville": "OSNY",
      "prix": {
        "Gazole": 0.0021000000000000003,
        "GPLc": 0.001029,
        "E10": 0.002045,
        "SP98": 0.002134
      },
      "maj_gouv": {
        "Gazole": "2026-05-15 10:21:37",
        "GPLc": "2026-05-07 15:40:17",
        "E10": "2026-05-15 10:21:37",
        "SP98": "2026-05-15 10:21:37"
      }
    },
    {
      "id": "95300004",
      "lat": 49.045,
      "lon": 2.096,
      "cp": "95300",
      "ville": "PONTOISE",
      "prix": {
        "Gazole": 0.00209,
        "E10": 0.00199,
        "SP98": 0.00199
      },
      "maj_gouv": {
        "Gazole": "2026-05-17 00:01:00",
        "E10": "2026-05-17 00:01:00",
        "SP98": "2026-05-17 00:01:00"
      }
    },
    {
      "id": "95320006",
      "lat": 49.013,
      "lon": 2.249,
      "cp": "95320",
      "ville": "Saint-Leu-la-Forêt",
      "prix": {
        "Gazole": 0.00209,
        "E85": 0.0008990000000000001,
        "SP98": 0.00199
      },
      "maj_gouv": {
        "Gazole": "2026-05-17 00:01:00",
        "E85": "2026-05-17 00:01:00",
        "SP98": "2026-05-17 00:01:00"
      }
    },
    {
      "id": "95470009",
      "lat": 49.072,
      "lon": 2.553,
      "cp": "95470",
      "ville": "VEMARS",
      "prix": {
        "Gazole": 0.002262,
        "GPLc": 0.0010789999999999999,
        "E10": 0.002134,
        "SP98": 0.0022029999999999997
      },
      "maj_gouv": {
        "Gazole": "2026-05-14 11:31:00",
        "GPLc": "2026-05-14 11:31:00",
        "E10": "2026-05-14 11:31:00",
        "SP98": "2026-05-14 11:31:00"
      }
    },
    {
      "id": "95100037",
      "lat": 48.951634109562,
      "lon": 2.2122929705522,
      "cp": "95100",
      "ville": "Argenteuil",
      "prix": {
        "Gazole": 0.00209,
        "E10": 0.00199,
        "SP98": 0.00199
      },
      "maj_gouv": {
        "Gazole": "2026-05-17 00:01:00",
        "E10": "2026-05-17 00:01:00",
        "SP98": "2026-05-17 00:01:00"
      }
    },
    {
      "id": "95270004",
      "lat": 49.085,
      "lon": 2.416,
      "cp": "95270",
      "ville": "ÉPINAY-CHAMPLâTREUX",
      "prix": {
        "Gazole": 0.0024590000000000002,
        "SP95": 0.002189,
        "SP98": 0.002199
      },
      "maj_gouv": {
        "Gazole": "2026-03-30 06:28:08",
        "SP95": "2026-03-30 06:28:08",
        "SP98": "2026-03-30 06:28:08"
      }
    },
    {
      "id": "95100007",
      "lat": 48.945,
      "lon": 2.263,
      "cp": "95100",
      "ville": "Argenteuil",
      "prix": {
        "Gazole": 0.0022389999999999997,
        "E10": 0.002149,
        "SP98": 0.002299
      },
      "maj_gouv": {
        "Gazole": "2026-05-14 13:25:39",
        "E10": "2026-05-14 13:25:39",
        "SP98": "2026-05-14 13:25:39"
      }
    },
    {
      "id": "95190003",
      "lat": 49.022,
      "lon": 2.456,
      "cp": "95190",
      "ville": "GOUSSAINVILLE",
      "prix": {
        "Gazole": 0.0021019999999999997,
        "E10": 0.002019,
        "SP98": 0.002154
      },
      "maj_gouv": {
        "Gazole": "2026-05-12 22:43:00",
        "E10": "2026-05-12 22:43:00",
        "SP98": "2026-05-12 22:43:00"
      }
    },
    {
      "id": "95550002",
      "lat": 49.033,
      "lon": 2.205,
      "cp": "95550",
      "ville": "Bessancourt",
      "prix": {
        "Gazole": 0.002129,
        "SP95": 0.002139,
        "E85": 0.0008489999999999999,
        "E10": 0.002099,
        "SP98": 0.002169
      },
      "maj_gouv": {
        "Gazole": "2026-05-15 08:56:45",
        "SP95": "2026-05-15 08:56:45",
        "E85": "2026-05-15 08:56:45",
        "E10": "2026-05-15 08:56:45",
        "SP98": "2026-05-15 08:56:46"
      }
    },
    {
      "id": "95480002",
      "lat": 49.015,
      "lon": 2.146,
      "cp": "95480",
      "ville": "Pierrelaye",
      "prix": {
        "Gazole": 0.002229,
        "GPLc": 0.001019,
        "E10": 0.0021349999999999997,
        "SP98": 0.002235
      },
      "maj_gouv": {
        "Gazole": "2026-05-16 07:41:00",
        "GPLc": "2026-05-16 07:41:00",
        "E10": "2026-05-16 07:41:00",
        "SP98": "2026-05-16 07:41:00"
      }
    },
    {
      "id": "95000011",
      "lat": 49.032,
      "lon": 2.069,
      "cp": "95000",
      "ville": "Cergy",
      "prix": {
        "Gazole": 0.002209,
        "E10": 0.002129,
        "SP98": 0.0022789999999999998
      },
      "maj_gouv": {
        "Gazole": "2026-05-16 22:12:19",
        "E10": "2026-05-16 22:12:19",
        "SP98": "2026-05-16 22:12:19"
      }
    },
    {
      "id": "95540005",
      "lat": 49.054,
      "lon": 2.175,
      "cp": "95540",
      "ville": "MERY SUR OISE",
      "prix": {
        "Gazole": 0.002149,
        "GPLc": 0.0011790000000000001,
        "E10": 0.0021190000000000002,
        "SP98": 0.0022589999999999997
      },
      "maj_gouv": {
        "Gazole": "2026-05-16 22:09:07",
        "GPLc": "2026-05-16 22:09:07",
        "E10": "2026-05-16 22:09:07",
        "SP98": "2026-05-16 22:09:07"
      }
    },
    {
      "id": "95520005",
      "lat": 49.061,
      "lon": 2.084,
      "cp": "95520",
      "ville": "OSNY",
      "prix": {
        "Gazole": 0.002149,
        "E10": 0.002109,
        "SP98": 0.002249
      },
      "maj_gouv": {
        "Gazole": "2026-05-16 22:10:41",
        "E10": "2026-05-16 22:10:41",
        "SP98": "2026-05-16 22:10:41"
      }
    },
    {
      "id": "95100033",
      "lat": 48.933,
      "lon": 2.233,
      "cp": "95100",
      "ville": "ARGENTEUIL",
      "prix": {
        "Gazole": 0.00209,
        "E10": 0.00199,
        "SP98": 0.00199
      },
      "maj_gouv": {
        "Gazole": "2026-05-17 00:01:00",
        "E10": "2026-05-17 00:01:00",
        "SP98": "2026-05-17 00:01:00"
      }
    },
    {
      "id": "95150005",
      "lat": 49.018,
      "lon": 2.22,
      "cp": "95150",
      "ville": "TAVERNY",
      "prix": {
        "Gazole": 0.002109,
        "E85": 0.0010689999999999999,
        "GPLc": 0.0011790000000000001,
        "E10": 0.002059,
        "SP98": 0.002159
      },
      "maj_gouv": {
        "Gazole": "2026-05-15 12:01:21",
        "E85": "2026-05-15 12:01:22",
        "GPLc": "2026-05-15 12:01:22",
        "E10": "2026-05-15 12:01:21",
        "SP98": "2026-05-15 12:01:21"
      }
    },
    {
      "id": "95470006",
      "lat": 49.10021,
      "lon": 2.52395,
      "cp": "95470",
      "ville": "FOSSES",
      "prix": {
        "Gazole": 0.00209,
        "E10": 0.00199,
        "SP98": 0.00199
      },
      "maj_gouv": {
        "Gazole": "2026-05-17 00:01:00",
        "E10": "2026-05-17 00:01:00",
        "SP98": "2026-05-17 00:01:00"
      }
    },
    {
      "id": "95460003",
      "lat": 49.028241057696,
      "lon": 2.3655005925033,
      "cp": "95460",
      "ville": "EZANVILLE",
      "prix": {
        "Gazole": 0.00209,
        "E85": 0.0008489999999999999,
        "E10": 0.00199
      },
      "maj_gouv": {
        "Gazole": "2026-05-17 00:01:00",
        "E85": "2026-05-17 00:01:00",
        "E10": "2026-05-17 00:01:00"
      }
    },
    {
      "id": "95370007",
      "lat": 48.985054207800005,
      "lon": 2.18181283895,
      "cp": "95370",
      "ville": "Montigny-lès-Cormeilles",
      "prix": {
        "Gazole": 0.00209,
        "E10": 0.00199
      },
      "maj_gouv": {
        "Gazole": "2026-05-17 00:01:00",
        "E10": "2026-05-17 00:01:00"
      }
    },
    {
      "id": "95712004",
      "lat": 49.0091,
      "lon": 2.53736,
      "cp": "95700",
      "ville": "Roissy-en-France",
      "prix": {
        "Gazole": 0.00209,
        "GPLc": 0.0010789999999999999,
        "E10": 0.00199
      },
      "maj_gouv": {
        "Gazole": "2026-05-17 00:01:00",
        "GPLc": "2026-05-17 00:01:00",
        "E10": "2026-05-17 00:01:00"
      }
    },
    {
      "id": "95500011",
      "lat": 48.9811274725,
      "lon": 2.4450748025399998,
      "cp": "95500",
      "ville": "GONESSE",
      "prix": {
        "Gazole": 0.00209,
        "E85": 0.000889,
        "E10": 0.00199
      },
      "maj_gouv": {
        "Gazole": "2026-05-17 00:01:00",
        "E85": "2026-05-17 00:01:00",
        "E10": "2026-05-17 00:01:00"
      }
    },
    {
      "id": "95440002",
      "lat": 49.03,
      "lon": 2.39,
      "cp": "95440",
      "ville": "ÉCOUEN",
      "prix": {
        "Gazole": 0.00239,
        "E10": 0.00209
      },
      "maj_gouv": {
        "Gazole": "2026-05-04 18:45:00",
        "E10": "2026-03-23 18:45:00"
      }
    },
    {
      "id": "95220005",
      "lat": 49.00469,
      "lon": 2.12666,
      "cp": "95220",
      "ville": "Herblay",
      "prix": {
        "Gazole": 0.002199,
        "E10": 0.002029,
        "SP98": 0.002129
      },
      "maj_gouv": {
        "Gazole": "2026-05-05 10:57:33",
        "E10": "2026-05-05 10:57:34",
        "SP98": "2026-05-05 10:57:34"
      }
    },
    {
      "id": "95140001",
      "lat": 48.975,
      "lon": 2.418,
      "cp": "95140",
      "ville": "GARGES-LèS-GONESSE",
      "prix": {
        "Gazole": 0.0021000000000000003,
        "GPLc": 0.0009809999999999999,
        "E10": 0.0020499999999999997,
        "SP98": 0.002169
      },
      "maj_gouv": {
        "Gazole": "2026-05-15 10:16:32",
        "GPLc": "2026-05-15 10:16:32",
        "E10": "2026-05-15 10:16:32",
        "SP98": "2026-05-16 10:31:45"
      }
    },
    {
      "id": "95380001",
      "lat": 49.049,
      "lon": 2.498,
      "cp": "95380",
      "ville": "LOUVRES",
      "prix": {
        "Gazole": 0.002109,
        "E10": 0.002079,
        "SP98": 0.002129
      },
      "maj_gouv": {
        "Gazole": "2026-05-15 09:25:09",
        "E10": "2026-05-15 09:25:10",
        "SP98": "2026-05-15 09:25:10"
      }
    },
    {
      "id": "95360001",
      "lat": 48.963,
      "lon": 2.339,
      "cp": "95360",
      "ville": "Montmagny",
      "prix": {
        "Gazole": 0.002197,
        "SP95": 0.002139,
        "E85": 0.000819,
        "E10": 0.002097,
        "SP98": 0.002169
      },
      "maj_gouv": {
        "Gazole": "2026-05-16 14:38:48",
        "SP95": "2026-05-16 14:38:49",
        "E85": "2026-05-05 10:36:02",
        "E10": "2026-05-15 10:02:02",
        "SP98": "2026-05-16 14:38:49"
      }
    },
    {
      "id": "95100029",
      "lat": 48.983615089971,
      "lon": 2.36997124557,
      "cp": "95200",
      "ville": "SARCELLES",
      "prix": {
        "Gazole": 0.0021349999999999997,
        "E85": 0.000764,
        "GPLc": 0.0009809999999999999,
        "E10": 0.002062
      },
      "maj_gouv": {
        "Gazole": "2026-05-15 09:38:21",
        "E85": "2026-05-13 09:34:25",
        "GPLc": "2026-05-13 09:34:25",
        "E10": "2026-05-15 09:38:22"
      }
    },
    {
      "id": "95420002",
      "lat": 49.157,
      "lon": 1.784,
      "cp": "95420",
      "ville": "MAGNY-EN-VEXIN",
      "prix": {
        "Gazole": 0.0022299999999999998,
        "E85": 0.00086,
        "E10": 0.002065,
        "SP98": 0.00221
      },
      "maj_gouv": {
        "Gazole": "2026-05-07 09:09:16",
        "E85": "2026-05-07 14:10:24",
        "E10": "2026-05-07 09:09:16",
        "SP98": "2026-05-07 09:09:16"
      }
    },
    {
      "id": "95137001",
      "lat": 48.989285938081,
      "lon": 2.2065467998684,
      "cp": "95130",
      "ville": "FRANCONVILLE",
      "prix": {
        "Gazole": 0.002089,
        "SP95": 0.002099,
        "E85": 0.0008489999999999999,
        "E10": 0.0020150000000000003,
        "SP98": 0.002129
      },
      "maj_gouv": {
        "Gazole": "2026-05-16 08:09:09",
        "SP95": "2026-05-16 08:09:09",
        "E85": "2026-05-16 08:09:09",
        "E10": "2026-05-16 08:09:09",
        "SP98": "2026-05-16 08:09:09"
      }
    },
    {
      "id": "95390001",
      "lat": 49.003352,
      "lon": 2.260898,
      "cp": "95390",
      "ville": "Saint-Prix",
      "prix": {
        "Gazole": 0.002085,
        "E10": 0.001999,
        "SP98": 0.002089
      },
      "maj_gouv": {
        "Gazole": "2026-05-13 07:58:28",
        "E10": "2026-05-13 07:58:28",
        "SP98": "2026-05-13 07:58:28"
      }
    },
    {
      "id": "95500006",
      "lat": 48.98940867009,
      "lon": 2.433548852432,
      "cp": "95500",
      "ville": "GONESSE",
      "prix": {
        "Gazole": 0.002099,
        "SP95": 0.002065,
        "E85": 0.000769,
        "E10": 0.002049,
        "SP98": 0.0020800000000000003
      },
      "maj_gouv": {
        "Gazole": "2026-05-13 07:54:22",
        "SP95": "2026-05-13 07:54:22",
        "E85": "2026-05-13 07:54:22",
        "E10": "2026-05-13 07:54:22",
        "SP98": "2026-05-13 07:54:22"
      }
    },
    {
      "id": "95340003",
      "lat": 49.146,
      "lon": 2.282,
      "cp": "95340",
      "ville": "PERSAN",
      "prix": {
        "Gazole": 0.002089,
        "E10": 0.002029,
        "SP98": 0.002129
      },
      "maj_gouv": {
        "Gazole": "2026-05-14 09:00:00",
        "E10": "2026-05-16 09:00:00",
        "SP98": "2026-05-14 09:00:00"
      }
    },
    {
      "id": "95260003",
      "lat": 49.138,
      "lon": 2.275,
      "cp": "95260",
      "ville": "Beaumont-sur-Oise",
      "prix": {
        "Gazole": 0.00209,
        "E85": 0.000889,
        "E10": 0.00199
      },
      "maj_gouv": {
        "Gazole": "2026-05-17 00:01:00",
        "E85": "2026-05-17 00:01:00",
        "E10": "2026-05-17 00:01:00"
      }
    },
    {
      "id": "95420003",
      "lat": 49.147,
      "lon": 1.787,
      "cp": "95420",
      "ville": "Magny-en-Vexin",
      "prix": {
        "Gazole": 0.002089,
        "GPLc": 0.000979,
        "E10": 0.002059,
        "SP98": 0.002162
      },
      "maj_gouv": {
        "Gazole": "2026-05-12 11:25:52",
        "GPLc": "2026-01-15 08:10:49",
        "E10": "2026-05-15 10:08:46",
        "SP98": "2026-05-12 11:25:53"
      }
    },
    {
      "id": "95270001",
      "lat": 49.119,
      "lon": 2.427,
      "cp": "95270",
      "ville": "LUZARCHES",
      "prix": {
        "Gazole": 0.00213,
        "SP95": 0.00211,
        "SP98": 0.00221
      },
      "maj_gouv": {
        "Gazole": "2026-05-12 14:13:13",
        "SP95": "2026-05-12 14:13:14",
        "SP98": "2026-05-02 12:24:20"
      }
    },
    {
      "id": "95170002",
      "lat": 48.961,
      "lon": 2.326,
      "cp": "95170",
      "ville": "Deuil-la-Barre",
      "prix": {
        "Gazole": 0.002176,
        "E10": 0.0020440000000000002,
        "SP98": 0.002124
      },
      "maj_gouv": {
        "Gazole": "2026-05-14 06:31:00",
        "E10": "2026-05-14 06:31:00",
        "SP98": "2026-05-14 06:31:00"
      }
    },
    {
      "id": "95310003",
      "lat": 49.057,
      "lon": 2.124,
      "cp": "95310",
      "ville": "SAINT-OUEN-L'AUMONE",
      "prix": {
        "Gazole": 0.002088,
        "E85": 0.000773,
        "E10": 0.00204,
        "SP98": 0.002128
      },
      "maj_gouv": {
        "Gazole": "2026-05-17 01:16:00",
        "E85": "2026-05-17 01:16:00",
        "E10": "2026-05-17 01:16:00",
        "SP98": "2026-05-17 01:16:00"
      }
    },
    {
      "id": "95230006",
      "lat": 48.978,
      "lon": 2.292,
      "cp": "95230",
      "ville": "Soisy-sous-Montmorency",
      "prix": {
        "Gazole": 0.002179,
        "E85": 0.0010789999999999999,
        "E10": 0.002129,
        "SP98": 0.002299
      },
      "maj_gouv": {
        "Gazole": "2026-05-16 22:12:59",
        "E85": "2026-05-16 22:12:59",
        "E10": "2026-05-16 22:13:00",
        "SP98": "2026-05-16 22:12:59"
      }
    },
    {
      "id": "95712003",
      "lat": 49.0,
      "lon": 2.523,
      "cp": "95700",
      "ville": "Roissy-en-France",
      "prix": {
        "Gazole": 0.00209,
        "E10": 0.00199,
        "SP98": 0.00199
      },
      "maj_gouv": {
        "Gazole": "2026-05-17 00:01:00",
        "E10": "2026-05-17 00:01:00",
        "SP98": "2026-05-17 00:01:00"
      }
    },
    {
      "id": "95120001",
      "lat": 48.987,
      "lon": 2.247,
      "cp": "95120",
      "ville": "ERMONT",
      "prix": {
        "Gazole": 0.0020859999999999997,
        "GPLc": 0.000999,
        "E10": 0.002018,
        "SP98": 0.002165
      },
      "maj_gouv": {
        "Gazole": "2026-05-13 10:22:22",
        "GPLc": "2026-04-20 14:52:18",
        "E10": "2026-05-15 10:48:46",
        "SP98": "2026-05-15 10:48:47"
      }
    },
    {
      "id": "95150002",
      "lat": 49.016,
      "lon": 2.207,
      "cp": "95150",
      "ville": "TAVERNY",
      "prix": {},
      "maj_gouv": {}
    },
    {
      "id": "95270006",
      "lat": 49.123,
      "lon": 2.427,
      "cp": "95270",
      "ville": "CHAUMONTEL",
      "prix": {
        "Gazole": 0.00209,
        "E85": 0.000859,
        "GPLc": 0.0010789999999999999,
        "E10": 0.00199
      },
      "maj_gouv": {
        "Gazole": "2026-05-17 00:01:00",
        "E85": "2026-05-17 00:01:00",
        "GPLc": "2026-05-17 00:01:00",
        "E10": "2026-05-17 00:01:00"
      }
    },
    {
      "id": "95330010",
      "lat": 49.028,
      "lon": 2.339,
      "cp": "95330",
      "ville": "Domont",
      "prix": {
        "Gazole": 0.00209,
        "E10": 0.00199
      },
      "maj_gouv": {
        "Gazole": "2026-05-14 07:06:37",
        "E10": "2026-05-14 07:06:38"
      }
    },
    {
      "id": "95270002",
      "lat": 49.137,
      "lon": 2.373,
      "cp": "95270",
      "ville": "VIARMES",
      "prix": {},
      "maj_gouv": {}
    }
  ]
}