{
  "departement": "90",
  "date": "2026-05-17",
  "stations": [
    {
      "id": "90500001",
      "lat": 47.48973,
      "lon": 6.92225,
      "cp": "90500",
      "ville": "Beaucourt",
      "prix": {
        "Gazole": 0.00228,
        "SP95": 0.00216,
        "SP98": 0.00219
      },
      "maj_gouv": {
        "Gazole": "2026-04-24 07:30:00",
        "SP95": "2026-05-13 19:00:00",
        "SP98": "2026-04-07 16:11:36"
      }
    },
    {
      "id": "90000015",
      "lat": 47.636,
      "lon": 6.838,
      "cp": "90000",
      "ville": "BELFORT",
      "prix": {},
      "maj_gouv": {}
    },
    {
      "id": "90008001",
      "lat": 47.628,
      "lon": 6.862,
      "cp": "90000",
      "ville": "Belfort",
      "prix": {
        "Gazole": 0.00209,
        "SP95": 0.002076,
        "E85": 0.000865,
        "E10": 0.001991,
        "SP98": 0.002096
      },
      "maj_gouv": {
        "Gazole": "2026-05-17 01:15:00",
        "SP95": "2026-05-17 01:15:00",
        "E85": "2026-05-17 01:15:00",
        "E10": "2026-05-17 01:15:00",
        "SP98": "2026-05-17 01:15:00"
      }
    },
    {
      "id": "90500002",
      "lat": 47.49,
      "lon": 6.922,
      "cp": "90500",
      "ville": "BEAUCOURT",
      "prix": {
        "Gazole": 0.002206,
        "SP95": 0.002109,
        "E10": 0.002092,
        "SP98": 0.002159
      },
      "maj_gouv": {
        "Gazole": "2026-05-15 11:20:37",
        "SP95": "2026-05-15 11:20:37",
        "E10": "2026-05-15 11:20:37",
        "SP98": "2026-05-15 11:20:37"
      }
    },
    {
      "id": "90000009",
      "lat": 47.636,
      "lon": 6.873,
      "cp": "90000",
      "ville": "Belfort",
      "prix": {
        "Gazole": 0.0022890000000000002,
        "SP95": 0.002159,
        "E85": 0.000959,
        "SP98": 0.002199
      },
      "maj_gouv": {
        "Gazole": "2026-05-15 14:08:37",
        "SP95": "2026-05-15 14:08:37",
        "E85": "2026-05-15 14:08:38",
        "SP98": "2026-05-15 14:08:38"
      }
    },
    {
      "id": "90100004",
      "lat": 47.511,
      "lon": 7.001,
      "cp": "90100",
      "ville": "Delle",
      "prix": {
        "Gazole": 0.002269,
        "SP95": 0.002169,
        "GPLc": 0.00109,
        "SP98": 0.002199
      },
      "maj_gouv": {
        "Gazole": "2026-05-13 18:27:59",
        "SP95": "2026-05-13 18:27:59",
        "GPLc": "2026-05-13 18:27:59",
        "SP98": "2026-05-13 18:27:59"
      }
    },
    {
      "id": "90300004",
      "lat": 47.658916,
      "lon": 6.866529,
      "cp": "90300",
      "ville": "OFFEMONT",
      "prix": {
        "Gazole": 0.002193,
        "E85": 0.000819,
        "E10": 0.0020510000000000003
      },
      "maj_gouv": {
        "Gazole": "2026-05-15 06:57:06",
        "E85": "2026-05-15 06:57:06",
        "E10": "2026-05-15 06:57:06"
      }
    },
    {
      "id": "90300002",
      "lat": 47.66862601099999,
      "lon": 6.842203087160001,
      "cp": "90300",
      "ville": "VALDOIE",
      "prix": {
        "Gazole": 0.002178,
        "SP95": 0.002076,
        "GPLc": 0.001059,
        "SP98": 0.002096
      },
      "maj_gouv": {
        "Gazole": "2026-05-06 19:52:45",
        "SP95": "2026-05-06 19:52:45",
        "GPLc": "2026-05-06 19:52:45",
        "SP98": "2026-05-06 19:52:45"
      }
    },
    {
      "id": "90100003",
      "lat": 47.512,
      "lon": 6.999,
      "cp": "90100",
      "ville": "DELLE",
      "prix": {
        "Gazole": 0.002118,
        "E85": 0.000798,
        "E10": 0.002028,
        "SP98": 0.00214
      },
      "maj_gouv": {
        "Gazole": "2026-05-16 08:30:00",
        "E85": "2026-05-16 08:30:00",
        "E10": "2026-05-16 08:30:00",
        "SP98": "2026-05-16 08:30:00"
      }
    },
    {
      "id": "90150001",
      "lat": 47.688,
      "lon": 6.955,
      "cp": "90150",
      "ville": "MENONCOURT",
      "prix": {
        "E10": 0.00199
      },
      "maj_gouv": {
        "E10": "2026-05-15 05:42:54"
      }
    },
    {
      "id": "90200003",
      "lat": 47.735,
      "lon": 6.83,
      "cp": "90200",
      "ville": "GIROMAGNY",
      "prix": {
        "Gazole": 0.00209,
        "E10": 0.00199
      },
      "maj_gouv": {
        "Gazole": "2026-05-14 10:29:23",
        "E10": "2026-05-06 09:56:24"
      }
    },
    {
      "id": "90000014",
      "lat": 47.626,
      "lon": 6.86,
      "cp": "90000",
      "ville": "BELFORT",
      "prix": {
        "E85": 0.000875
      },
      "maj_gouv": {
        "E85": "2026-05-17 00:01:00"
      }
    },
    {
      "id": "90400001",
      "lat": 47.6,
      "lon": 6.862,
      "cp": "90400",
      "ville": "ANDELNANS",
      "prix": {
        "Gazole": 0.002108,
        "E85": 0.0009,
        "E10": 0.002012,
        "SP98": 0.002097
      },
      "maj_gouv": {
        "Gazole": "2026-05-12 15:20:58",
        "E85": "2026-05-04 10:23:05",
        "E10": "2026-05-12 15:20:58",
        "SP98": "2026-05-12 15:20:58"
      }
    },
    {
      "id": "90160001",
      "lat": 47.641,
      "lon": 6.916,
      "cp": "90160",
      "ville": "BESSONCOURT",
      "prix": {
        "Gazole": 0.002111,
        "GPLc": 0.001055,
        "E10": 0.002012,
        "SP98": 0.002097
      },
      "maj_gouv": {
        "Gazole": "2026-05-15 10:01:15",
        "GPLc": "2026-04-18 09:55:20",
        "E10": "2026-05-13 16:00:44",
        "SP98": "2026-05-11 15:56:13"
      }
    },
    {
      "id": "90200002",
      "lat": 47.737,
      "lon": 6.836,
      "cp": "90200",
      "ville": "GIROMAGNY",
      "prix": {
        "Gazole": 0.002166,
        "SP95": 0.002074,
        "SP98": 0.002111
      },
      "maj_gouv": {
        "Gazole": "2026-05-13 09:01:21",
        "SP95": "2026-05-13 09:01:21",
        "SP98": "2026-05-13 09:01:21"
      }
    },
    {
      "id": "90000002",
      "lat": 47.64,
      "lon": 6.868,
      "cp": "90000",
      "ville": "Belfort",
      "prix": {
        "Gazole": 0.00209,
        "E10": 0.00199,
        "SP98": 0.00199
      },
      "maj_gouv": {
        "Gazole": "2026-05-14 06:00:00",
        "E10": "2026-05-13 12:16:51",
        "SP98": "2026-05-13 12:16:51"
      }
    },
    {
      "id": "90000013",
      "lat": 47.631,
      "lon": 6.867,
      "cp": "90000",
      "ville": "BELFORT",
      "prix": {
        "Gazole": 0.00209,
        "E85": 0.000879,
        "GPLc": 0.001053,
        "E10": 0.00199
      },
      "maj_gouv": {
        "Gazole": "2026-05-17 00:01:00",
        "E85": "2026-05-17 00:01:00",
        "GPLc": "2026-05-17 00:01:00",
        "E10": "2026-05-17 00:01:00"
      }
    },
    {
      "id": "90130002",
      "lat": 47.606879000000006,
      "lon": 7.004091,
      "cp": "90130",
      "ville": "MONTREUX CHATEAU",
      "prix": {
        "Gazole": 0.002099,
        "E10": 0.001999
      },
      "maj_gouv": {
        "Gazole": "2026-05-12 09:30:25",
        "E10": "2026-05-15 19:44:11"
      }
    }
  ]
}