{
  "departement": "47",
  "date": "2026-05-17",
  "stations": [
    {
      "id": "47000009",
      "lat": 44.211,
      "lon": 0.647,
      "cp": "47000",
      "ville": "AGEN",
      "prix": {
        "Gazole": 0.002189,
        "SP95": 0.002089,
        "E85": 0.000758,
        "E10": 0.002039
      },
      "maj_gouv": {
        "Gazole": "2026-05-08 12:02:54",
        "SP95": "2026-05-08 12:02:54",
        "E85": "2026-03-06 07:30:50",
        "E10": "2026-05-08 12:02:54"
      }
    },
    {
      "id": "47800004",
      "lat": 44.6,
      "lon": 0.359,
      "cp": "47800",
      "ville": "Miramont-de-Guyenne",
      "prix": {
        "Gazole": 0.00209,
        "SP95": 0.00199
      },
      "maj_gouv": {
        "Gazole": "2026-05-13 19:00:55",
        "SP95": "2026-05-13 07:52:49"
      }
    },
    {
      "id": "47140002",
      "lat": 44.39673,
      "lon": 0.80632,
      "cp": "47140",
      "ville": "SAINT-SYLVESTRE-SUR-LOT",
      "prix": {
        "Gazole": 0.002129,
        "E10": 0.002039,
        "SP98": 0.002169
      },
      "maj_gouv": {
        "Gazole": "2026-05-16 10:24:13",
        "E10": "2026-05-16 10:24:13",
        "SP98": "2026-05-16 10:24:13"
      }
    },
    {
      "id": "47210001",
      "lat": 44.635,
      "lon": 0.738,
      "cp": "47210",
      "ville": "Villeréal",
      "prix": {
        "Gazole": 0.002085,
        "SP95": 0.002099,
        "E85": 0.000819,
        "E10": 0.001999
      },
      "maj_gouv": {
        "Gazole": "2026-05-16 07:59:43",
        "SP95": "2026-05-09 07:43:59",
        "E85": "2026-04-16 12:06:47",
        "E10": "2026-05-16 07:59:44"
      }
    },
    {
      "id": "47240003",
      "lat": 44.168592033390006,
      "lon": 0.70122277605207,
      "cp": "47240",
      "ville": "LAFOX",
      "prix": {
        "Gazole": 0.00209,
        "SP95": 0.002069,
        "E85": 0.000819,
        "E10": 0.0020150000000000003,
        "SP98": 0.0021309999999999996
      },
      "maj_gouv": {
        "Gazole": "2026-05-13 12:01:36",
        "SP95": "2026-05-13 12:01:36",
        "E85": "2026-05-13 12:01:36",
        "E10": "2026-05-13 12:01:36",
        "SP98": "2026-05-13 12:01:37"
      }
    },
    {
      "id": "47700002",
      "lat": 44.319,
      "lon": 0.093,
      "cp": "47700",
      "ville": "Casteljaloux",
      "prix": {
        "Gazole": 0.002109,
        "E10": 0.002019,
        "SP98": 0.0021190000000000002
      },
      "maj_gouv": {
        "Gazole": "2026-05-16 09:07:22",
        "E10": "2026-05-16 09:07:22",
        "SP98": "2026-05-16 09:07:22"
      }
    },
    {
      "id": "47250001",
      "lat": 44.431,
      "lon": 0.129,
      "cp": "47250",
      "ville": "Samazan",
      "prix": {
        "Gazole": 0.00209,
        "E85": 0.000963,
        "E10": 0.00199,
        "SP98": 0.00199
      },
      "maj_gouv": {
        "Gazole": "2026-05-14 06:45:04",
        "E85": "2026-04-16 08:47:36",
        "E10": "2026-05-12 09:52:19",
        "SP98": "2026-05-12 09:52:19"
      }
    },
    {
      "id": "47500007",
      "lat": 44.476,
      "lon": 0.951,
      "cp": "47500",
      "ville": "Saint-Vite",
      "prix": {
        "Gazole": 0.002092,
        "SP95": 0.0020659999999999997,
        "E85": 0.0008179999999999999,
        "E10": 0.002012,
        "SP98": 0.002127
      },
      "maj_gouv": {
        "Gazole": "2026-05-15 16:09:45",
        "SP95": "2026-05-15 16:09:45",
        "E85": "2026-04-16 11:45:26",
        "E10": "2026-05-15 16:09:45",
        "SP98": "2026-05-15 16:09:46"
      }
    },
    {
      "id": "47000003",
      "lat": 44.181,
      "lon": 0.618,
      "cp": "47000",
      "ville": "AGEN",
      "prix": {
        "Gazole": 0.0020800000000000003,
        "SP95": 0.00209,
        "E85": 0.000798,
        "GPLc": 0.00111,
        "E10": 0.0020099999999999996
      },
      "maj_gouv": {
        "Gazole": "2026-05-16 09:27:35",
        "SP95": "2026-05-15 16:19:03",
        "E85": "2026-05-15 16:19:03",
        "GPLc": "2026-04-13 18:50:24",
        "E10": "2026-05-16 09:27:35"
      }
    },
    {
      "id": "47400002",
      "lat": 44.4,
      "lon": 0.299,
      "cp": "47400",
      "ville": "TONNEINS",
      "prix": {
        "Gazole": 0.002115,
        "SP95": 0.0021019999999999997,
        "E85": 0.0008179999999999999,
        "GPLc": 0.001149,
        "E10": 0.002076,
        "SP98": 0.0021509999999999997
      },
      "maj_gouv": {
        "Gazole": "2026-05-17 01:17:00",
        "SP95": "2026-05-17 01:17:00",
        "E85": "2026-05-17 01:17:00",
        "GPLc": "2026-05-17 01:17:00",
        "E10": "2026-05-17 01:17:00",
        "SP98": "2026-05-17 01:17:00"
      }
    },
    {
      "id": "47260001",
      "lat": 44.401680720411,
      "lon": 0.49923260869999997,
      "cp": "47260",
      "ville": "Castelmoron-sur-Lot",
      "prix": {
        "Gazole": 0.002065,
        "E85": 0.0007059999999999999,
        "E10": 0.002019,
        "SP98": 0.002099
      },
      "maj_gouv": {
        "Gazole": "2026-05-11 11:08:37",
        "E85": "2026-05-11 11:08:37",
        "E10": "2026-05-11 11:08:37",
        "SP98": "2026-05-11 11:08:37"
      }
    },
    {
      "id": "47800002",
      "lat": 44.61364,
      "lon": 0.36024,
      "cp": "47800",
      "ville": "Saint-Pardoux-Isaac",
      "prix": {
        "Gazole": 0.002215,
        "SP95": 0.002079,
        "E85": 0.000819,
        "E10": 0.002045
      },
      "maj_gouv": {
        "Gazole": "2026-05-04 09:21:14",
        "SP95": "2026-05-04 09:21:15",
        "E85": "2026-04-17 08:46:05",
        "E10": "2026-05-04 09:21:15"
      }
    },
    {
      "id": "47310007",
      "lat": 44.2,
      "lon": 0.554,
      "cp": "47310",
      "ville": "brax",
      "prix": {
        "Gazole": 0.002128,
        "SP95": 0.00209,
        "GPLc": 0.0011200000000000001,
        "E10": 0.002048,
        "SP98": 0.002159
      },
      "maj_gouv": {
        "Gazole": "2026-05-15 17:08:32",
        "SP95": "2026-05-04 07:01:00",
        "GPLc": "2026-04-10 08:44:31",
        "E10": "2026-05-15 17:08:32",
        "SP98": "2026-05-04 07:01:00"
      }
    },
    {
      "id": "47450002",
      "lat": 44.22087,
      "lon": 0.57989,
      "cp": "47450",
      "ville": "Colayrac-Saint-Cirq",
      "prix": {
        "Gazole": 0.00209,
        "SP95": 0.0020499999999999997,
        "E10": 0.00199
      },
      "maj_gouv": {
        "Gazole": "2026-05-12 12:03:15",
        "SP95": "2026-05-12 12:03:15",
        "E10": "2026-05-12 12:03:15"
      }
    },
    {
      "id": "47390001",
      "lat": 44.1293782328,
      "lon": 0.65982,
      "cp": "47390",
      "ville": "LAYRAC",
      "prix": {},
      "maj_gouv": {}
    },
    {
      "id": "47330001",
      "lat": 44.643,
      "lon": 0.594,
      "cp": "47330",
      "ville": "CASTILLONNES",
      "prix": {
        "Gazole": 0.002099,
        "E85": 0.000819,
        "E10": 0.002048,
        "SP98": 0.002157
      },
      "maj_gouv": {
        "Gazole": "2026-05-15 08:28:00",
        "E85": "2026-04-21 08:20:00",
        "E10": "2026-05-05 07:20:01",
        "SP98": "2026-05-05 07:20:01"
      }
    },
    {
      "id": "47300008",
      "lat": 44.393,
      "lon": 0.692,
      "cp": "47300",
      "ville": "PUJOLS",
      "prix": {
        "Gazole": 0.002169,
        "E85": 0.0008489999999999999,
        "E10": 0.002039,
        "SP98": 0.002099
      },
      "maj_gouv": {
        "Gazole": "2026-05-07 12:09:19",
        "E85": "2026-05-07 12:13:22",
        "E10": "2026-05-07 12:09:20",
        "SP98": "2026-05-07 12:09:20"
      }
    },
    {
      "id": "47120003",
      "lat": 44.677693,
      "lon": 0.190504,
      "cp": "47120",
      "ville": "DURAS",
      "prix": {
        "Gazole": 0.002199,
        "SP95": 0.002079,
        "SP98": 0.002159
      },
      "maj_gouv": {
        "Gazole": "2026-05-12 14:47:47",
        "SP95": "2026-05-12 14:47:47",
        "SP98": "2026-05-12 14:47:47"
      }
    },
    {
      "id": "47230001",
      "lat": 44.1707558581,
      "lon": 0.29310987574526,
      "cp": "47230",
      "ville": "Lavardac",
      "prix": {
        "Gazole": 0.002081,
        "SP95": 0.002085,
        "E85": 0.000799,
        "SP98": 0.002095
      },
      "maj_gouv": {
        "Gazole": "2026-05-16 10:35:05",
        "SP95": "2026-05-13 11:22:58",
        "E85": "2026-04-30 07:36:28",
        "SP98": "2026-05-13 11:22:58"
      }
    },
    {
      "id": "47290003",
      "lat": 44.5489975,
      "lon": 0.53641038333333,
      "cp": "47290",
      "ville": "Monbahus",
      "prix": {
        "Gazole": 0.00219,
        "E10": 0.00209
      },
      "maj_gouv": {
        "Gazole": "2026-05-13 10:40:10",
        "E10": "2026-05-13 10:40:10"
      }
    },
    {
      "id": "47210002",
      "lat": 44.624,
      "lon": 0.741,
      "cp": "47210",
      "ville": "Villeréal",
      "prix": {
        "Gazole": 0.00219,
        "E10": 0.00209
      },
      "maj_gouv": {
        "Gazole": "2026-05-13 11:40:37",
        "E10": "2026-05-13 11:40:37"
      }
    },
    {
      "id": "47200005",
      "lat": 44.512,
      "lon": 0.135,
      "cp": "47200",
      "ville": "MARMANDE",
      "prix": {
        "Gazole": 0.002098,
        "SP95": 0.002069,
        "E85": 0.0008990000000000001,
        "GPLc": 0.001155,
        "E10": 0.002019,
        "SP98": 0.002108
      },
      "maj_gouv": {
        "Gazole": "2026-05-17 01:17:00",
        "SP95": "2026-05-17 01:17:00",
        "E85": "2026-05-17 01:17:00",
        "GPLc": "2026-05-17 01:17:00",
        "E10": "2026-05-17 01:17:00",
        "SP98": "2026-05-17 01:17:00"
      }
    },
    {
      "id": "47300001",
      "lat": 44.404,
      "lon": 0.669,
      "cp": "47300",
      "ville": "BIAS",
      "prix": {
        "Gazole": 0.002098,
        "SP95": 0.002089,
        "E10": 0.002032,
        "SP98": 0.002098
      },
      "maj_gouv": {
        "Gazole": "2026-05-15 16:58:04",
        "SP95": "2026-05-12 09:04:23",
        "E10": "2026-05-15 16:58:05",
        "SP98": "2026-05-15 16:58:05"
      }
    },
    {
      "id": "47500003",
      "lat": 44.486,
      "lon": 0.979,
      "cp": "47500",
      "ville": "MONTAYRAL",
      "prix": {
        "Gazole": 0.002091,
        "SP95": 0.002065,
        "SP98": 0.002126
      },
      "maj_gouv": {
        "Gazole": "2026-05-16 09:00:00",
        "SP95": "2026-05-16 09:00:00",
        "SP98": "2026-05-16 09:00:00"
      }
    },
    {
      "id": "47000001",
      "lat": 44.398,
      "lon": 0.729,
      "cp": "47300",
      "ville": "VILLENEUVE-SUR-LOT",
      "prix": {
        "Gazole": 0.00209,
        "SP95": 0.00199
      },
      "maj_gouv": {
        "Gazole": "2026-05-14 14:06:48",
        "SP95": "2026-05-14 14:06:48"
      }
    },
    {
      "id": "47550009",
      "lat": 44.185,
      "lon": 0.664,
      "cp": "47550",
      "ville": "BOE",
      "prix": {
        "Gazole": 0.0022389999999999997,
        "GPLc": 0.001159,
        "E10": 0.002099,
        "SP98": 0.002199
      },
      "maj_gouv": {
        "Gazole": "2026-05-15 08:14:50",
        "GPLc": "2026-05-15 08:14:51",
        "E10": "2026-05-15 08:14:51",
        "SP98": "2026-05-15 08:14:51"
      }
    },
    {
      "id": "47200012",
      "lat": 44.508,
      "lon": 0.147,
      "cp": "47200",
      "ville": "Marmande",
      "prix": {
        "Gazole": 0.0021190000000000002,
        "E10": 0.002029,
        "SP98": 0.002149
      },
      "maj_gouv": {
        "Gazole": "2026-05-15 12:52:51",
        "E10": "2026-05-15 12:52:51",
        "SP98": "2026-05-15 12:52:51"
      }
    },
    {
      "id": "47420001",
      "lat": 44.19478599999999,
      "lon": 0.0352979,
      "cp": "47420",
      "ville": "Houeillès",
      "prix": {
        "Gazole": 0.00221,
        "E85": 0.00091,
        "E10": 0.0020800000000000003,
        "SP98": 0.00219
      },
      "maj_gouv": {
        "Gazole": "2026-05-08 10:52:45",
        "E85": "2026-04-27 15:23:52",
        "E10": "2026-05-12 11:18:00",
        "SP98": "2026-04-27 15:23:23"
      }
    },
    {
      "id": "47520003",
      "lat": 44.19,
      "lon": 0.605,
      "cp": "47520",
      "ville": "LE PASSAGE",
      "prix": {
        "Gazole": 0.0021190000000000002,
        "E85": 0.000798,
        "E10": 0.002029,
        "SP98": 0.002159
      },
      "maj_gouv": {
        "Gazole": "2026-05-16 09:36:44",
        "E85": "2026-05-16 09:36:44",
        "E10": "2026-05-15 10:33:22",
        "SP98": "2026-05-16 09:36:44"
      }
    },
    {
      "id": "47390003",
      "lat": 44.124438433398,
      "lon": 0.6582474509196601,
      "cp": "47390",
      "ville": "Layrac",
      "prix": {
        "Gazole": 0.002278,
        "SP95": 0.002156,
        "SP98": 0.00232
      },
      "maj_gouv": {
        "Gazole": "2026-05-07 11:38:46",
        "SP95": "2026-05-07 11:38:46",
        "SP98": "2026-05-07 11:38:46"
      }
    },
    {
      "id": "47470001",
      "lat": 44.274238445733005,
      "lon": 0.8843641440541701,
      "cp": "47470",
      "ville": "Beauville",
      "prix": {
        "Gazole": 0.00222,
        "E85": 0.0009699999999999999,
        "E10": 0.0020800000000000003
      },
      "maj_gouv": {
        "Gazole": "2026-05-13 10:42:36",
        "E85": "2026-05-13 10:42:37",
        "E10": "2026-05-12 11:18:30"
      }
    },
    {
      "id": "47000010",
      "lat": 44.206,
      "lon": 0.636,
      "cp": "47000",
      "ville": "Agen",
      "prix": {
        "Gazole": 0.002089,
        "E85": 0.000949,
        "E10": 0.0019890000000000003,
        "SP98": 0.002079
      },
      "maj_gouv": {
        "Gazole": "2026-05-15 09:43:01",
        "E85": "2026-04-10 08:23:20",
        "E10": "2026-05-15 09:43:01",
        "SP98": "2026-05-15 09:43:01"
      }
    },
    {
      "id": "47200004",
      "lat": 44.508,
      "lon": 0.191,
      "cp": "47200",
      "ville": "Marmande",
      "prix": {
        "Gazole": 0.00209,
        "E10": 0.00199,
        "SP98": 0.00199
      },
      "maj_gouv": {
        "Gazole": "2026-05-14 00:01:00",
        "E10": "2026-05-07 17:41:42",
        "SP98": "2026-05-07 17:41:43"
      }
    },
    {
      "id": "47480002",
      "lat": 44.23,
      "lon": 0.677,
      "cp": "47480",
      "ville": "Pont-du-Casse",
      "prix": {
        "Gazole": 0.002189,
        "SP95": 0.002089,
        "E10": 0.0020299999999999997,
        "SP98": 0.002149
      },
      "maj_gouv": {
        "Gazole": "2026-05-07 10:13:44",
        "SP95": "2026-05-07 10:13:44",
        "E10": "2026-05-07 10:13:44",
        "SP98": "2026-05-07 10:13:44"
      }
    },
    {
      "id": "47310006",
      "lat": 44.1991844185,
      "lon": 0.5090393686570001,
      "cp": "47310",
      "ville": "LAPLUME",
      "prix": {
        "Gazole": 0.00209,
        "E85": 0.000998,
        "GPLc": 0.001078,
        "E10": 0.00199,
        "SP98": 0.00199
      },
      "maj_gouv": {
        "Gazole": "2026-05-17 00:01:00",
        "E85": "2026-05-17 00:01:00",
        "GPLc": "2026-05-17 00:01:00",
        "E10": "2026-05-17 00:01:00",
        "SP98": "2026-05-17 00:01:00"
      }
    },
    {
      "id": "47600003",
      "lat": 44.135,
      "lon": 0.338,
      "cp": "47600",
      "ville": "NéRAC",
      "prix": {
        "Gazole": 0.002091,
        "E10": 0.0020150000000000003,
        "SP98": 0.002104
      },
      "maj_gouv": {
        "Gazole": "2026-05-16 09:14:29",
        "E10": "2026-05-16 09:14:29",
        "SP98": "2026-05-16 09:14:29"
      }
    },
    {
      "id": "47220002",
      "lat": 44.11451,
      "lon": 0.70472000000001,
      "cp": "47220",
      "ville": "Fals",
      "prix": {
        "Gazole": 0.0022400000000000002,
        "E10": 0.0020800000000000003
      },
      "maj_gouv": {
        "Gazole": "2026-05-13 08:12:46",
        "E10": "2026-05-13 08:12:47"
      }
    },
    {
      "id": "47110002",
      "lat": 44.381,
      "lon": 0.532,
      "cp": "47110",
      "ville": "LE TEMPLE-SUR-LOT",
      "prix": {
        "Gazole": 0.00209,
        "SP95": 0.00199,
        "SP98": 0.00199
      },
      "maj_gouv": {
        "Gazole": "2026-05-14 05:27:00",
        "SP95": "2026-04-20 12:59:08",
        "SP98": "2026-05-13 17:44:11"
      }
    },
    {
      "id": "47200008",
      "lat": 44.484,
      "lon": 0.184,
      "cp": "47200",
      "ville": "MARMANDE",
      "prix": {
        "Gazole": 0.002089,
        "SP95": 0.002043,
        "GPLc": 0.001149,
        "SP98": 0.002129
      },
      "maj_gouv": {
        "Gazole": "2026-05-12 08:36:49",
        "SP95": "2026-05-12 08:36:50",
        "GPLc": "2026-05-08 09:42:50",
        "SP98": "2026-05-12 08:36:50"
      }
    },
    {
      "id": "47480003",
      "lat": 44.226,
      "lon": 0.672,
      "cp": "47480",
      "ville": "Pont-du-Casse",
      "prix": {
        "Gazole": 0.00209,
        "E85": 0.000866,
        "E10": 0.00199
      },
      "maj_gouv": {
        "Gazole": "2026-05-15 15:23:30",
        "E85": "2026-05-15 15:23:30",
        "E10": "2026-05-15 15:23:30"
      }
    },
    {
      "id": "47200013",
      "lat": 44.500894450000004,
      "lon": 0.16388361823669,
      "cp": "47200",
      "ville": "MARMANDE",
      "prix": {
        "Gazole": 0.002099,
        "SP95": 0.002069,
        "E10": 0.002019
      },
      "maj_gouv": {
        "Gazole": "2026-05-15 08:55:16",
        "SP95": "2026-05-16 11:18:46",
        "E10": "2026-05-16 11:18:46"
      }
    },
    {
      "id": "47200002",
      "lat": 44.464,
      "lon": 0.14,
      "cp": "47200",
      "ville": "Marmande",
      "prix": {
        "Gazole": 0.00209,
        "E85": 0.000963,
        "E10": 0.00199,
        "SP98": 0.00199
      },
      "maj_gouv": {
        "Gazole": "2026-05-15 12:17:17",
        "E85": "2026-05-15 12:17:17",
        "E10": "2026-05-15 12:17:17",
        "SP98": "2026-05-15 12:17:18"
      }
    },
    {
      "id": "47430002",
      "lat": 44.40495,
      "lon": 0.18765,
      "cp": "47430",
      "ville": "Le Mas-d'Agenais",
      "prix": {
        "Gazole": 0.002276,
        "E85": 0.000944,
        "GPLc": 0.001165,
        "E10": 0.002149,
        "SP98": 0.002218
      },
      "maj_gouv": {
        "Gazole": "2026-05-13 10:21:54",
        "E85": "2026-05-13 10:21:54",
        "GPLc": "2026-05-13 10:21:54",
        "E10": "2026-05-13 10:21:54",
        "SP98": "2026-05-13 10:21:54"
      }
    },
    {
      "id": "47240002",
      "lat": 44.19,
      "lon": 0.65564,
      "cp": "47240",
      "ville": "Bon-Encontre",
      "prix": {
        "Gazole": 0.00209,
        "SP95": 0.0020499999999999997,
        "E10": 0.002018
      },
      "maj_gouv": {
        "Gazole": "2026-05-15 17:49:55",
        "SP95": "2026-05-12 09:30:31",
        "E10": "2026-05-15 17:49:55"
      }
    },
    {
      "id": "47120002",
      "lat": 44.665,
      "lon": 0.194,
      "cp": "47120",
      "ville": "Duras",
      "prix": {
        "Gazole": 0.0022400000000000002,
        "E10": 0.0020800000000000003
      },
      "maj_gouv": {
        "Gazole": "2026-05-11 12:10:25",
        "E10": "2026-05-11 12:10:25"
      }
    },
    {
      "id": "47320003",
      "lat": 44.357,
      "lon": 0.382,
      "cp": "47320",
      "ville": "CLAIRAC",
      "prix": {
        "Gazole": 0.002109,
        "E10": 0.001999,
        "SP98": 0.002139
      },
      "maj_gouv": {
        "Gazole": "2026-05-13 06:50:26",
        "E10": "2026-05-13 06:50:27",
        "SP98": "2026-05-13 06:50:27"
      }
    },
    {
      "id": "47440001",
      "lat": 44.441,
      "lon": 0.631,
      "cp": "47440",
      "ville": "CASSENEUIL",
      "prix": {
        "Gazole": 0.00209
      },
      "maj_gouv": {
        "Gazole": "2026-05-13 23:59:00"
      }
    },
    {
      "id": "47300003",
      "lat": 44.408,
      "lon": 0.735,
      "cp": "47300",
      "ville": "Villeneuve-sur-Lot",
      "prix": {
        "Gazole": 0.002061,
        "SP95": 0.002089,
        "E10": 0.002039,
        "SP98": 0.002098
      },
      "maj_gouv": {
        "Gazole": "2026-05-17 01:18:00",
        "SP95": "2026-05-17 01:18:00",
        "E10": "2026-05-17 01:18:00",
        "SP98": "2026-05-17 01:18:00"
      }
    },
    {
      "id": "47320004",
      "lat": 44.33,
      "lon": 0.378,
      "cp": "47320",
      "ville": "BOURRAN",
      "prix": {
        "Gazole": 0.00209,
        "SP95": 0.0019890000000000003,
        "E10": 0.0019890000000000003
      },
      "maj_gouv": {
        "Gazole": "2026-05-14 01:59:00",
        "SP95": "2026-03-03 08:45:53",
        "E10": "2026-03-11 15:12:01"
      }
    },
    {
      "id": "47320002",
      "lat": 44.36109,
      "lon": 0.38049,
      "cp": "47320",
      "ville": "Clairac",
      "prix": {
        "Gazole": 0.00225,
        "SP95": 0.00199,
        "SP98": 0.00199
      },
      "maj_gouv": {
        "Gazole": "2026-05-16 18:49:29",
        "SP95": "2026-04-08 13:58:20",
        "SP98": "2026-04-08 13:58:56"
      }
    },
    {
      "id": "47520004",
      "lat": 44.1714063,
      "lon": 0.608558,
      "cp": "47520",
      "ville": "Le Passage",
      "prix": {
        "Gazole": 0.00209,
        "E85": 0.000844
      },
      "maj_gouv": {
        "Gazole": "2026-05-17 00:01:00",
        "E85": "2026-05-17 00:01:00"
      }
    },
    {
      "id": "47550007",
      "lat": 44.18603,
      "lon": 0.66242,
      "cp": "47550",
      "ville": "BOE",
      "prix": {
        "Gazole": 0.00209,
        "E85": 0.000889,
        "E10": 0.00199
      },
      "maj_gouv": {
        "Gazole": "2026-05-17 00:01:00",
        "E85": "2026-05-17 00:01:00",
        "E10": "2026-05-17 00:01:00"
      }
    },
    {
      "id": "47240001",
      "lat": 44.181,
      "lon": 0.673,
      "cp": "47240",
      "ville": "BON-ENCONTRE",
      "prix": {
        "Gazole": 0.00209,
        "E85": 0.0008990000000000001,
        "E10": 0.002018,
        "SP98": 0.0021190000000000002
      },
      "maj_gouv": {
        "Gazole": "2026-05-17 01:17:00",
        "E85": "2026-05-17 01:17:00",
        "E10": "2026-05-17 01:17:00",
        "SP98": "2026-05-17 01:17:00"
      }
    },
    {
      "id": "47500008",
      "lat": 44.592675767564,
      "lon": 1.0149463248287,
      "cp": "47500",
      "ville": "Sauveterre-la-Lémance",
      "prix": {
        "Gazole": 0.00219,
        "E85": 0.00091,
        "E10": 0.0020800000000000003,
        "SP98": 0.00221
      },
      "maj_gouv": {
        "Gazole": "2026-05-12 11:10:54",
        "E85": "2026-04-20 14:02:15",
        "E10": "2026-05-12 11:10:54",
        "SP98": "2026-05-12 11:10:54"
      }
    },
    {
      "id": "47300006",
      "lat": 44.396272507800006,
      "lon": 0.7067526424420001,
      "cp": "47300",
      "ville": "VILLENEUVE-SUR-LOT",
      "prix": {
        "Gazole": 0.002099,
        "SP95": 0.002085,
        "E85": 0.000819,
        "E10": 0.002019,
        "SP98": 0.002129
      },
      "maj_gouv": {
        "Gazole": "2026-05-13 08:31:41",
        "SP95": "2026-05-12 08:57:27",
        "E85": "2026-04-20 09:41:06",
        "E10": "2026-05-15 10:00:45",
        "SP98": "2026-05-12 08:57:27"
      }
    },
    {
      "id": "47360001",
      "lat": 44.287,
      "lon": 0.509,
      "cp": "47360",
      "ville": "PRAYSSAS",
      "prix": {
        "Gazole": 0.0022400000000000002,
        "E10": 0.0020800000000000003,
        "SP98": 0.0022
      },
      "maj_gouv": {
        "Gazole": "2026-05-13 08:13:33",
        "E10": "2026-05-12 11:09:03",
        "SP98": "2026-04-28 15:37:31"
      }
    },
    {
      "id": "47220003",
      "lat": 44.059,
      "lon": 0.653,
      "cp": "47220",
      "ville": "ASTAFFORT",
      "prix": {
        "Gazole": 0.00209,
        "E10": 0.0019950000000000002,
        "SP98": 0.0021309999999999996
      },
      "maj_gouv": {
        "Gazole": "2026-05-13 12:55:37",
        "E10": "2026-05-13 12:55:37",
        "SP98": "2026-05-13 12:55:37"
      }
    },
    {
      "id": "47310005",
      "lat": 44.112,
      "lon": 0.524,
      "cp": "47310",
      "ville": "Laplume",
      "prix": {
        "Gazole": 0.002209,
        "E10": 0.002029,
        "SP98": 0.002139
      },
      "maj_gouv": {
        "Gazole": "2026-05-07 01:44:54",
        "E10": "2026-05-07 01:44:54",
        "SP98": "2026-05-14 01:48:11"
      }
    },
    {
      "id": "47340001",
      "lat": 44.286,
      "lon": 0.76,
      "cp": "47340",
      "ville": "LAROQUE TIMBAUT",
      "prix": {
        "Gazole": 0.002169,
        "SP95": 0.002079,
        "SP98": 0.0021509999999999997
      },
      "maj_gouv": {
        "Gazole": "2026-05-15 19:40:38",
        "SP95": "2026-05-15 19:40:38",
        "SP98": "2026-05-15 19:40:38"
      }
    },
    {
      "id": "47190001",
      "lat": 44.29654,
      "lon": 0.34412,
      "cp": "47190",
      "ville": "AIGUILLON",
      "prix": {
        "Gazole": 0.002114,
        "SP95": 0.002088,
        "E85": 0.0008179999999999999,
        "E10": 0.002034,
        "SP98": 0.002149
      },
      "maj_gouv": {
        "Gazole": "2026-05-16 19:00:00",
        "SP95": "2026-05-16 19:00:00",
        "E85": "2026-05-16 19:00:00",
        "E10": "2026-05-16 19:00:00",
        "SP98": "2026-05-16 19:00:00"
      }
    },
    {
      "id": "47200011",
      "lat": 44.505,
      "lon": 0.221,
      "cp": "47200",
      "ville": "VIRAZEIL",
      "prix": {},
      "maj_gouv": {}
    },
    {
      "id": "47800003",
      "lat": 44.59548,
      "lon": 0.35238,
      "cp": "47800",
      "ville": "MIRAMONT-DE-GUYENNE",
      "prix": {
        "Gazole": 0.002215,
        "SP95": 0.002079,
        "SP98": 0.002125
      },
      "maj_gouv": {
        "Gazole": "2026-05-04 09:22:38",
        "SP95": "2026-05-04 09:22:38",
        "SP98": "2026-05-04 09:22:38"
      }
    },
    {
      "id": "47410000",
      "lat": 44.629,
      "lon": 0.452,
      "cp": "47410",
      "ville": "Lauzun",
      "prix": {
        "Gazole": 0.00219,
        "E85": 0.00094,
        "E10": 0.00209
      },
      "maj_gouv": {
        "Gazole": "2026-05-13 10:39:41",
        "E85": "2026-04-29 11:28:35",
        "E10": "2026-05-13 10:39:41"
      }
    },
    {
      "id": "47130001",
      "lat": 44.252,
      "lon": 0.382,
      "cp": "47130",
      "ville": "PORT-SAINTE-MARIE",
      "prix": {
        "Gazole": 0.002153,
        "SP95": 0.002089,
        "E85": 0.0008179999999999999,
        "E10": 0.0020299999999999997,
        "SP98": 0.00215
      },
      "maj_gouv": {
        "Gazole": "2026-05-16 19:30:00",
        "SP95": "2026-05-16 19:30:00",
        "E85": "2026-05-15 09:58:08",
        "E10": "2026-05-16 19:30:00",
        "SP98": "2026-05-16 19:30:00"
      }
    },
    {
      "id": "47400003",
      "lat": 44.397,
      "lon": 0.325,
      "cp": "47400",
      "ville": "TONNEINS",
      "prix": {
        "Gazole": 0.0021190000000000002,
        "SP95": 0.00209,
        "E10": 0.002059,
        "SP98": 0.002079
      },
      "maj_gouv": {
        "Gazole": "2026-05-15 08:50:02",
        "SP95": "2026-05-15 08:50:02",
        "E10": "2026-05-15 08:50:02",
        "SP98": "2026-05-07 09:18:07"
      }
    },
    {
      "id": "47310004",
      "lat": 44.176,
      "lon": 0.56,
      "cp": "47310",
      "ville": "ROQUEFORT",
      "prix": {
        "Gazole": 0.002128,
        "E10": 0.002028,
        "SP98": 0.0021579999999999998
      },
      "maj_gouv": {
        "Gazole": "2026-05-15 08:46:26",
        "E10": "2026-05-02 19:22:42",
        "SP98": "2026-05-02 19:22:42"
      }
    },
    {
      "id": "47180002",
      "lat": 44.527375385336,
      "lon": 0.10253260719062,
      "cp": "47180",
      "ville": "Sainte-Bazeille",
      "prix": {
        "Gazole": 0.002089,
        "E85": 0.0008990000000000001,
        "E10": 0.002059,
        "SP98": 0.002108
      },
      "maj_gouv": {
        "Gazole": "2026-05-12 08:24:04",
        "E85": "2026-05-04 10:02:41",
        "E10": "2026-05-16 09:02:06",
        "SP98": "2026-05-15 08:35:53"
      }
    },
    {
      "id": "47510001",
      "lat": 44.23225,
      "lon": 0.6387999999999799,
      "cp": "47510",
      "ville": "Foulayronnes",
      "prix": {
        "Gazole": 0.00209,
        "SP95": 0.00199
      },
      "maj_gouv": {
        "Gazole": "2026-05-15 07:04:19",
        "SP95": "2026-05-13 08:11:10"
      }
    },
    {
      "id": "47290002",
      "lat": 44.533,
      "lon": 0.625,
      "cp": "47290",
      "ville": "Cancon",
      "prix": {
        "Gazole": 0.00209,
        "SP95": 0.0019890000000000003
      },
      "maj_gouv": {
        "Gazole": "2026-05-13 17:45:55",
        "SP95": "2026-04-13 08:13:46"
      }
    },
    {
      "id": "47450003",
      "lat": 44.221304898879,
      "lon": 0.5568648032204,
      "cp": "47450",
      "ville": "Colayrac-Saint-Cirq",
      "prix": {
        "Gazole": 0.002157,
        "E85": 0.000859
      },
      "maj_gouv": {
        "Gazole": "2026-05-11 19:21:44",
        "E85": "2026-05-07 07:07:26"
      }
    },
    {
      "id": "47700001",
      "lat": 44.314,
      "lon": 0.081,
      "cp": "47700",
      "ville": "Casteljaloux",
      "prix": {
        "Gazole": 0.002089,
        "SP95": 0.002079,
        "E85": 0.0008990000000000001,
        "E10": 0.002029,
        "SP98": 0.0021190000000000002
      },
      "maj_gouv": {
        "Gazole": "2026-05-15 08:56:23",
        "SP95": "2026-05-15 08:56:23",
        "E85": "2026-05-15 08:56:24",
        "E10": "2026-05-15 08:56:24",
        "SP98": "2026-05-15 08:56:24"
      }
    },
    {
      "id": "47510002",
      "lat": 44.236,
      "lon": 0.643,
      "cp": "47510",
      "ville": "Foulayronnes",
      "prix": {
        "Gazole": 0.002109,
        "E85": 0.000819,
        "E10": 0.002029,
        "SP98": 0.002149
      },
      "maj_gouv": {
        "Gazole": "2026-05-15 10:00:05",
        "E85": "2026-04-21 11:38:35",
        "E10": "2026-05-15 10:00:05",
        "SP98": "2026-05-15 10:00:05"
      }
    },
    {
      "id": "47300002",
      "lat": 44.404,
      "lon": 0.688,
      "cp": "47300",
      "ville": "BIAS",
      "prix": {
        "Gazole": 0.00209,
        "E85": 0.000861,
        "GPLc": 0.00107
      },
      "maj_gouv": {
        "Gazole": "2026-05-14 00:01:00",
        "E85": "2026-05-14 00:01:00",
        "GPLc": "2026-05-14 00:01:00"
      }
    },
    {
      "id": "47150003",
      "lat": 44.524728787351,
      "lon": 0.76066098824027,
      "cp": "47150",
      "ville": "Monflanquin",
      "prix": {
        "Gazole": 0.002089,
        "E10": 0.0019890000000000003,
        "SP98": 0.002099
      },
      "maj_gouv": {
        "Gazole": "2026-05-13 09:08:55",
        "E10": "2026-05-13 09:08:55",
        "SP98": "2026-05-13 09:08:56"
      }
    },
    {
      "id": "47550012",
      "lat": 44.17846758661,
      "lon": 0.63321894205221,
      "cp": "47550",
      "ville": "Boé",
      "prix": {
        "Gazole": 0.00209,
        "E10": 0.002018,
        "SP98": 0.0021190000000000002
      },
      "maj_gouv": {
        "Gazole": "2026-05-12 14:52:23",
        "E10": "2026-05-12 14:52:23",
        "SP98": "2026-05-12 14:52:23"
      }
    },
    {
      "id": "47600006",
      "lat": 44.144,
      "lon": 0.332,
      "cp": "47600",
      "ville": "NERAC",
      "prix": {
        "Gazole": 0.002219,
        "E85": 0.000855,
        "E10": 0.002069,
        "SP98": 0.002159
      },
      "maj_gouv": {
        "Gazole": "2026-05-14 23:50:00",
        "E85": "2026-05-14 23:50:00",
        "E10": "2026-05-14 23:50:00",
        "SP98": "2026-05-14 23:50:00"
      }
    },
    {
      "id": "47140001",
      "lat": 44.401,
      "lon": 0.614,
      "cp": "47110",
      "ville": "SAINTE-LIVRADE-SUR-LOT",
      "prix": {
        "Gazole": 0.002099,
        "GPLc": 0.00107,
        "E10": 0.002029,
        "SP98": 0.002149
      },
      "maj_gouv": {
        "Gazole": "2026-05-13 12:04:15",
        "GPLc": "2026-05-12 06:50:41",
        "E10": "2026-05-12 06:50:42",
        "SP98": "2026-05-15 11:31:22"
      }
    },
    {
      "id": "47160001",
      "lat": 44.29,
      "lon": 0.282,
      "cp": "47160",
      "ville": "Damazan",
      "prix": {
        "Gazole": 0.00209,
        "E10": 0.00199
      },
      "maj_gouv": {
        "Gazole": "2026-05-14 08:44:11",
        "E10": "2026-05-14 08:44:11"
      }
    },
    {
      "id": "47300004",
      "lat": 44.458,
      "lon": 0.695,
      "cp": "47300",
      "ville": "VILLENEUVE-SUR-LOT",
      "prix": {
        "Gazole": 0.002399,
        "SP95": 0.002142,
        "SP98": 0.002181
      },
      "maj_gouv": {
        "Gazole": "2026-04-14 12:32:00",
        "SP95": "2026-04-14 12:32:00",
        "SP98": "2026-04-14 12:32:00"
      }
    },
    {
      "id": "47400004",
      "lat": 44.401,
      "lon": 0.299,
      "cp": "47400",
      "ville": "TONNEINS",
      "prix": {
        "Gazole": 0.00209,
        "E85": 0.000934,
        "E10": 0.00199,
        "SP98": 0.00199
      },
      "maj_gouv": {
        "Gazole": "2026-05-17 00:01:00",
        "E85": "2026-05-17 00:01:00",
        "E10": "2026-05-17 00:01:00",
        "SP98": "2026-05-17 00:01:00"
      }
    },
    {
      "id": "47600007",
      "lat": 44.133810999999994,
      "lon": 0.34580900000000003,
      "cp": "47600",
      "ville": "Nérac",
      "prix": {
        "Gazole": 0.00209
      },
      "maj_gouv": {
        "Gazole": "2026-05-14 09:36:57"
      }
    },
    {
      "id": "47310003",
      "lat": 44.184,
      "lon": 0.576,
      "cp": "47310",
      "ville": "Estillac",
      "prix": {
        "Gazole": 0.00209,
        "SP95": 0.00196
      },
      "maj_gouv": {
        "Gazole": "2026-05-15 08:24:04",
        "SP95": "2026-05-15 08:24:04"
      }
    }
  ]
}