{
  "departement": "49",
  "date": "2026-05-17",
  "stations": [
    {
      "id": "49123002",
      "lat": 47.41024334305,
      "lon": -0.93675465665287,
      "cp": "49123",
      "ville": "INGRANDES LE FRESNE SUR LOIRE",
      "prix": {
        "Gazole": 0.0021190000000000002,
        "E85": 0.0008179999999999999,
        "E10": 0.002049,
        "SP98": 0.002149
      },
      "maj_gouv": {
        "Gazole": "2026-05-13 23:59:00",
        "E85": "2026-04-22 08:19:46",
        "E10": "2026-05-13 23:59:00",
        "SP98": "2026-05-13 23:59:00"
      }
    },
    {
      "id": "49150001",
      "lat": 47.54522912429,
      "lon": -0.11035160149824,
      "cp": "49150",
      "ville": "Baugé-en-Anjou",
      "prix": {
        "Gazole": 0.00209,
        "SP95": 0.002109,
        "E85": 0.000839,
        "E10": 0.002059,
        "SP98": 0.002139
      },
      "maj_gouv": {
        "Gazole": "2026-05-12 15:26:23",
        "SP95": "2026-05-08 08:19:15",
        "E85": "2026-05-08 08:19:16",
        "E10": "2026-05-08 08:19:16",
        "SP98": "2026-05-13 11:06:45"
      }
    },
    {
      "id": "49330004",
      "lat": 47.664215062238,
      "lon": -0.5604599008804501,
      "cp": "49330",
      "ville": "CHAMPIGNE",
      "prix": {},
      "maj_gouv": {}
    },
    {
      "id": "49300007",
      "lat": 47.075,
      "lon": -0.843,
      "cp": "49300",
      "ville": "Cholet",
      "prix": {
        "Gazole": 0.002078,
        "SP95": 0.002069,
        "E85": 0.0008449999999999999,
        "GPLc": 0.001029,
        "E10": 0.0020350000000000004,
        "SP98": 0.002098
      },
      "maj_gouv": {
        "Gazole": "2026-05-16 10:56:40",
        "SP95": "2026-05-16 10:56:40",
        "E85": "2026-05-16 10:56:40",
        "GPLc": "2026-05-16 10:56:40",
        "E10": "2026-05-16 10:56:40",
        "SP98": "2026-05-16 10:56:41"
      }
    },
    {
      "id": "49000004",
      "lat": 47.485,
      "lon": -0.548,
      "cp": "49100",
      "ville": "Angers",
      "prix": {
        "Gazole": 0.00209,
        "E85": 0.000944,
        "E10": 0.00199
      },
      "maj_gouv": {
        "Gazole": "2026-05-15 16:40:59",
        "E85": "2026-05-15 16:40:59",
        "E10": "2026-05-15 16:40:59"
      }
    },
    {
      "id": "49000012",
      "lat": 47.454,
      "lon": -0.554,
      "cp": "49000",
      "ville": "ANGERS",
      "prix": {
        "Gazole": 0.00209,
        "E85": 0.000859,
        "E10": 0.00199
      },
      "maj_gouv": {
        "Gazole": "2026-05-17 00:01:00",
        "E85": "2026-05-17 00:01:00",
        "E10": "2026-05-17 00:01:00"
      }
    },
    {
      "id": "49125001",
      "lat": 47.61508,
      "lon": -0.46414,
      "cp": "49125",
      "ville": "Tiercé",
      "prix": {
        "Gazole": 0.002099,
        "E85": 0.000799,
        "E10": 0.002049,
        "SP98": 0.0021190000000000002
      },
      "maj_gouv": {
        "Gazole": "2026-05-13 08:04:25",
        "E85": "2026-04-15 08:02:43",
        "E10": "2026-05-09 08:20:58",
        "SP98": "2026-05-09 08:20:58"
      }
    },
    {
      "id": "49700001",
      "lat": 47.19,
      "lon": -0.291,
      "cp": "49700",
      "ville": "Doué-la-Fontaine",
      "prix": {
        "Gazole": 0.0021190000000000002,
        "GPLc": 0.001049,
        "E10": 0.002029,
        "SP98": 0.002129
      },
      "maj_gouv": {
        "Gazole": "2026-05-15 08:13:03",
        "GPLc": "2026-04-07 10:03:09",
        "E10": "2026-05-11 08:32:19",
        "SP98": "2026-05-15 08:13:03"
      }
    },
    {
      "id": "49124001",
      "lat": 47.48298,
      "lon": -0.51446,
      "cp": "49124",
      "ville": "SAINT BARTHéLéMY D'ANJOU",
      "prix": {
        "Gazole": 0.002099,
        "E10": 0.002049,
        "SP98": 0.0021190000000000002
      },
      "maj_gouv": {
        "Gazole": "2026-05-15 08:57:59",
        "E10": "2026-05-15 08:57:59",
        "SP98": "2026-05-15 08:57:59"
      }
    },
    {
      "id": "49110004",
      "lat": 47.262,
      "lon": -1.038,
      "cp": "49110",
      "ville": "Montrevault sur Evre",
      "prix": {
        "Gazole": 0.002099,
        "E85": 0.000819,
        "E10": 0.001999,
        "SP98": 0.002099
      },
      "maj_gouv": {
        "Gazole": "2026-05-13 20:24:57",
        "E85": "2026-04-15 11:44:40",
        "E10": "2026-05-13 20:24:57",
        "SP98": "2026-05-13 20:24:57"
      }
    },
    {
      "id": "49450001",
      "lat": 47.114305886000004,
      "lon": -0.991832348626,
      "cp": "49450",
      "ville": "SAINT-MACAIRE-EN-MAUGES",
      "prix": {
        "Gazole": 0.002079,
        "E85": 0.0007880000000000001,
        "E10": 0.002018,
        "SP98": 0.002118
      },
      "maj_gouv": {
        "Gazole": "2026-05-15 09:15:07",
        "E85": "2026-04-30 09:08:02",
        "E10": "2026-05-15 09:15:07",
        "SP98": "2026-05-15 09:15:07"
      }
    },
    {
      "id": "49450005",
      "lat": 47.15263,
      "lon": -1.05815,
      "cp": "49450",
      "ville": "Villedieu-la-Blouère",
      "prix": {
        "Gazole": 0.002179,
        "E10": 0.002016,
        "SP98": 0.0021219999999999998
      },
      "maj_gouv": {
        "Gazole": "2026-05-07 09:47:53",
        "E10": "2026-05-07 09:47:53",
        "SP98": "2026-05-07 09:47:53"
      }
    },
    {
      "id": "49690001",
      "lat": 47.128,
      "lon": -0.638,
      "cp": "49690",
      "ville": "CORON",
      "prix": {
        "Gazole": 0.00209
      },
      "maj_gouv": {
        "Gazole": "2026-05-13 19:11:13"
      }
    },
    {
      "id": "49250001",
      "lat": 47.441,
      "lon": -0.194,
      "cp": "49250",
      "ville": "Beaufort-en-Vallée",
      "prix": {
        "Gazole": 0.002099,
        "E10": 0.002059,
        "SP98": 0.002139
      },
      "maj_gouv": {
        "Gazole": "2026-05-13 10:48:07",
        "E10": "2026-05-07 11:02:08",
        "SP98": "2026-05-11 11:24:14"
      }
    },
    {
      "id": "49370002",
      "lat": 47.52,
      "lon": -0.88,
      "cp": "49370",
      "ville": "LE LOUROUX-BéCONNAIS",
      "prix": {
        "Gazole": 0.002115,
        "E10": 0.002069,
        "SP98": 0.002149
      },
      "maj_gouv": {
        "Gazole": "2026-05-13 17:57:51",
        "E10": "2026-05-13 17:57:51",
        "SP98": "2026-05-06 05:42:51"
      }
    },
    {
      "id": "49300014",
      "lat": 47.059,
      "lon": -0.89,
      "cp": "49300",
      "ville": "CHOLET",
      "prix": {
        "Gazole": 0.002099,
        "E10": 0.002069,
        "SP98": 0.002219
      },
      "maj_gouv": {
        "Gazole": "2026-05-16 12:37:59",
        "E10": "2026-05-16 12:37:59",
        "SP98": "2026-05-16 12:37:59"
      }
    },
    {
      "id": "49650003",
      "lat": 47.293117300000006,
      "lon": 0.0242089,
      "cp": "49650",
      "ville": "Allonnes",
      "prix": {
        "Gazole": 0.0021190000000000002,
        "SP95": 0.002049,
        "SP98": 0.002129
      },
      "maj_gouv": {
        "Gazole": "2026-05-13 09:03:50",
        "SP95": "2026-04-23 11:00:25",
        "SP98": "2026-04-23 11:00:25"
      }
    },
    {
      "id": "49240003",
      "lat": 47.503893800361,
      "lon": -0.58604066482388,
      "cp": "49240",
      "ville": "Avrillé",
      "prix": {
        "Gazole": 0.002179,
        "E10": 0.002029
      },
      "maj_gouv": {
        "Gazole": "2026-05-13 11:15:27",
        "E10": "2026-05-13 11:15:27"
      }
    },
    {
      "id": "49230002",
      "lat": 47.155,
      "lon": -1.21,
      "cp": "49230",
      "ville": "SEVREMOINE",
      "prix": {
        "Gazole": 0.002199,
        "SP95": 0.002059,
        "SP98": 0.002199
      },
      "maj_gouv": {
        "Gazole": "2026-05-04 10:13:08",
        "SP95": "2026-05-04 10:13:08",
        "SP98": "2026-03-28 07:42:42"
      }
    },
    {
      "id": "49480007",
      "lat": 47.5,
      "lon": -0.491,
      "cp": "49480",
      "ville": "Saint-Sylvain-d'Anjou",
      "prix": {
        "Gazole": 0.0023889999999999996,
        "E85": 0.000929,
        "GPLc": 0.001064,
        "E10": 0.002189,
        "SP98": 0.0022890000000000002
      },
      "maj_gouv": {
        "Gazole": "2026-04-24 08:54:01",
        "E85": "2026-04-15 09:36:39",
        "GPLc": "2026-03-31 16:21:10",
        "E10": "2026-05-06 10:26:55",
        "SP98": "2026-05-06 10:26:55"
      }
    },
    {
      "id": "49150002",
      "lat": 47.53837,
      "lon": -0.10628,
      "cp": "49150",
      "ville": "BAUGé",
      "prix": {
        "Gazole": 0.00209,
        "E10": 0.00199
      },
      "maj_gouv": {
        "Gazole": "2026-05-15 08:10:30",
        "E10": "2026-05-15 08:10:30"
      }
    },
    {
      "id": "49400007",
      "lat": 47.252,
      "lon": -0.082,
      "cp": "49400",
      "ville": "SAUMUR",
      "prix": {
        "Gazole": 0.00209,
        "E10": 0.00199
      },
      "maj_gouv": {
        "Gazole": "2026-05-17 00:01:00",
        "E10": "2026-05-17 00:01:00"
      }
    },
    {
      "id": "49170002",
      "lat": 47.401,
      "lon": -0.756,
      "cp": "49170",
      "ville": "ST GEORGES SUR LOIRE",
      "prix": {
        "Gazole": 0.002149,
        "E85": 0.000799,
        "GPLc": 0.001089,
        "E10": 0.002039,
        "SP98": 0.0021190000000000002
      },
      "maj_gouv": {
        "Gazole": "2026-05-15 09:00:15",
        "E85": "2026-04-23 11:56:59",
        "GPLc": "2026-04-29 09:22:05",
        "E10": "2026-05-09 11:46:49",
        "SP98": "2026-05-09 11:46:49"
      }
    },
    {
      "id": "49260001",
      "lat": 47.13,
      "lon": -0.153,
      "cp": "49260",
      "ville": "MONTREUIL-BELLAY",
      "prix": {
        "Gazole": 0.0021190000000000002,
        "E10": 0.002075,
        "SP98": 0.002129
      },
      "maj_gouv": {
        "Gazole": "2026-05-15 09:20:14",
        "E10": "2026-05-16 07:35:53",
        "SP98": "2026-05-16 07:35:54"
      }
    },
    {
      "id": "49480005",
      "lat": 47.5,
      "lon": -0.491,
      "cp": "49480",
      "ville": "saint sylvain d'anjou",
      "prix": {
        "Gazole": 0.002549,
        "E85": 0.0010689999999999999,
        "GPLc": 0.001369,
        "E10": 0.002559,
        "SP98": 0.002699
      },
      "maj_gouv": {
        "Gazole": "2026-05-16 22:09:29",
        "E85": "2026-05-16 22:09:29",
        "GPLc": "2026-05-16 22:09:29",
        "E10": "2026-05-16 22:09:29",
        "SP98": "2026-05-16 22:09:29"
      }
    },
    {
      "id": "49630007",
      "lat": 47.474777682196006,
      "lon": -0.34718305429679996,
      "cp": "49630",
      "ville": "Loire-Authion",
      "prix": {
        "Gazole": 0.002139,
        "SP95": 0.002099,
        "SP98": 0.0021720000000000003
      },
      "maj_gouv": {
        "Gazole": "2026-05-16 12:00:45",
        "SP95": "2026-05-16 12:00:45",
        "SP98": "2026-05-16 12:00:45"
      }
    },
    {
      "id": "49122003",
      "lat": 47.132,
      "lon": -0.943,
      "cp": "49122",
      "ville": "BEGROLLES EN MAUGES",
      "prix": {
        "Gazole": 0.00209,
        "SP95": 0.00199
      },
      "maj_gouv": {
        "Gazole": "2026-05-15 15:08:57",
        "SP95": "2026-05-15 15:08:57"
      }
    },
    {
      "id": "49123001",
      "lat": 47.406,
      "lon": -0.926,
      "cp": "49123",
      "ville": "INGRANDES-SUR-LOIRE",
      "prix": {
        "Gazole": 0.0021190000000000002,
        "E10": 0.002049,
        "SP98": 0.002149
      },
      "maj_gouv": {
        "Gazole": "2026-05-13 23:59:00",
        "E10": "2026-05-13 23:59:00",
        "SP98": "2026-05-13 23:59:00"
      }
    },
    {
      "id": "49310001",
      "lat": 47.147,
      "lon": -0.522,
      "cp": "49310",
      "ville": "VIHIERS",
      "prix": {
        "Gazole": 0.002099,
        "SP95": 0.002081,
        "E85": 0.000799,
        "E10": 0.002049,
        "SP98": 0.0021190000000000002
      },
      "maj_gouv": {
        "Gazole": "2026-05-13 12:38:57",
        "SP95": "2026-05-15 08:23:33",
        "E85": "2026-04-30 08:07:40",
        "E10": "2026-05-15 08:23:33",
        "SP98": "2026-05-15 08:23:33"
      }
    },
    {
      "id": "49220001",
      "lat": 47.614,
      "lon": -0.707,
      "cp": "49220",
      "ville": "grez neuville",
      "prix": {
        "Gazole": 0.002059,
        "SP95": 0.002169,
        "E10": 0.002069,
        "SP98": 0.002199
      },
      "maj_gouv": {
        "Gazole": "2026-05-14 09:04:42",
        "SP95": "2026-05-12 09:16:00",
        "E10": "2026-05-15 09:16:13",
        "SP98": "2026-05-14 09:04:43"
      }
    },
    {
      "id": "49000015",
      "lat": 47.455,
      "lon": -0.534,
      "cp": "49000",
      "ville": "ANGERS",
      "prix": {
        "Gazole": 0.0021869999999999997,
        "E85": 0.0008179999999999999,
        "E10": 0.0019950000000000002
      },
      "maj_gouv": {
        "Gazole": "2026-05-12 14:27:31",
        "E85": "2026-04-16 12:30:00",
        "E10": "2026-05-12 14:27:31"
      }
    },
    {
      "id": "49800002",
      "lat": 47.46273129595,
      "lon": -0.40783444519358003,
      "cp": "49800",
      "ville": "Brain-sur-l'Authion",
      "prix": {
        "Gazole": 0.002139,
        "E85": 0.000759,
        "E10": 0.002049,
        "SP98": 0.002129
      },
      "maj_gouv": {
        "Gazole": "2026-05-15 11:00:00",
        "E85": "2026-05-07 10:50:12",
        "E10": "2026-05-15 11:00:00",
        "SP98": "2026-05-06 12:35:06"
      }
    },
    {
      "id": "49110003",
      "lat": 47.267088063570995,
      "lon": -1.0249368373938,
      "cp": "49110",
      "ville": "Saint-Pierre-Montlimart",
      "prix": {
        "Gazole": 0.002099,
        "SP95": 0.001999,
        "SP98": 0.002099
      },
      "maj_gouv": {
        "Gazole": "2026-05-13 15:56:44",
        "SP95": "2026-05-13 15:56:44",
        "SP98": "2026-05-13 15:56:45"
      }
    },
    {
      "id": "49490001",
      "lat": 47.511,
      "lon": 0.113,
      "cp": "49490",
      "ville": "NOYANT",
      "prix": {
        "Gazole": 0.002159,
        "E10": 0.002029,
        "SP98": 0.002129
      },
      "maj_gouv": {
        "Gazole": "2026-05-13 08:47:41",
        "E10": "2026-05-13 08:47:41",
        "SP98": "2026-05-13 08:47:41"
      }
    },
    {
      "id": "49400004",
      "lat": 47.277,
      "lon": -0.075,
      "cp": "49400",
      "ville": "SAUMUR",
      "prix": {
        "Gazole": 0.002099,
        "E85": 0.000798,
        "GPLc": 0.001119,
        "E10": 0.002009,
        "SP98": 0.0021190000000000002
      },
      "maj_gouv": {
        "Gazole": "2026-05-15 10:01:10",
        "E85": "2026-05-15 10:01:10",
        "GPLc": "2026-04-30 12:42:27",
        "E10": "2026-05-15 10:13:03",
        "SP98": "2026-05-15 10:01:10"
      }
    },
    {
      "id": "49420001",
      "lat": 47.743,
      "lon": -1.166,
      "cp": "49420",
      "ville": "POUANCE, OMBREE D'ANJOU",
      "prix": {
        "Gazole": 0.002089,
        "SP95": 0.002099,
        "E85": 0.000789,
        "E10": 0.002025
      },
      "maj_gouv": {
        "Gazole": "2026-05-15 10:41:12",
        "SP95": "2026-05-07 09:28:43",
        "E85": "2026-05-13 09:37:02",
        "E10": "2026-05-13 09:37:02"
      }
    },
    {
      "id": "49070005",
      "lat": 47.468,
      "lon": -0.626,
      "cp": "49070",
      "ville": "BEAUCOUZE",
      "prix": {
        "Gazole": 0.002075,
        "E85": 0.000789,
        "E10": 0.002058,
        "SP98": 0.0021349999999999997
      },
      "maj_gouv": {
        "Gazole": "2026-05-13 16:43:19",
        "E85": "2026-05-12 13:23:36",
        "E10": "2026-05-13 16:43:19",
        "SP98": "2026-05-13 16:43:19"
      }
    },
    {
      "id": "49370001",
      "lat": 47.503,
      "lon": -0.793,
      "cp": "49370",
      "ville": "BECON-LES-GRANITS",
      "prix": {
        "Gazole": 0.002075,
        "SP95": 0.002109,
        "E10": 0.002039,
        "SP98": 0.002139
      },
      "maj_gouv": {
        "Gazole": "2026-05-15 09:07:12",
        "SP95": "2026-05-15 09:07:12",
        "E10": "2026-05-15 09:07:12",
        "SP98": "2026-05-15 09:07:12"
      }
    },
    {
      "id": "49130004",
      "lat": 47.437,
      "lon": -0.514,
      "cp": "49130",
      "ville": "LES PONTS-DE-Cé",
      "prix": {
        "Gazole": 0.0021190000000000002,
        "SP95": 0.002099,
        "E10": 0.002049
      },
      "maj_gouv": {
        "Gazole": "2026-05-15 14:33:17",
        "SP95": "2026-05-15 14:33:18",
        "E10": "2026-05-15 14:33:18"
      }
    },
    {
      "id": "49240002",
      "lat": 47.5173224504,
      "lon": -0.608072819189,
      "cp": "49240",
      "ville": "AVRILLé",
      "prix": {
        "Gazole": 0.002099,
        "E85": 0.000789,
        "GPLc": 0.001099,
        "E10": 0.0019890000000000003,
        "SP98": 0.002109
      },
      "maj_gouv": {
        "Gazole": "2026-05-13 10:16:18",
        "E85": "2026-05-04 10:21:37",
        "GPLc": "2026-04-14 09:52:01",
        "E10": "2026-05-14 08:25:24",
        "SP98": "2026-05-07 13:29:10"
      }
    },
    {
      "id": "49300018",
      "lat": 47.042585385517,
      "lon": -0.9002721116539301,
      "cp": "49300",
      "ville": "CHOLET",
      "prix": {
        "Gazole": 0.0020369999999999997,
        "E85": 0.000764,
        "E10": 0.002036
      },
      "maj_gouv": {
        "Gazole": "2026-05-16 07:50:21",
        "E85": "2026-05-16 07:50:22",
        "E10": "2026-05-16 07:50:22"
      }
    },
    {
      "id": "49360003",
      "lat": 47.01,
      "lon": -0.756,
      "cp": "49360",
      "ville": "Maulévrier",
      "prix": {
        "Gazole": 0.002078,
        "SP95": 0.002098,
        "E10": 0.002018,
        "SP98": 0.002128
      },
      "maj_gouv": {
        "Gazole": "2026-05-15 08:18:35",
        "SP95": "2026-05-15 08:18:35",
        "E10": "2026-05-16 08:50:49",
        "SP98": "2026-05-15 08:18:35"
      }
    },
    {
      "id": "49800006",
      "lat": 47.4521142,
      "lon": -0.4683908,
      "cp": "49800",
      "ville": "Trélazé",
      "prix": {
        "Gazole": 0.002089,
        "E10": 0.002059,
        "SP98": 0.002139
      },
      "maj_gouv": {
        "Gazole": "2026-05-15 09:24:54",
        "E10": "2026-05-15 09:24:54",
        "SP98": "2026-05-15 09:24:54"
      }
    },
    {
      "id": "49124003",
      "lat": 47.4773034,
      "lon": -0.4911358,
      "cp": "49124",
      "ville": "St Barthélemy d'Anjou",
      "prix": {
        "Gazole": 0.002089,
        "E10": 0.002049,
        "SP98": 0.0021190000000000002
      },
      "maj_gouv": {
        "Gazole": "2026-05-16 09:28:01",
        "E10": "2026-05-16 09:28:01",
        "SP98": "2026-05-15 08:33:27"
      }
    },
    {
      "id": "49400006",
      "lat": 47.231,
      "lon": -0.117,
      "cp": "49400",
      "ville": "DISTRE",
      "prix": {
        "Gazole": 0.002139,
        "E85": 0.000829,
        "GPLc": 0.001119,
        "E10": 0.001999,
        "SP98": 0.0021190000000000002
      },
      "maj_gouv": {
        "Gazole": "2026-05-13 16:21:34",
        "E85": "2026-05-13 16:21:34",
        "GPLc": "2026-05-15 10:27:09",
        "E10": "2026-05-13 16:21:34",
        "SP98": "2026-05-13 16:21:34"
      }
    },
    {
      "id": "49140001",
      "lat": 47.571,
      "lon": -0.358,
      "cp": "49140",
      "ville": "Corzé",
      "prix": {
        "Gazole": 0.0021190000000000002,
        "SP95": 0.002109,
        "E85": 0.000839,
        "SP98": 0.002149
      },
      "maj_gouv": {
        "Gazole": "2026-05-15 10:31:05",
        "SP95": "2026-05-06 12:22:55",
        "E85": "2026-04-23 14:51:53",
        "SP98": "2026-05-06 12:22:55"
      }
    },
    {
      "id": "49100003",
      "lat": 47.483,
      "lon": -0.527,
      "cp": "49100",
      "ville": "ANGERS",
      "prix": {
        "Gazole": 0.00209,
        "E85": 0.000934,
        "E10": 0.00199
      },
      "maj_gouv": {
        "Gazole": "2026-05-17 00:01:00",
        "E85": "2026-05-17 00:01:00",
        "E10": "2026-05-17 00:01:00"
      }
    },
    {
      "id": "49710001",
      "lat": 47.023,
      "lon": -1.056,
      "cp": "49710",
      "ville": "LE LONGERON",
      "prix": {
        "Gazole": 0.0022400000000000002,
        "SP95": 0.00199
      },
      "maj_gouv": {
        "Gazole": "2026-04-30 09:09:44",
        "SP95": "2026-04-30 09:09:44"
      }
    },
    {
      "id": "49160004",
      "lat": 47.418922120054,
      "lon": -0.13178209154551,
      "cp": "49160",
      "ville": "Longué-Jumelles",
      "prix": {
        "Gazole": 0.002494,
        "E10": 0.002504,
        "SP98": 0.002654
      },
      "maj_gouv": {
        "Gazole": "2026-05-16 09:30:00",
        "E10": "2026-05-16 09:30:00",
        "SP98": "2026-05-16 09:30:00"
      }
    },
    {
      "id": "49120001",
      "lat": 47.208,
      "lon": -0.715,
      "cp": "49120",
      "ville": "CHEMILLE",
      "prix": {
        "Gazole": 0.002089,
        "E85": 0.000739,
        "GPLc": 0.001099,
        "E10": 0.002019,
        "SP98": 0.002099
      },
      "maj_gouv": {
        "Gazole": "2026-05-13 07:50:50",
        "E85": "2026-05-05 07:54:07",
        "GPLc": "2026-04-27 13:34:57",
        "E10": "2026-05-12 07:57:49",
        "SP98": "2026-05-13 07:50:51"
      }
    },
    {
      "id": "49440001",
      "lat": 47.568,
      "lon": -1.033,
      "cp": "49440",
      "ville": "Candé",
      "prix": {
        "Gazole": 0.002099,
        "E85": 0.000789,
        "GPLc": 0.0010789999999999999,
        "E10": 0.002069,
        "SP98": 0.002129
      },
      "maj_gouv": {
        "Gazole": "2026-05-15 16:41:08",
        "E85": "2026-05-05 08:20:01",
        "GPLc": "2026-05-13 06:52:21",
        "E10": "2026-05-07 06:53:59",
        "SP98": "2026-05-09 07:27:41"
      }
    },
    {
      "id": "49540002",
      "lat": 47.23,
      "lon": -0.438,
      "cp": "49540",
      "ville": "Martigné-Briand",
      "prix": {
        "Gazole": 0.002298,
        "SP95": 0.002145,
        "SP98": 0.0022299999999999998
      },
      "maj_gouv": {
        "Gazole": "2026-05-07 09:13:43",
        "SP95": "2026-05-07 09:13:43",
        "SP98": "2026-05-07 09:13:43"
      }
    },
    {
      "id": "49112001",
      "lat": 47.522,
      "lon": -0.442,
      "cp": "49112",
      "ville": "PELLOUAILLES-LES-VIGNES",
      "prix": {
        "Gazole": 0.002069,
        "E10": 0.002039,
        "SP98": 0.002149
      },
      "maj_gouv": {
        "Gazole": "2026-05-12 08:59:01",
        "E10": "2026-05-06 15:06:17",
        "SP98": "2026-05-06 15:06:17"
      }
    },
    {
      "id": "49290002",
      "lat": 47.346,
      "lon": -0.761,
      "cp": "49290",
      "ville": "CHALONNES-SUR-LOIRE",
      "prix": {
        "Gazole": 0.002149,
        "E85": 0.0008179999999999999,
        "E10": 0.002049,
        "SP98": 0.002159
      },
      "maj_gouv": {
        "Gazole": "2026-05-15 06:28:04",
        "E85": "2026-04-27 08:07:53",
        "E10": "2026-05-15 06:28:04",
        "SP98": "2026-05-15 06:28:04"
      }
    },
    {
      "id": "49340001",
      "lat": 47.135,
      "lon": -0.826,
      "cp": "49340",
      "ville": "TREMENTINES",
      "prix": {
        "Gazole": 0.002199,
        "E85": 0.000929,
        "E10": 0.002079,
        "SP98": 0.002149
      },
      "maj_gouv": {
        "Gazole": "2026-05-16 20:00:00",
        "E85": "2026-05-16 20:00:00",
        "E10": "2026-05-16 20:00:00",
        "SP98": "2026-05-16 20:00:00"
      }
    },
    {
      "id": "49070009",
      "lat": 47.466,
      "lon": -0.63,
      "cp": "49070",
      "ville": "BEAUCOUZE",
      "prix": {
        "Gazole": 0.00209,
        "E85": 0.000843,
        "GPLc": 0.001034,
        "E10": 0.00199
      },
      "maj_gouv": {
        "Gazole": "2026-05-17 00:01:00",
        "E85": "2026-05-17 00:01:00",
        "GPLc": "2026-05-17 00:01:00",
        "E10": "2026-05-17 00:01:00"
      }
    },
    {
      "id": "49300017",
      "lat": 47.032,
      "lon": -0.934,
      "cp": "49300",
      "ville": "Cholet",
      "prix": {
        "Gazole": 0.002229,
        "SP98": 0.0022589999999999997
      },
      "maj_gouv": {
        "Gazole": "2026-05-12 14:00:14",
        "SP98": "2026-05-06 15:15:25"
      }
    },
    {
      "id": "49300010",
      "lat": 47.002,
      "lon": -0.891,
      "cp": "49300",
      "ville": "Le Puy-Saint-Bonnet",
      "prix": {
        "Gazole": 0.0022589999999999997,
        "E85": 0.0008900000000000001,
        "E10": 0.0023
      },
      "maj_gouv": {
        "Gazole": "2026-05-06 07:31:53",
        "E85": "2026-04-28 08:06:14",
        "E10": "2026-05-06 07:31:53"
      }
    },
    {
      "id": "49140003",
      "lat": 47.569,
      "lon": -0.42,
      "cp": "49140",
      "ville": "SOUCELLES",
      "prix": {
        "Gazole": 0.002069,
        "SP95": 0.002079,
        "SP98": 0.002109
      },
      "maj_gouv": {
        "Gazole": "2026-05-13 08:52:31",
        "SP95": "2026-05-06 15:22:15",
        "SP98": "2026-05-06 15:22:15"
      }
    },
    {
      "id": "49390001",
      "lat": 47.39,
      "lon": 0.07,
      "cp": "49390",
      "ville": "Vernoil-le-Fourrier",
      "prix": {
        "Gazole": 0.002189,
        "E10": 0.002059,
        "SP98": 0.0021190000000000002
      },
      "maj_gouv": {
        "Gazole": "2026-05-09 06:21:00",
        "E10": "2026-05-09 06:21:00",
        "SP98": "2026-05-09 06:21:00"
      }
    },
    {
      "id": "49120004",
      "lat": 47.235,
      "lon": -0.723,
      "cp": "49120",
      "ville": "CHEMILLE",
      "prix": {
        "Gazole": 0.002081,
        "E85": 0.0007379999999999999,
        "E10": 0.002018,
        "SP98": 0.002098
      },
      "maj_gouv": {
        "Gazole": "2026-05-15 07:17:07",
        "E85": "2026-05-15 10:20:57",
        "E10": "2026-05-15 10:20:57",
        "SP98": "2026-05-15 10:20:57"
      }
    },
    {
      "id": "49280003",
      "lat": 47.005,
      "lon": -0.851,
      "cp": "49280",
      "ville": "La Tessoualle",
      "prix": {
        "Gazole": 0.00209,
        "SP95": 0.0021190000000000002,
        "SP98": 0.002159
      },
      "maj_gouv": {
        "Gazole": "2026-05-15 16:04:31",
        "SP95": "2026-05-15 16:04:31",
        "SP98": "2026-05-15 16:04:31"
      }
    },
    {
      "id": "49410002",
      "lat": 47.359,
      "lon": -1.016,
      "cp": "49410",
      "ville": "Saint-Florent-le-Vieil",
      "prix": {
        "Gazole": 0.002139,
        "E10": 0.002019,
        "SP98": 0.002149
      },
      "maj_gouv": {
        "Gazole": "2026-05-13 09:20:36",
        "E10": "2026-05-13 09:20:36",
        "SP98": "2026-05-13 09:20:37"
      }
    },
    {
      "id": "49300016",
      "lat": 47.071855132799996,
      "lon": -0.856768078224,
      "cp": "49300",
      "ville": "CHOLET",
      "prix": {
        "Gazole": 0.00209,
        "E85": 0.000846,
        "GPLc": 0.001009,
        "E10": 0.00199,
        "SP98": 0.00199
      },
      "maj_gouv": {
        "Gazole": "2026-05-17 00:01:00",
        "E85": "2026-05-17 00:01:00",
        "GPLc": "2026-05-17 00:01:00",
        "E10": "2026-05-17 00:01:00",
        "SP98": "2026-05-17 00:01:00"
      }
    },
    {
      "id": "49800003",
      "lat": 47.449,
      "lon": -0.505,
      "cp": "49800",
      "ville": "Trélazé",
      "prix": {
        "Gazole": 0.002079,
        "E85": 0.000934,
        "E10": 0.002069,
        "SP98": 0.002134
      },
      "maj_gouv": {
        "Gazole": "2026-05-16 09:43:27",
        "E85": "2026-05-16 09:43:27",
        "E10": "2026-05-16 09:43:27",
        "SP98": "2026-05-16 09:43:27"
      }
    },
    {
      "id": "49000014",
      "lat": 47.456,
      "lon": -0.571,
      "cp": "49000",
      "ville": "ANGERS",
      "prix": {
        "Gazole": 0.00209,
        "E85": 0.000859,
        "E10": 0.00199
      },
      "maj_gouv": {
        "Gazole": "2026-05-17 00:01:00",
        "E85": "2026-05-17 00:01:00",
        "E10": "2026-05-17 00:01:00"
      }
    },
    {
      "id": "49412001",
      "lat": 47.264,
      "lon": -0.092,
      "cp": "49400",
      "ville": "Saumur",
      "prix": {
        "Gazole": 0.002099,
        "SP95": 0.002109,
        "E10": 0.002019,
        "SP98": 0.0021190000000000002
      },
      "maj_gouv": {
        "Gazole": "2026-05-17 01:16:00",
        "SP95": "2026-05-17 01:16:00",
        "E10": "2026-05-17 01:16:00",
        "SP98": "2026-05-17 01:16:00"
      }
    },
    {
      "id": "49500001",
      "lat": 47.697,
      "lon": -0.871,
      "cp": "49500",
      "ville": "Segré en Anjou Bleu",
      "prix": {
        "Gazole": 0.002069,
        "SP95": 0.002109,
        "GPLc": 0.0010789999999999999,
        "E10": 0.002039,
        "SP98": 0.0021190000000000002
      },
      "maj_gouv": {
        "Gazole": "2026-05-16 09:00:00",
        "SP95": "2026-05-16 09:00:00",
        "GPLc": "2026-04-29 16:00:00",
        "E10": "2026-05-16 09:00:00",
        "SP98": "2026-05-16 09:00:00"
      }
    },
    {
      "id": "49306001",
      "lat": 47.052,
      "lon": -0.85,
      "cp": "49300",
      "ville": "Cholet",
      "prix": {
        "Gazole": 0.002034,
        "E10": 0.002007,
        "SP98": 0.0020859999999999997
      },
      "maj_gouv": {
        "Gazole": "2026-05-17 01:17:00",
        "E10": "2026-05-17 01:17:00",
        "SP98": "2026-05-17 01:17:00"
      }
    },
    {
      "id": "49380001",
      "lat": 47.2698,
      "lon": -0.50396,
      "cp": "49380",
      "ville": "Thouarcé",
      "prix": {
        "Gazole": 0.002169,
        "E10": 0.002049,
        "SP98": 0.0021190000000000002
      },
      "maj_gouv": {
        "Gazole": "2026-05-16 08:06:17",
        "E10": "2026-05-07 07:25:23",
        "SP98": "2026-05-15 08:19:31"
      }
    },
    {
      "id": "49290001",
      "lat": 47.347873868522,
      "lon": -0.75958487000826,
      "cp": "49290",
      "ville": "CHALONNES-SUR-LOIRE",
      "prix": {
        "Gazole": 0.0021190000000000002,
        "E10": 0.002039,
        "SP98": 0.0021190000000000002
      },
      "maj_gouv": {
        "Gazole": "2026-05-13 09:15:41",
        "E10": "2026-05-13 09:15:41",
        "SP98": "2026-05-16 09:03:21"
      }
    },
    {
      "id": "49600004",
      "lat": 47.204,
      "lon": -0.977,
      "cp": "49600",
      "ville": "Beaupréau",
      "prix": {
        "Gazole": 0.0021190000000000002,
        "GPLc": 0.000995,
        "E10": 0.002039,
        "SP98": 0.002149
      },
      "maj_gouv": {
        "Gazole": "2026-05-15 06:31:39",
        "GPLc": "2026-03-02 10:58:20",
        "E10": "2026-05-13 09:12:58",
        "SP98": "2026-05-15 06:31:39"
      }
    },
    {
      "id": "49610002",
      "lat": 47.4034397,
      "lon": -0.527389,
      "cp": "49610",
      "ville": "Mûrs-Erigné",
      "prix": {
        "Gazole": 0.00209,
        "SP95": 0.00199,
        "SP98": 0.00199
      },
      "maj_gouv": {
        "Gazole": "2026-05-15 07:16:34",
        "SP95": "2026-05-15 07:16:34",
        "SP98": "2026-05-15 07:16:34"
      }
    },
    {
      "id": "49510001",
      "lat": 47.2,
      "lon": -0.873,
      "cp": "49510",
      "ville": "JALLAIS",
      "prix": {
        "Gazole": 0.002099,
        "SP95": 0.002096,
        "SP98": 0.002113
      },
      "maj_gouv": {
        "Gazole": "2026-05-15 17:31:47",
        "SP95": "2026-05-13 10:19:04",
        "SP98": "2026-05-13 10:19:05"
      }
    },
    {
      "id": "49000002",
      "lat": 47.468,
      "lon": -0.594,
      "cp": "49000",
      "ville": "ANGERS",
      "prix": {
        "Gazole": 0.0021000000000000003,
        "SP95": 0.0020800000000000003,
        "E85": 0.0008060000000000001,
        "E10": 0.002024,
        "SP98": 0.002169
      },
      "maj_gouv": {
        "Gazole": "2026-05-15 22:39:00",
        "SP95": "2026-05-15 22:39:00",
        "E85": "2026-05-15 22:39:00",
        "E10": "2026-05-15 22:39:00",
        "SP98": "2026-05-15 22:39:00"
      }
    },
    {
      "id": "49000013",
      "lat": 47.458,
      "lon": -0.573,
      "cp": "49000",
      "ville": "ANGERS",
      "prix": {
        "Gazole": 0.00209,
        "GPLc": 0.001035,
        "E10": 0.00199
      },
      "maj_gouv": {
        "Gazole": "2026-05-17 00:01:00",
        "GPLc": "2026-05-17 00:01:00",
        "E10": "2026-05-17 00:01:00"
      }
    },
    {
      "id": "49630004",
      "lat": 47.456,
      "lon": -0.274,
      "cp": "49630",
      "ville": "MAZé",
      "prix": {
        "Gazole": 0.002079,
        "E85": 0.000829,
        "E10": 0.002039,
        "SP98": 0.002129
      },
      "maj_gouv": {
        "Gazole": "2026-05-15 08:56:10",
        "E85": "2026-04-23 08:39:51",
        "E10": "2026-05-16 08:53:09",
        "SP98": "2026-05-14 08:42:13"
      }
    },
    {
      "id": "49430001",
      "lat": 47.66238,
      "lon": -0.24573,
      "cp": "49430",
      "ville": "DURTAL",
      "prix": {
        "Gazole": 0.0021190000000000002,
        "E85": 0.0007790000000000001,
        "GPLc": 0.0011519999999999998,
        "E10": 0.002099,
        "SP98": 0.002169
      },
      "maj_gouv": {
        "Gazole": "2026-05-15 08:27:46",
        "E85": "2026-05-15 08:27:46",
        "GPLc": "2026-05-04 08:19:38",
        "E10": "2026-05-15 08:27:46",
        "SP98": "2026-05-15 08:27:46"
      }
    },
    {
      "id": "49600001",
      "lat": 47.211,
      "lon": -0.984,
      "cp": "49600",
      "ville": "BEAUPRéAU",
      "prix": {
        "Gazole": 0.002099,
        "E85": 0.000799,
        "GPLc": 0.000995,
        "E10": 0.002069,
        "SP98": 0.002099
      },
      "maj_gouv": {
        "Gazole": "2026-05-13 08:45:00",
        "E85": "2026-04-22 11:23:03",
        "GPLc": "2026-04-23 11:45:29",
        "E10": "2026-05-15 14:42:03",
        "SP98": "2026-05-13 08:45:00"
      }
    },
    {
      "id": "49630003",
      "lat": 47.463,
      "lon": -0.29,
      "cp": "49630",
      "ville": "MAZé",
      "prix": {
        "Gazole": 0.00209
      },
      "maj_gouv": {
        "Gazole": "2026-05-14 00:01:00"
      }
    },
    {
      "id": "49700003",
      "lat": 47.196,
      "lon": -0.265,
      "cp": "49700",
      "ville": "DOUÉ LA FONTAINE",
      "prix": {
        "Gazole": 0.0021190000000000002,
        "E85": 0.000819,
        "E10": 0.002029,
        "SP98": 0.002129
      },
      "maj_gouv": {
        "Gazole": "2026-05-15 08:53:12",
        "E85": "2026-05-15 08:53:12",
        "E10": "2026-05-15 08:53:12",
        "SP98": "2026-05-15 08:53:12"
      }
    },
    {
      "id": "49500002",
      "lat": 47.68,
      "lon": -0.878,
      "cp": "49500",
      "ville": "Sainte-Gemmes-d'Andigné",
      "prix": {
        "Gazole": 0.002049,
        "E10": 0.002039,
        "SP98": 0.0021190000000000002
      },
      "maj_gouv": {
        "Gazole": "2026-05-16 08:30:00",
        "E10": "2026-05-15 08:30:00",
        "SP98": "2026-05-15 08:30:00"
      }
    },
    {
      "id": "49350001",
      "lat": 47.334,
      "lon": -0.232,
      "cp": "49350",
      "ville": "GENNES VAL DE LOIRE",
      "prix": {
        "Gazole": 0.002199,
        "E10": 0.002069,
        "SP98": 0.002129
      },
      "maj_gouv": {
        "Gazole": "2026-05-11 17:42:14",
        "E10": "2026-05-05 08:29:04",
        "SP98": "2026-05-05 08:29:04"
      }
    },
    {
      "id": "49300015",
      "lat": 47.063302520743,
      "lon": -0.86637975752196,
      "cp": "49300",
      "ville": "CHOLET",
      "prix": {
        "Gazole": 0.00209,
        "E10": 0.00199
      },
      "maj_gouv": {
        "Gazole": "2026-05-17 00:01:00",
        "E10": "2026-05-17 00:01:00"
      }
    },
    {
      "id": "49620001",
      "lat": 47.349,
      "lon": -0.859,
      "cp": "49620",
      "ville": "La Pommeraye",
      "prix": {
        "Gazole": 0.002069,
        "SP95": 0.002089,
        "SP98": 0.002129
      },
      "maj_gouv": {
        "Gazole": "2026-05-13 07:30:30",
        "SP95": "2026-05-06 08:45:16",
        "SP98": "2026-05-06 08:45:16"
      }
    },
    {
      "id": "49450006",
      "lat": 47.121,
      "lon": -0.984,
      "cp": "49450",
      "ville": "Saint-Macaire-en-Mauges",
      "prix": {
        "Gazole": 0.00209
      },
      "maj_gouv": {
        "Gazole": "2026-05-14 09:53:30"
      }
    },
    {
      "id": "49003001",
      "lat": 47.489,
      "lon": -0.544,
      "cp": "49100",
      "ville": "ANGERS",
      "prix": {
        "Gazole": 0.0021000000000000003,
        "GPLc": 0.001035,
        "E10": 0.002025,
        "SP98": 0.002169
      },
      "maj_gouv": {
        "Gazole": "2026-05-15 08:12:37",
        "GPLc": "2026-04-28 08:08:54",
        "E10": "2026-05-15 08:12:37",
        "SP98": "2026-05-15 08:12:37"
      }
    },
    {
      "id": "49000011",
      "lat": 47.461,
      "lon": -0.616,
      "cp": "49000",
      "ville": "ANGERS",
      "prix": {
        "Gazole": 0.0020800000000000003,
        "E85": 0.000798,
        "E10": 0.0020150000000000003
      },
      "maj_gouv": {
        "Gazole": "2026-05-13 10:56:51",
        "E85": "2026-05-14 10:02:12",
        "E10": "2026-05-13 10:56:51"
      }
    },
    {
      "id": "49122001",
      "lat": 47.143,
      "lon": -0.893,
      "cp": "49122",
      "ville": "LE MAY-SUR-ÈVRE",
      "prix": {
        "Gazole": 0.002089,
        "E85": 0.0008179999999999999,
        "E10": 0.002009,
        "SP98": 0.002118
      },
      "maj_gouv": {
        "Gazole": "2026-05-15 10:02:55",
        "E85": "2026-04-17 08:37:53",
        "E10": "2026-05-15 10:02:56",
        "SP98": "2026-05-15 10:02:56"
      }
    },
    {
      "id": "49450003",
      "lat": 47.096,
      "lon": -1.005,
      "cp": "49450",
      "ville": "Saint-André-de-la-Marche",
      "prix": {
        "Gazole": 0.002079,
        "E85": 0.0008179999999999999,
        "E10": 0.002008,
        "SP98": 0.002118
      },
      "maj_gouv": {
        "Gazole": "2026-05-15 09:10:13",
        "E85": "2026-04-16 08:37:09",
        "E10": "2026-05-16 07:28:58",
        "SP98": "2026-05-15 09:10:13"
      }
    },
    {
      "id": "49100002",
      "lat": 47.481405992726,
      "lon": -0.57363141293442,
      "cp": "49100",
      "ville": "ANGERS",
      "prix": {
        "Gazole": 0.00213,
        "E85": 0.00078,
        "E10": 0.002062,
        "SP98": 0.002089
      },
      "maj_gouv": {
        "Gazole": "2026-05-12 09:07:40",
        "E85": "2026-05-12 09:07:40",
        "E10": "2026-05-16 07:12:12",
        "SP98": "2026-05-16 07:12:12"
      }
    },
    {
      "id": "49320003",
      "lat": 47.341,
      "lon": -0.432,
      "cp": "49320",
      "ville": "Brissac-Quincé",
      "prix": {
        "Gazole": 0.002085,
        "E10": 0.002049,
        "SP98": 0.002129
      },
      "maj_gouv": {
        "Gazole": "2026-05-15 09:18:53",
        "E10": "2026-05-15 09:18:53",
        "SP98": "2026-05-15 09:18:53"
      }
    },
    {
      "id": "49280001",
      "lat": 47.06,
      "lon": -0.941,
      "cp": "49280",
      "ville": "LA SéGUINIèRE",
      "prix": {
        "Gazole": 0.00209,
        "E10": 0.00199
      },
      "maj_gouv": {
        "Gazole": "2026-05-15 07:47:38",
        "E10": "2026-05-15 07:47:38"
      }
    },
    {
      "id": "49220003",
      "lat": 47.618,
      "lon": -0.721,
      "cp": "49220",
      "ville": "LE LION D ANGERS",
      "prix": {
        "Gazole": 0.00209,
        "E10": 0.00199
      },
      "maj_gouv": {
        "Gazole": "2026-05-15 10:56:46",
        "E10": "2026-05-15 10:56:46"
      }
    },
    {
      "id": "49000016",
      "lat": 47.469,
      "lon": -0.525,
      "cp": "49100",
      "ville": "Angers",
      "prix": {
        "Gazole": 0.002075,
        "GPLc": 0.001035,
        "E10": 0.002029,
        "SP98": 0.002099
      },
      "maj_gouv": {
        "Gazole": "2026-05-15 10:26:07",
        "GPLc": "2026-04-29 09:50:35",
        "E10": "2026-05-15 10:28:51",
        "SP98": "2026-05-15 10:28:51"
      }
    },
    {
      "id": "49420002",
      "lat": 47.742,
      "lon": -1.168,
      "cp": "49420",
      "ville": "POUANCé",
      "prix": {
        "Gazole": 0.00209,
        "E10": 0.00199,
        "SP98": 0.00199
      },
      "maj_gouv": {
        "Gazole": "2026-05-15 09:18:25",
        "E10": "2026-05-15 09:18:25",
        "SP98": "2026-05-15 09:18:25"
      }
    },
    {
      "id": "49070006",
      "lat": 47.466,
      "lon": -0.674,
      "cp": "49070",
      "ville": "ST LEGER DE LINIERES",
      "prix": {
        "Gazole": 0.002075,
        "E10": 0.0020350000000000004,
        "SP98": 0.00209
      },
      "maj_gouv": {
        "Gazole": "2026-05-15 07:55:36",
        "E10": "2026-05-14 23:00:00",
        "SP98": "2026-05-14 23:00:00"
      }
    },
    {
      "id": "49570001",
      "lat": 47.39,
      "lon": -0.862,
      "cp": "49570",
      "ville": "MONTJEAN SUR LOIRE",
      "prix": {
        "Gazole": 0.00209,
        "E10": 0.00199,
        "SP98": 0.00199
      },
      "maj_gouv": {
        "Gazole": "2026-05-14 00:01:00",
        "E10": "2026-05-12 16:42:53",
        "SP98": "2026-05-16 10:49:09"
      }
    },
    {
      "id": "49300009",
      "lat": 47.054,
      "lon": -0.875,
      "cp": "49300",
      "ville": "CHOLET",
      "prix": {
        "Gazole": 0.002079,
        "SP95": 0.002069,
        "SP98": 0.002109
      },
      "maj_gouv": {
        "Gazole": "2026-05-13 08:19:00",
        "SP95": "2026-05-15 08:49:22",
        "SP98": "2026-05-15 08:49:22"
      }
    },
    {
      "id": "49330001",
      "lat": 47.68082732668999,
      "lon": -0.49924631937853997,
      "cp": "49330",
      "ville": "Châteauneuf-sur-Sarthe",
      "prix": {
        "Gazole": 0.002099,
        "SP95": 0.002099,
        "E10": 0.002063,
        "SP98": 0.002129
      },
      "maj_gouv": {
        "Gazole": "2026-05-16 18:04:41",
        "SP95": "2026-05-15 09:04:46",
        "E10": "2026-05-16 18:04:41",
        "SP98": "2026-05-15 09:04:47"
      }
    },
    {
      "id": "49270001",
      "lat": 47.333,
      "lon": -1.261,
      "cp": "49270",
      "ville": "CHAMPTOCEAUX",
      "prix": {
        "Gazole": 0.0022589999999999997,
        "SP95": 0.002145,
        "SP98": 0.002189
      },
      "maj_gouv": {
        "Gazole": "2026-05-07 20:04:40",
        "SP95": "2026-05-07 20:04:40",
        "SP98": "2026-05-07 20:04:40"
      }
    },
    {
      "id": "49230003",
      "lat": 47.118181477917005,
      "lon": -1.0997591906432,
      "cp": "49230",
      "ville": "SEVREMOINE",
      "prix": {
        "Gazole": 0.002109,
        "E85": 0.000829,
        "E10": 0.002029
      },
      "maj_gouv": {
        "Gazole": "2026-05-13 10:32:15",
        "E85": "2026-04-27 10:55:57",
        "E10": "2026-05-13 10:32:15"
      }
    },
    {
      "id": "49160001",
      "lat": 47.371,
      "lon": -0.098,
      "cp": "49160",
      "ville": "LONGUé-JUMELLES",
      "prix": {
        "Gazole": 0.002079,
        "E85": 0.000819,
        "GPLc": 0.001119,
        "E10": 0.002049,
        "SP98": 0.002129
      },
      "maj_gouv": {
        "Gazole": "2026-05-15 10:19:02",
        "E85": "2026-05-15 10:19:02",
        "GPLc": "2026-05-15 10:19:02",
        "E10": "2026-05-15 10:19:03",
        "SP98": "2026-05-15 10:19:03"
      }
    },
    {
      "id": "49700002",
      "lat": 47.197,
      "lon": -0.275,
      "cp": "49700",
      "ville": "DOUé-LA-FONTAINE",
      "prix": {},
      "maj_gouv": {}
    },
    {
      "id": "49480001",
      "lat": 47.514,
      "lon": -0.473,
      "cp": "49480",
      "ville": "Saint-Sylvain-d'Anjou",
      "prix": {
        "Gazole": 0.002079,
        "E10": 0.002049,
        "SP98": 0.0021190000000000002
      },
      "maj_gouv": {
        "Gazole": "2026-05-15 08:42:49",
        "E10": "2026-05-16 09:41:09",
        "SP98": "2026-05-14 08:34:07"
      }
    },
    {
      "id": "49680001",
      "lat": 47.311,
      "lon": -0.021,
      "cp": "49680",
      "ville": "NEUILLE",
      "prix": {
        "Gazole": 0.0022389999999999997,
        "E10": 0.002025
      },
      "maj_gouv": {
        "Gazole": "2026-05-13 08:56:06",
        "E10": "2026-04-17 09:46:12"
      }
    },
    {
      "id": "49160003",
      "lat": 47.418894168087995,
      "lon": -0.13452322125889998,
      "cp": "49160",
      "ville": "Longué-Jumelles",
      "prix": {
        "Gazole": 0.002494,
        "E10": 0.002504,
        "SP98": 0.002654
      },
      "maj_gouv": {
        "Gazole": "2026-05-16 09:30:00",
        "E10": "2026-05-16 09:30:00",
        "SP98": "2026-05-16 09:30:00"
      }
    },
    {
      "id": "49610001",
      "lat": 47.397,
      "lon": -0.529,
      "cp": "49610",
      "ville": "MûRS-ERIGNé",
      "prix": {
        "Gazole": 0.002075,
        "E85": 0.000749,
        "E10": 0.002029,
        "SP98": 0.002099
      },
      "maj_gouv": {
        "Gazole": "2026-05-13 10:35:19",
        "E85": "2026-04-20 09:45:34",
        "E10": "2026-05-15 08:34:55",
        "SP98": "2026-05-14 08:27:28"
      }
    },
    {
      "id": "49220004",
      "lat": 47.59855161734,
      "lon": -0.83399382209015,
      "cp": "49220",
      "ville": "VERN D ANJOU",
      "prix": {
        "Gazole": 0.00225,
        "SP95": 0.00199
      },
      "maj_gouv": {
        "Gazole": "2026-04-20 11:16:14",
        "SP95": "2026-04-20 11:16:14"
      }
    }
  ]
}