{
  "departement": "56",
  "date": "2026-05-01",
  "stations": [
    {
      "id": "56580001",
      "lat": 48.061,
      "lon": -2.69,
      "cp": "56580",
      "ville": "Bréhan",
      "prix": {
        "Gazole": 0.0022389999999999997,
        "SP95": 0.002029,
        "SP98": 0.002049
      },
      "maj_gouv": {
        "Gazole": "2026-04-29 05:38:20",
        "SP95": "2026-04-29 05:38:20",
        "SP98": "2026-04-29 05:38:20"
      }
    },
    {
      "id": "56530001",
      "lat": 47.79,
      "lon": -3.421,
      "cp": "56530",
      "ville": "Quéven",
      "prix": {
        "Gazole": 0.002165,
        "E10": 0.0019890000000000003,
        "SP98": 0.002029
      },
      "maj_gouv": {
        "Gazole": "2026-04-29 19:56:17",
        "E10": "2026-04-29 10:11:56",
        "SP98": "2026-04-29 10:11:56"
      }
    },
    {
      "id": "56550002",
      "lat": 47.676,
      "lon": -3.197,
      "cp": "56550",
      "ville": "Belz",
      "prix": {
        "Gazole": 0.00225,
        "E10": 0.00199,
        "SP98": 0.00199
      },
      "maj_gouv": {
        "Gazole": "2026-04-30 05:41:58",
        "E10": "2026-04-30 05:41:58",
        "SP98": "2026-04-30 05:41:58"
      }
    },
    {
      "id": "56200004",
      "lat": 47.778788439912006,
      "lon": -2.1260273830208,
      "cp": "56200",
      "ville": "LA GACILLY",
      "prix": {
        "Gazole": 0.002176,
        "E10": 0.001955,
        "SP98": 0.002074
      },
      "maj_gouv": {
        "Gazole": "2026-04-29 15:11:03",
        "E10": "2026-04-29 15:11:03",
        "SP98": "2026-04-21 08:47:23"
      }
    },
    {
      "id": "56500005",
      "lat": 47.90027,
      "lon": -2.83932,
      "cp": "56500",
      "ville": "Moréac",
      "prix": {
        "Gazole": 0.002182,
        "SP95": 0.00204,
        "E10": 0.00199
      },
      "maj_gouv": {
        "Gazole": "2026-04-30 09:04:06",
        "SP95": "2026-04-28 14:04:50",
        "E10": "2026-04-30 09:04:07"
      }
    },
    {
      "id": "56150001",
      "lat": 47.877,
      "lon": -3.02,
      "cp": "56150",
      "ville": "BAUD",
      "prix": {
        "Gazole": 0.002189,
        "E10": 0.0019890000000000003,
        "SP98": 0.002059
      },
      "maj_gouv": {
        "Gazole": "2026-04-30 09:57:21",
        "E10": "2026-04-30 09:57:22",
        "SP98": "2026-04-30 09:57:22"
      }
    },
    {
      "id": "56450004",
      "lat": 47.576,
      "lon": -2.628,
      "cp": "56450",
      "ville": "SURZUR",
      "prix": {
        "Gazole": 0.002179,
        "SP95": 0.002019,
        "E10": 0.0019690000000000003
      },
      "maj_gouv": {
        "Gazole": "2026-04-29 07:17:37",
        "SP95": "2026-04-29 07:17:37",
        "E10": "2026-04-29 07:17:37"
      }
    },
    {
      "id": "56430002",
      "lat": 48.07774,
      "lon": -2.27185,
      "cp": "56430",
      "ville": "MAURON",
      "prix": {
        "Gazole": 0.00225,
        "E10": 0.00199
      },
      "maj_gouv": {
        "Gazole": "2026-04-30 06:34:04",
        "E10": "2026-04-30 06:34:05"
      }
    },
    {
      "id": "56300009",
      "lat": 48.081,
      "lon": -2.967,
      "cp": "56300",
      "ville": "Pontivy",
      "prix": {
        "Gazole": 0.0021880000000000003,
        "SP95": 0.001999,
        "E10": 0.0019890000000000003
      },
      "maj_gouv": {
        "Gazole": "2026-04-29 09:04:48",
        "SP95": "2026-04-28 08:36:34",
        "E10": "2026-04-27 08:53:29"
      }
    },
    {
      "id": "56760003",
      "lat": 47.482,
      "lon": -2.471,
      "cp": "56760",
      "ville": "Pénestin",
      "prix": {
        "Gazole": 0.002159,
        "SP95": 0.002079,
        "SP98": 0.0021190000000000002
      },
      "maj_gouv": {
        "Gazole": "2026-04-28 14:37:32",
        "SP95": "2026-04-28 14:37:32",
        "SP98": "2026-04-28 14:37:33"
      }
    },
    {
      "id": "56910001",
      "lat": 47.814,
      "lon": -2.131,
      "cp": "56910",
      "ville": "Carentoir",
      "prix": {
        "Gazole": 0.0021379999999999997,
        "E85": 0.000761,
        "E10": 0.001999,
        "SP98": 0.0020729999999999998
      },
      "maj_gouv": {
        "Gazole": "2026-04-30 08:03:16",
        "E85": "2026-04-30 08:03:17",
        "E10": "2026-04-30 08:03:17",
        "SP98": "2026-04-30 08:03:17"
      }
    },
    {
      "id": "56140002",
      "lat": 47.805351384800005,
      "lon": -2.4022643160099997,
      "cp": "56140",
      "ville": "SAINT-MARCEL",
      "prix": {
        "Gazole": 0.002169,
        "SP95": 0.002059,
        "SP98": 0.002079
      },
      "maj_gouv": {
        "Gazole": "2026-04-30 09:29:42",
        "SP95": "2026-04-30 09:29:42",
        "SP98": "2026-04-30 09:29:42"
      }
    },
    {
      "id": "56250003",
      "lat": 47.675,
      "lon": -2.569,
      "cp": "56250",
      "ville": "SULNIAC",
      "prix": {
        "Gazole": 0.002179,
        "E10": 0.0019790000000000003,
        "SP98": 0.002099
      },
      "maj_gouv": {
        "Gazole": "2026-04-30 06:24:24",
        "E10": "2026-04-27 14:05:00",
        "SP98": "2026-04-27 14:05:00"
      }
    },
    {
      "id": "56607001",
      "lat": 47.775,
      "lon": -3.346,
      "cp": "56600",
      "ville": "LANESTER",
      "prix": {
        "Gazole": 0.0021920000000000004,
        "GPLc": 0.0010580000000000001,
        "E10": 0.001972,
        "SP98": 0.00209
      },
      "maj_gouv": {
        "Gazole": "2026-04-29 08:32:47",
        "GPLc": "2026-04-25 08:43:44",
        "E10": "2026-04-29 08:32:47",
        "SP98": "2026-04-29 08:32:48"
      }
    },
    {
      "id": "56340004",
      "lat": 47.580883557816,
      "lon": -3.0815108387551997,
      "cp": "56340",
      "ville": "Carnac",
      "prix": {
        "Gazole": 0.00216,
        "E10": 0.001992,
        "SP98": 0.002134
      },
      "maj_gouv": {
        "Gazole": "2026-04-30 08:30:57",
        "E10": "2026-04-30 08:30:58",
        "SP98": "2026-04-30 08:30:58"
      }
    },
    {
      "id": "56890004",
      "lat": 47.681471359867,
      "lon": -2.7373650772103,
      "cp": "56890",
      "ville": "SAINT-AVé",
      "prix": {
        "Gazole": 0.002179,
        "E10": 0.002019,
        "SP98": 0.002095
      },
      "maj_gouv": {
        "Gazole": "2026-04-30 08:11:13",
        "E10": "2026-04-30 08:11:13",
        "SP98": "2026-04-30 08:11:14"
      }
    },
    {
      "id": "56400007",
      "lat": 47.663,
      "lon": -3.006,
      "cp": "56400",
      "ville": "AURAY",
      "prix": {
        "Gazole": 0.0021520000000000003,
        "SP95": 0.0020139999999999997,
        "SP98": 0.0020859999999999997
      },
      "maj_gouv": {
        "Gazole": "2026-04-29 09:45:55",
        "SP95": "2026-04-29 09:45:55",
        "SP98": "2026-04-28 09:38:30"
      }
    },
    {
      "id": "56120006",
      "lat": 47.961927701655,
      "lon": -2.5451919803739,
      "cp": "56120",
      "ville": "Josselin",
      "prix": {
        "Gazole": 0.002179,
        "SP95": 0.002019,
        "E85": 0.000749,
        "E10": 0.001999
      },
      "maj_gouv": {
        "Gazole": "2026-04-30 10:32:27",
        "SP95": "2026-04-29 08:30:00",
        "E85": "2026-04-27 09:42:12",
        "E10": "2026-04-30 10:35:48"
      }
    },
    {
      "id": "56260001",
      "lat": 47.728,
      "lon": -3.382,
      "cp": "56260",
      "ville": "Larmor-Plage",
      "prix": {
        "Gazole": 0.002159,
        "SP95": 0.002029,
        "SP98": 0.002069
      },
      "maj_gouv": {
        "Gazole": "2026-04-28 08:12:21",
        "SP95": "2026-04-29 08:16:11",
        "SP98": "2026-04-29 08:16:11"
      }
    },
    {
      "id": "56650001",
      "lat": 47.826,
      "lon": -3.252,
      "cp": "56650",
      "ville": "INZINZAC-LOCHRIST",
      "prix": {
        "Gazole": 0.002189,
        "E10": 0.001999,
        "SP98": 0.002129
      },
      "maj_gouv": {
        "Gazole": "2026-04-30 09:43:14",
        "E10": "2026-04-30 09:43:14",
        "SP98": "2026-04-30 09:43:14"
      }
    },
    {
      "id": "56380003",
      "lat": 47.90371150000001,
      "lon": -2.1218034644582002,
      "cp": "56380",
      "ville": "GUER",
      "prix": {
        "Gazole": 0.002155,
        "E85": 0.0008359999999999999,
        "E10": 0.0019950000000000002,
        "SP98": 0.0021309999999999996
      },
      "maj_gouv": {
        "Gazole": "2026-04-27 08:20:46",
        "E85": "2026-04-30 10:22:54",
        "E10": "2026-04-30 10:22:55",
        "SP98": "2026-04-30 10:22:55"
      }
    },
    {
      "id": "56380002",
      "lat": 47.905,
      "lon": -2.113,
      "cp": "56380",
      "ville": "GUER",
      "prix": {
        "Gazole": 0.002155,
        "SP95": 0.002019,
        "E10": 0.0019790000000000003,
        "SP98": 0.002112
      },
      "maj_gouv": {
        "Gazole": "2026-04-27 09:59:00",
        "SP95": "2026-04-30 09:00:00",
        "E10": "2026-04-30 09:00:00",
        "SP98": "2026-04-30 09:00:00"
      }
    },
    {
      "id": "56310001",
      "lat": 47.961,
      "lon": -3.179,
      "cp": "56310",
      "ville": "BUBRY",
      "prix": {
        "Gazole": 0.002149,
        "SP95": 0.002029,
        "E10": 0.0019690000000000003
      },
      "maj_gouv": {
        "Gazole": "2026-04-30 06:37:34",
        "SP95": "2026-04-30 06:37:34",
        "E10": "2026-04-30 06:37:34"
      }
    },
    {
      "id": "56000009",
      "lat": 47.66113,
      "lon": -2.75507,
      "cp": "56000",
      "ville": "VANNES",
      "prix": {
        "Gazole": 0.00209,
        "SP95": 0.0016359999999999999,
        "E85": 0.000809,
        "E10": 0.00199,
        "SP98": 0.00199
      },
      "maj_gouv": {
        "Gazole": "2026-05-01 03:20:00",
        "SP95": "2025-09-01 15:42:47",
        "E85": "2026-05-01 03:20:00",
        "E10": "2026-05-01 03:20:00",
        "SP98": "2026-05-01 03:20:00"
      }
    },
    {
      "id": "56110001",
      "lat": 48.14145,
      "lon": -3.61998,
      "cp": "56110",
      "ville": "Gourin",
      "prix": {
        "Gazole": 0.002154,
        "SP95": 0.0019950000000000002,
        "SP98": 0.002027
      },
      "maj_gouv": {
        "Gazole": "2026-04-28 17:50:45",
        "SP95": "2026-04-28 17:50:45",
        "SP98": "2026-04-28 17:50:45"
      }
    },
    {
      "id": "56880001",
      "lat": 47.65958,
      "lon": -2.8692,
      "cp": "56880",
      "ville": "Ploeren",
      "prix": {
        "Gazole": 0.002169,
        "E10": 0.0019890000000000003,
        "SP98": 0.002089
      },
      "maj_gouv": {
        "Gazole": "2026-04-30 11:43:23",
        "E10": "2026-04-28 08:32:14",
        "SP98": "2026-04-30 11:43:23"
      }
    },
    {
      "id": "56120004",
      "lat": 47.964,
      "lon": -2.545,
      "cp": "56120",
      "ville": "JOSSELIN",
      "prix": {
        "Gazole": 0.002179,
        "SP95": 0.002019,
        "GPLc": 0.0010689999999999999,
        "E10": 0.001999,
        "SP98": 0.002059
      },
      "maj_gouv": {
        "Gazole": "2026-04-30 10:32:09",
        "SP95": "2026-04-29 08:30:00",
        "GPLc": "2026-04-14 08:17:37",
        "E10": "2026-04-30 10:36:31",
        "SP98": "2026-04-22 11:58:03"
      }
    },
    {
      "id": "56006001",
      "lat": 47.66,
      "lon": -2.792,
      "cp": "56000",
      "ville": "VANNES",
      "prix": {
        "Gazole": 0.002146,
        "SP95": 0.002079,
        "E85": 0.000705,
        "GPLc": 0.0010689999999999999,
        "E10": 0.001988,
        "SP98": 0.00214
      },
      "maj_gouv": {
        "Gazole": "2026-04-30 22:48:00",
        "SP95": "2026-04-30 22:48:00",
        "E85": "2026-04-30 22:48:00",
        "GPLc": "2026-04-30 22:48:00",
        "E10": "2026-04-30 22:48:00",
        "SP98": "2026-04-30 22:48:00"
      }
    },
    {
      "id": "56300004",
      "lat": 48.057,
      "lon": -2.963,
      "cp": "56300",
      "ville": "Pontivy",
      "prix": {
        "Gazole": 0.00225,
        "SP95": 0.00199,
        "GPLc": 0.00199
      },
      "maj_gouv": {
        "Gazole": "2026-04-29 20:07:15",
        "SP95": "2026-04-29 20:07:15",
        "GPLc": "2026-04-29 20:07:15"
      }
    },
    {
      "id": "56100007",
      "lat": 47.764,
      "lon": -3.396,
      "cp": "56100",
      "ville": "LORIENT",
      "prix": {
        "Gazole": 0.002179,
        "SP95": 0.002,
        "E85": 0.000812,
        "GPLc": 0.001067,
        "E10": 0.001963,
        "SP98": 0.002053
      },
      "maj_gouv": {
        "Gazole": "2026-04-30 09:33:06",
        "SP95": "2026-04-30 09:33:07",
        "E85": "2026-04-30 09:33:07",
        "GPLc": "2026-04-30 09:33:07",
        "E10": "2026-04-30 09:33:07",
        "SP98": "2026-04-30 09:33:07"
      }
    },
    {
      "id": "56400002",
      "lat": 47.664,
      "lon": -3.003,
      "cp": "56400",
      "ville": "AURAY",
      "prix": {
        "Gazole": 0.002159,
        "E85": 0.000799,
        "GPLc": 0.000989,
        "E10": 0.0019950000000000002,
        "SP98": 0.0020859999999999997
      },
      "maj_gouv": {
        "Gazole": "2026-04-29 12:27:09",
        "E85": "2026-04-14 10:55:20",
        "GPLc": "2026-04-09 16:01:13",
        "E10": "2026-04-29 12:27:09",
        "SP98": "2026-04-28 10:35:43"
      }
    },
    {
      "id": "56700003",
      "lat": 47.765,
      "lon": -3.302,
      "cp": "56700",
      "ville": "Kervignac",
      "prix": {
        "Gazole": 0.002222,
        "E10": 0.00199,
        "SP98": 0.00199
      },
      "maj_gouv": {
        "Gazole": "2026-04-27 09:41:16",
        "E10": "2026-04-27 09:41:16",
        "SP98": "2026-04-27 09:41:16"
      }
    },
    {
      "id": "56480001",
      "lat": 48.127,
      "lon": -3.056,
      "cp": "56480",
      "ville": "CLEGUEREC",
      "prix": {
        "Gazole": 0.0023,
        "SP95": 0.0025299999999999997
      },
      "maj_gouv": {
        "Gazole": "2026-04-30 08:49:33",
        "SP95": "2026-04-01 17:23:54"
      }
    },
    {
      "id": "56230003",
      "lat": 47.6821,
      "lon": -2.44896,
      "cp": "56230",
      "ville": "QUESTEMBERT",
      "prix": {
        "Gazole": 0.002179,
        "E85": 0.000819,
        "E10": 0.0019890000000000003,
        "SP98": 0.002099
      },
      "maj_gouv": {
        "Gazole": "2026-04-28 12:45:48",
        "E85": "2026-04-28 12:45:48",
        "E10": "2026-04-30 05:53:36",
        "SP98": "2026-04-28 12:45:48"
      }
    },
    {
      "id": "56700006",
      "lat": 47.736,
      "lon": -3.232,
      "cp": "56700",
      "ville": "Merlevenez",
      "prix": {
        "Gazole": 0.002166,
        "E85": 0.000819,
        "E10": 0.0019479999999999999,
        "SP98": 0.002049
      },
      "maj_gouv": {
        "Gazole": "2026-04-29 08:23:17",
        "E85": "2026-04-29 08:23:17",
        "E10": "2026-04-29 08:23:17",
        "SP98": "2026-04-29 08:23:17"
      }
    },
    {
      "id": "56520005",
      "lat": 47.821976600372,
      "lon": -3.46871357349,
      "cp": "56520",
      "ville": "GUIDEL",
      "prix": {
        "Gazole": 0.00209,
        "E85": 0.000824,
        "E10": 0.00199,
        "SP98": 0.00199
      },
      "maj_gouv": {
        "Gazole": "2026-05-01 03:20:00",
        "E85": "2026-05-01 03:20:00",
        "E10": "2026-05-01 03:20:00",
        "SP98": "2026-05-01 03:20:00"
      }
    },
    {
      "id": "56450007",
      "lat": 47.629,
      "lon": -2.655,
      "cp": "56450",
      "ville": "THEIX-NOYALO",
      "prix": {
        "Gazole": 0.002149,
        "SP95": 0.002019,
        "SP98": 0.002049
      },
      "maj_gouv": {
        "Gazole": "2026-04-29 10:09:00",
        "SP95": "2026-04-29 10:09:01",
        "SP98": "2026-04-29 10:09:01"
      }
    },
    {
      "id": "56680001",
      "lat": 47.696,
      "lon": -3.245,
      "cp": "56680",
      "ville": "PLOUHINEC",
      "prix": {
        "Gazole": 0.002159,
        "E85": 0.0008179999999999999,
        "E10": 0.0019590000000000002
      },
      "maj_gouv": {
        "Gazole": "2026-04-30 11:57:43",
        "E85": "2026-04-22 09:13:20",
        "E10": "2026-04-29 11:47:03"
      }
    },
    {
      "id": "56640001",
      "lat": 47.542,
      "lon": -2.879,
      "cp": "56640",
      "ville": "Arzon",
      "prix": {
        "Gazole": 0.002159,
        "SP95": 0.001999,
        "E10": 0.0019690000000000003,
        "SP98": 0.002049
      },
      "maj_gouv": {
        "Gazole": "2026-04-28 09:59:06",
        "SP95": "2026-04-13 09:17:55",
        "E10": "2026-04-28 09:59:06",
        "SP98": "2026-04-28 09:59:06"
      }
    },
    {
      "id": "56230005",
      "lat": 47.662,
      "lon": -2.459,
      "cp": "56230",
      "ville": "QUESTEMBERT",
      "prix": {
        "Gazole": 0.002199,
        "SP95": 0.001999,
        "SP98": 0.002099
      },
      "maj_gouv": {
        "Gazole": "2026-04-20 09:17:57",
        "SP95": "2026-04-09 11:12:18",
        "SP98": "2026-04-09 11:12:18"
      }
    },
    {
      "id": "56220003",
      "lat": 47.678,
      "lon": -2.295,
      "cp": "56220",
      "ville": "Malansac",
      "prix": {
        "Gazole": 0.0021680000000000002,
        "E85": 0.000754,
        "E10": 0.00198,
        "SP98": 0.002049
      },
      "maj_gouv": {
        "Gazole": "2026-04-29 09:20:51",
        "E85": "2026-04-29 09:20:51",
        "E10": "2026-04-30 08:49:09",
        "SP98": "2026-04-30 08:49:09"
      }
    },
    {
      "id": "56500004",
      "lat": 47.99,
      "lon": -2.708,
      "cp": "56500",
      "ville": "RéGUINY",
      "prix": {
        "Gazole": 0.002179,
        "E10": 0.0019590000000000002,
        "SP98": 0.002059
      },
      "maj_gouv": {
        "Gazole": "2026-04-29 08:29:01",
        "E10": "2026-04-29 08:29:01",
        "SP98": "2026-04-29 08:29:01"
      }
    },
    {
      "id": "56360004",
      "lat": 47.33923,
      "lon": -3.17575,
      "cp": "56360",
      "ville": "Le Palais",
      "prix": {
        "Gazole": 0.002542,
        "SP95": 0.0022719999999999997
      },
      "maj_gouv": {
        "Gazole": "2026-04-22 13:37:24",
        "SP95": "2026-04-21 08:42:20"
      }
    },
    {
      "id": "56800001",
      "lat": 47.931,
      "lon": -2.381,
      "cp": "56800",
      "ville": "Ploërmel",
      "prix": {
        "Gazole": 0.002179,
        "E85": 0.000739,
        "GPLc": 0.0010689999999999999,
        "E10": 0.0019890000000000003,
        "SP98": 0.002059
      },
      "maj_gouv": {
        "Gazole": "2026-04-29 09:09:21",
        "E85": "2026-04-20 10:15:42",
        "GPLc": "2026-04-10 14:11:41",
        "E10": "2026-04-28 10:19:56",
        "SP98": "2026-04-07 10:27:23"
      }
    },
    {
      "id": "56600001",
      "lat": 47.765,
      "lon": -3.348,
      "cp": "56600",
      "ville": "LANESTER",
      "prix": {
        "Gazole": 0.002155,
        "E10": 0.001955,
        "SP98": 0.002025
      },
      "maj_gouv": {
        "Gazole": "2026-04-30 05:00:00",
        "E10": "2026-04-30 05:00:00",
        "SP98": "2026-04-30 05:00:00"
      }
    },
    {
      "id": "56720001",
      "lat": 47.59785,
      "lon": -3.11074,
      "cp": "56340",
      "ville": "PLOUHARNEL",
      "prix": {
        "Gazole": 0.00209,
        "E10": 0.00199,
        "SP98": 0.00199
      },
      "maj_gouv": {
        "Gazole": "2026-04-30 18:34:41",
        "E10": "2026-04-30 18:34:41",
        "SP98": "2026-04-30 18:34:41"
      }
    },
    {
      "id": "56000006",
      "lat": 47.664,
      "lon": -2.767,
      "cp": "56000",
      "ville": "VANNES",
      "prix": {
        "Gazole": 0.002159,
        "E10": 0.001999,
        "SP98": 0.002059
      },
      "maj_gouv": {
        "Gazole": "2026-04-30 09:11:29",
        "E10": "2026-04-30 09:11:29",
        "SP98": "2026-04-27 11:11:09"
      }
    },
    {
      "id": "56320002",
      "lat": 48.03187,
      "lon": -3.49344,
      "cp": "56320",
      "ville": "LE FAOUëT",
      "prix": {
        "Gazole": 0.002159,
        "SP95": 0.002007,
        "SP98": 0.002045
      },
      "maj_gouv": {
        "Gazole": "2026-04-29 11:50:21",
        "SP95": "2026-04-29 11:50:21",
        "SP98": "2026-04-15 14:20:26"
      }
    },
    {
      "id": "56440002",
      "lat": 47.831,
      "lon": -3.158,
      "cp": "56440",
      "ville": "Languidic",
      "prix": {
        "Gazole": 0.002159,
        "E10": 0.0019450000000000001,
        "SP98": 0.0020440000000000002
      },
      "maj_gouv": {
        "Gazole": "2026-04-29 03:33:30",
        "E10": "2026-04-29 03:33:30",
        "SP98": "2026-04-29 03:33:30"
      }
    },
    {
      "id": "56520006",
      "lat": 47.8200779701,
      "lon": -3.46580898742,
      "cp": "56520",
      "ville": "GUIDEL",
      "prix": {
        "Gazole": 0.00209,
        "E85": 0.000828,
        "E10": 0.00199,
        "SP98": 0.00199
      },
      "maj_gouv": {
        "Gazole": "2026-05-01 03:20:00",
        "E85": "2026-05-01 03:20:00",
        "E10": "2026-05-01 03:20:00",
        "SP98": "2026-05-01 03:20:00"
      }
    },
    {
      "id": "56330001",
      "lat": 47.7731,
      "lon": -3.00444,
      "cp": "56330",
      "ville": "Pluvigner",
      "prix": {
        "Gazole": 0.002183,
        "E10": 0.002021,
        "SP98": 0.002094
      },
      "maj_gouv": {
        "Gazole": "2026-04-30 09:28:33",
        "E10": "2026-04-30 09:28:34",
        "SP98": "2026-04-30 09:28:34"
      }
    },
    {
      "id": "56410001",
      "lat": 47.6482150952,
      "lon": -3.1591401509,
      "cp": "56410",
      "ville": "ERDEVEN",
      "prix": {
        "Gazole": 0.002169,
        "E10": 0.001978,
        "SP98": 0.002058
      },
      "maj_gouv": {
        "Gazole": "2026-04-29 15:44:28",
        "E10": "2026-04-28 08:49:47",
        "SP98": "2026-04-28 08:49:47"
      }
    },
    {
      "id": "56460002",
      "lat": 47.824,
      "lon": -2.506,
      "cp": "56460",
      "ville": "Sérent",
      "prix": {
        "Gazole": 0.002179,
        "E10": 0.0019890000000000003,
        "SP98": 0.002079
      },
      "maj_gouv": {
        "Gazole": "2026-04-29 11:40:32",
        "E10": "2026-04-30 09:41:00",
        "SP98": "2026-04-30 09:41:01"
      }
    },
    {
      "id": "56600002",
      "lat": 47.766,
      "lon": -3.332,
      "cp": "56600",
      "ville": "LANESTER",
      "prix": {
        "Gazole": 0.002386,
        "SP95": 0.0021920000000000004,
        "E85": 0.0010249999999999999,
        "GPLc": 0.0010840000000000001,
        "SP98": 0.0022010000000000003
      },
      "maj_gouv": {
        "Gazole": "2026-04-29 07:32:00",
        "SP95": "2026-04-29 07:32:00",
        "E85": "2026-04-29 07:32:00",
        "GPLc": "2026-04-29 07:32:01",
        "SP98": "2026-04-29 07:32:01"
      }
    },
    {
      "id": "56800005",
      "lat": 47.923,
      "lon": -2.404,
      "cp": "56800",
      "ville": "Ploërmel",
      "prix": {
        "Gazole": 0.002179,
        "SP95": 0.001999,
        "E85": 0.0008179999999999999
      },
      "maj_gouv": {
        "Gazole": "2026-04-29 09:29:31",
        "SP95": "2026-04-28 14:11:37",
        "E85": "2026-04-24 08:55:12"
      }
    },
    {
      "id": "56450002",
      "lat": 47.64,
      "lon": -2.68,
      "cp": "56450",
      "ville": "THEIX",
      "prix": {
        "Gazole": 0.002319,
        "E85": 0.000955,
        "GPLc": 0.001059,
        "E10": 0.0021190000000000002,
        "SP98": 0.002199
      },
      "maj_gouv": {
        "Gazole": "2026-04-30 00:01:00",
        "E85": "2026-04-30 00:01:00",
        "GPLc": "2026-04-30 00:01:00",
        "E10": "2026-04-30 00:01:00",
        "SP98": "2026-04-30 00:01:00"
      }
    },
    {
      "id": "56770001",
      "lat": 48.144300099999995,
      "lon": -3.3905771999999996,
      "cp": "56770",
      "ville": "PLOURAY",
      "prix": {
        "Gazole": 0.0022280000000000004,
        "SP95": 0.002034
      },
      "maj_gouv": {
        "Gazole": "2026-04-24 14:24:02",
        "SP95": "2026-04-24 14:24:02"
      }
    },
    {
      "id": "56860003",
      "lat": 47.651,
      "lon": -2.723,
      "cp": "56860",
      "ville": "Séné",
      "prix": {
        "Gazole": 0.002149,
        "E85": 0.000819,
        "E10": 0.0019890000000000003,
        "SP98": 0.002029
      },
      "maj_gouv": {
        "Gazole": "2026-04-28 13:32:23",
        "E85": "2026-04-23 08:10:37",
        "E10": "2026-04-30 15:58:27",
        "SP98": "2026-04-27 13:16:51"
      }
    },
    {
      "id": "56700007",
      "lat": 47.758147046349,
      "lon": -3.2375896664638004,
      "cp": "56700",
      "ville": "Kervignac",
      "prix": {
        "Gazole": 0.002157,
        "SP95": 0.0019690000000000003,
        "SP98": 0.0020099999999999996
      },
      "maj_gouv": {
        "Gazole": "2026-04-30 08:53:00",
        "SP95": "2026-04-30 08:53:00",
        "SP98": "2026-04-30 08:53:01"
      }
    },
    {
      "id": "56100012",
      "lat": 47.736,
      "lon": -3.37,
      "cp": "56100",
      "ville": "LORIENT",
      "prix": {
        "Gazole": 0.00209,
        "E85": 0.0008349999999999999,
        "GPLc": 0.001059,
        "E10": 0.00199,
        "SP98": 0.00199
      },
      "maj_gouv": {
        "Gazole": "2026-05-01 03:20:00",
        "E85": "2026-05-01 03:20:00",
        "GPLc": "2026-05-01 03:20:00",
        "E10": "2026-05-01 03:20:00",
        "SP98": "2026-05-01 03:20:00"
      }
    },
    {
      "id": "56240003",
      "lat": 47.913841,
      "lon": -3.3333813,
      "cp": "56240",
      "ville": "PLOUAY",
      "prix": {
        "Gazole": 0.002189,
        "E85": 0.000839,
        "E10": 0.0019890000000000003,
        "SP98": 0.002079
      },
      "maj_gouv": {
        "Gazole": "2026-04-29 16:08:24",
        "E85": "2026-04-29 16:08:24",
        "E10": "2026-04-29 16:08:24",
        "SP98": "2026-04-29 16:08:25"
      }
    },
    {
      "id": "56120001",
      "lat": 47.962,
      "lon": -2.546,
      "cp": "56120",
      "ville": "JOSSELIN",
      "prix": {
        "Gazole": 0.002149,
        "SP95": 0.002009,
        "E10": 0.0019890000000000003
      },
      "maj_gouv": {
        "Gazole": "2026-05-01 01:16:00",
        "SP95": "2026-05-01 01:16:00",
        "E10": "2026-05-01 01:16:00"
      }
    },
    {
      "id": "56430001",
      "lat": 48.07732,
      "lon": -2.29026,
      "cp": "56430",
      "ville": "Mauron",
      "prix": {
        "Gazole": 0.002159,
        "SP95": 0.002049,
        "SP98": 0.002093
      },
      "maj_gouv": {
        "Gazole": "2026-04-30 10:55:03",
        "SP95": "2026-04-30 10:55:03",
        "SP98": "2026-04-30 10:55:03"
      }
    },
    {
      "id": "56620001",
      "lat": 47.832,
      "lon": -3.401,
      "cp": "56620",
      "ville": "PONT-SCORFF",
      "prix": {
        "Gazole": 0.002169,
        "E10": 0.0019890000000000003,
        "SP98": 0.00204
      },
      "maj_gouv": {
        "Gazole": "2026-04-29 10:28:34",
        "E10": "2026-04-27 09:32:18",
        "SP98": "2026-04-21 10:40:29"
      }
    },
    {
      "id": "56160001",
      "lat": 48.064,
      "lon": -3.208,
      "cp": "56160",
      "ville": "Guémené-sur-Scorff",
      "prix": {
        "Gazole": 0.002129,
        "E85": 0.0008179999999999999,
        "E10": 0.0019450000000000001,
        "SP98": 0.002039
      },
      "maj_gouv": {
        "Gazole": "2026-04-28 19:00:00",
        "E85": "2026-04-28 19:00:00",
        "E10": "2026-04-28 19:00:00",
        "SP98": "2026-04-28 19:00:00"
      }
    },
    {
      "id": "56670003",
      "lat": 47.726,
      "lon": -3.322,
      "cp": "56670",
      "ville": "RIANTEC",
      "prix": {
        "Gazole": 0.0021509999999999997,
        "E85": 0.00082,
        "E10": 0.001955,
        "SP98": 0.002019
      },
      "maj_gouv": {
        "Gazole": "2026-04-30 09:00:00",
        "E85": "2026-04-30 09:00:00",
        "E10": "2026-04-28 09:05:38",
        "SP98": "2026-04-29 09:30:00"
      }
    },
    {
      "id": "56930001",
      "lat": 47.962,
      "lon": -2.983,
      "cp": "56930",
      "ville": "Pluméliau",
      "prix": {
        "Gazole": 0.0021669999999999997,
        "E10": 0.001978,
        "SP98": 0.002076
      },
      "maj_gouv": {
        "Gazole": "2026-04-30 08:57:59",
        "E10": "2026-04-30 08:57:59",
        "SP98": "2026-04-30 08:57:59"
      }
    },
    {
      "id": "56450005",
      "lat": 47.636,
      "lon": -2.665,
      "cp": "56450",
      "ville": "THEIX",
      "prix": {
        "Gazole": 0.00209,
        "E85": 0.000809,
        "E10": 0.00199,
        "SP98": 0.00199
      },
      "maj_gouv": {
        "Gazole": "2026-05-01 03:20:00",
        "E85": "2026-05-01 03:20:00",
        "E10": "2026-05-01 03:20:00",
        "SP98": "2026-05-01 03:20:00"
      }
    },
    {
      "id": "56270003",
      "lat": 47.734,
      "lon": -3.43,
      "cp": "56270",
      "ville": "Ploemeur",
      "prix": {
        "Gazole": 0.002177,
        "SP95": 0.002032,
        "SP98": 0.002113
      },
      "maj_gouv": {
        "Gazole": "2026-04-30 09:17:01",
        "SP95": "2026-04-30 09:17:02",
        "SP98": "2026-04-30 09:17:02"
      }
    },
    {
      "id": "56450006",
      "lat": 47.648,
      "lon": -2.7,
      "cp": "56450",
      "ville": "THEIX-NOYALO",
      "prix": {
        "Gazole": 0.0021349999999999997,
        "E85": 0.000705,
        "GPLc": 0.0010689999999999999,
        "E10": 0.001949,
        "SP98": 0.002019
      },
      "maj_gouv": {
        "Gazole": "2026-04-28 23:59:00",
        "E85": "2026-04-26 23:59:00",
        "GPLc": "2026-04-13 23:30:00",
        "E10": "2026-04-30 06:00:00",
        "SP98": "2026-04-28 23:59:00"
      }
    },
    {
      "id": "56670001",
      "lat": 47.719,
      "lon": -3.335,
      "cp": "56670",
      "ville": "RIANTEC",
      "prix": {
        "Gazole": 0.002164,
        "E10": 0.001961,
        "SP98": 0.002063
      },
      "maj_gouv": {
        "Gazole": "2026-04-30 07:45:57",
        "E10": "2026-04-30 07:45:57",
        "SP98": "2026-04-30 07:45:57"
      }
    },
    {
      "id": "56100013",
      "lat": 47.761535465599,
      "lon": -3.3773344110615,
      "cp": "56100",
      "ville": "LORIENT",
      "prix": {
        "Gazole": 0.00225,
        "E10": 0.00199
      },
      "maj_gouv": {
        "Gazole": "2026-04-29 19:06:12",
        "E10": "2026-04-29 19:06:12"
      }
    },
    {
      "id": "56550001",
      "lat": 47.674,
      "lon": -3.172,
      "cp": "56550",
      "ville": "Belz",
      "prix": {
        "Gazole": 0.002144,
        "E10": 0.0019590000000000002
      },
      "maj_gouv": {
        "Gazole": "2026-04-27 13:45:26",
        "E10": "2026-04-29 14:48:07"
      }
    },
    {
      "id": "56000003",
      "lat": 47.644,
      "lon": -2.743,
      "cp": "56000",
      "ville": "VANNES",
      "prix": {
        "Gazole": 0.002185,
        "SP95": 0.002027,
        "SP98": 0.002099
      },
      "maj_gouv": {
        "Gazole": "2026-04-29 10:08:42",
        "SP95": "2026-04-29 10:08:42",
        "SP98": "2026-04-29 10:08:42"
      }
    },
    {
      "id": "56270007",
      "lat": 47.737,
      "lon": -3.433,
      "cp": "56270",
      "ville": "PLOEMEUR",
      "prix": {
        "Gazole": 0.00209,
        "E10": 0.00199,
        "SP98": 0.00199
      },
      "maj_gouv": {
        "Gazole": "2026-05-01 03:20:00",
        "E10": "2026-05-01 03:20:00",
        "SP98": "2026-05-01 03:20:00"
      }
    },
    {
      "id": "56550003",
      "lat": 47.71,
      "lon": -3.106,
      "cp": "56550",
      "ville": "Locoal-Mendon",
      "prix": {
        "Gazole": 0.002274,
        "SP95": 0.002012,
        "SP98": 0.002092
      },
      "maj_gouv": {
        "Gazole": "2026-04-25 09:37:46",
        "SP95": "2026-04-03 09:23:38",
        "SP98": "2026-04-03 09:23:38"
      }
    },
    {
      "id": "56000008",
      "lat": 47.6691722685,
      "lon": -2.80336454446,
      "cp": "56000",
      "ville": "VANNES",
      "prix": {
        "Gazole": 0.00225,
        "E10": 0.00199,
        "SP98": 0.00199
      },
      "maj_gouv": {
        "Gazole": "2026-05-01 02:30:00",
        "E10": "2026-05-01 02:30:00",
        "SP98": "2026-05-01 02:30:00"
      }
    },
    {
      "id": "56400001",
      "lat": 47.672,
      "lon": -2.964,
      "cp": "56400",
      "ville": "Pluneret",
      "prix": {
        "Gazole": 0.00216,
        "SP95": 0.002042,
        "SP98": 0.002129
      },
      "maj_gouv": {
        "Gazole": "2026-04-30 09:16:41",
        "SP95": "2026-04-30 09:16:41",
        "SP98": "2026-04-30 09:16:41"
      }
    },
    {
      "id": "56640002",
      "lat": 47.54488,
      "lon": -2.89724,
      "cp": "56640",
      "ville": "ARZON",
      "prix": {
        "Gazole": 0.002159,
        "E10": 0.0019690000000000003,
        "SP98": 0.002049
      },
      "maj_gouv": {
        "Gazole": "2026-04-28 09:17:01",
        "E10": "2026-04-28 09:17:02",
        "SP98": "2026-04-28 09:17:02"
      }
    },
    {
      "id": "56370005",
      "lat": 47.526,
      "lon": -2.646,
      "cp": "56370",
      "ville": "Le Tour-du-Parc",
      "prix": {
        "Gazole": 0.00221,
        "SP95": 0.002045
      },
      "maj_gouv": {
        "Gazole": "2026-04-28 18:25:59",
        "SP95": "2026-04-28 18:25:59"
      }
    },
    {
      "id": "56270006",
      "lat": 47.70303,
      "lon": -3.43418,
      "cp": "56270",
      "ville": "Ploemeur",
      "prix": {
        "Gazole": 0.002149,
        "E10": 0.001929,
        "SP98": 0.002029
      },
      "maj_gouv": {
        "Gazole": "2026-04-23 09:55:18",
        "E10": "2026-04-29 09:11:20",
        "SP98": "2026-04-29 09:11:20"
      }
    },
    {
      "id": "56350003",
      "lat": 47.636,
      "lon": -2.168,
      "cp": "56350",
      "ville": "ALLAIRE",
      "prix": {
        "Gazole": 0.00229,
        "SP95": 0.00213
      },
      "maj_gouv": {
        "Gazole": "2026-04-27 14:10:50",
        "SP95": "2026-04-22 14:05:58"
      }
    },
    {
      "id": "56400010",
      "lat": 47.665,
      "lon": -2.903,
      "cp": "56400",
      "ville": "PLOUGOUMELEN",
      "prix": {
        "Gazole": 0.00209,
        "E85": 0.000819,
        "GPLc": 0.001049,
        "E10": 0.00199,
        "SP98": 0.00199
      },
      "maj_gouv": {
        "Gazole": "2026-05-01 03:20:00",
        "E85": "2026-05-01 03:20:00",
        "GPLc": "2026-05-01 03:20:00",
        "E10": "2026-05-01 03:20:00",
        "SP98": "2026-05-01 03:20:00"
      }
    },
    {
      "id": "56350002",
      "lat": 47.631,
      "lon": -2.101,
      "cp": "56350",
      "ville": "RIEUX",
      "prix": {
        "Gazole": 0.002159,
        "E10": 0.0019890000000000003,
        "SP98": 0.002089
      },
      "maj_gouv": {
        "Gazole": "2026-04-30 11:18:56",
        "E10": "2026-04-30 11:18:56",
        "SP98": "2026-04-30 11:18:56"
      }
    },
    {
      "id": "56500003",
      "lat": 47.89078,
      "lon": -2.83467,
      "cp": "56500",
      "ville": "MOREAC",
      "prix": {
        "Gazole": 0.002189,
        "E85": 0.0008179999999999999,
        "E10": 0.001968,
        "SP98": 0.002079
      },
      "maj_gouv": {
        "Gazole": "2026-04-30 10:16:52",
        "E85": "2026-04-20 16:05:55",
        "E10": "2026-04-30 10:16:53",
        "SP98": "2026-04-30 10:16:53"
      }
    },
    {
      "id": "56800006",
      "lat": 47.918994310637,
      "lon": -2.3637616080019,
      "cp": "56800",
      "ville": "PLOERMEL",
      "prix": {
        "Gazole": 0.00225,
        "E85": 0.000999,
        "GPLc": 0.001109,
        "E10": 0.00199,
        "SP98": 0.00199
      },
      "maj_gouv": {
        "Gazole": "2026-05-01 02:30:00",
        "E85": "2026-05-01 02:30:00",
        "GPLc": "2026-05-01 02:30:00",
        "E10": "2026-05-01 02:30:00",
        "SP98": "2026-05-01 02:30:00"
      }
    },
    {
      "id": "56230002",
      "lat": 47.664,
      "lon": -2.452,
      "cp": "56230",
      "ville": "QUESTEMBERT",
      "prix": {
        "Gazole": 0.00209,
        "SP95": 0.00199
      },
      "maj_gouv": {
        "Gazole": "2026-04-30 23:59:00",
        "SP95": "2026-03-10 23:59:00"
      }
    },
    {
      "id": "56700009",
      "lat": 47.804,
      "lon": -3.27,
      "cp": "56700",
      "ville": "HENNEBONT",
      "prix": {
        "Gazole": 0.002392,
        "E10": 0.0021019999999999997,
        "SP98": 0.002212
      },
      "maj_gouv": {
        "Gazole": "2026-04-02 07:30:40",
        "E10": "2026-04-02 07:30:40",
        "SP98": "2026-04-02 07:30:40"
      }
    },
    {
      "id": "56120005",
      "lat": 47.946998099999995,
      "lon": -2.58197,
      "cp": "56120",
      "ville": "Guégon",
      "prix": {
        "Gazole": 0.002419,
        "SP95": 0.002139
      },
      "maj_gouv": {
        "Gazole": "2026-04-23 14:25:32",
        "SP95": "2026-04-23 14:25:32"
      }
    },
    {
      "id": "56950002",
      "lat": 47.608,
      "lon": -2.997,
      "cp": "56950",
      "ville": "CRACH",
      "prix": {
        "Gazole": 0.002166,
        "E85": 0.000884,
        "E10": 0.001998,
        "SP98": 0.0021000000000000003
      },
      "maj_gouv": {
        "Gazole": "2026-04-30 06:53:23",
        "E85": "2026-04-27 16:10:31",
        "E10": "2026-04-30 06:53:23",
        "SP98": "2026-04-30 06:53:23"
      }
    },
    {
      "id": "56860004",
      "lat": 47.65,
      "lon": -2.722,
      "cp": "56860",
      "ville": "SENE",
      "prix": {
        "Gazole": 0.00209,
        "E85": 0.000829,
        "E10": 0.00199
      },
      "maj_gouv": {
        "Gazole": "2026-05-01 03:20:00",
        "E85": "2026-05-01 03:20:00",
        "E10": "2026-05-01 03:20:00"
      }
    },
    {
      "id": "56500002",
      "lat": 47.87553,
      "lon": -2.82825,
      "cp": "56500",
      "ville": "Locminé",
      "prix": {
        "Gazole": 0.002195,
        "SP95": 0.00204,
        "E85": 0.0008179999999999999,
        "E10": 0.0019950000000000002
      },
      "maj_gouv": {
        "Gazole": "2026-04-29 12:09:51",
        "SP95": "2026-04-29 12:09:51",
        "E85": "2026-04-29 12:09:51",
        "E10": "2026-04-29 12:09:51"
      }
    },
    {
      "id": "56400006",
      "lat": 47.674,
      "lon": -3.001,
      "cp": "56400",
      "ville": "Auray",
      "prix": {
        "Gazole": 0.0022,
        "SP95": 0.00199
      },
      "maj_gouv": {
        "Gazole": "2026-04-30 19:09:13",
        "SP95": "2026-04-30 19:09:13"
      }
    },
    {
      "id": "56700004",
      "lat": 47.799,
      "lon": -3.258,
      "cp": "56700",
      "ville": "Hennebont",
      "prix": {
        "Gazole": 0.002169,
        "SP95": 0.002045,
        "E85": 0.0007059999999999999,
        "E10": 0.001992,
        "SP98": 0.0020510000000000003
      },
      "maj_gouv": {
        "Gazole": "2026-05-01 01:17:00",
        "SP95": "2026-05-01 01:17:00",
        "E85": "2026-05-01 01:17:00",
        "E10": "2026-05-01 01:17:00",
        "SP98": "2026-05-01 01:17:00"
      }
    },
    {
      "id": "56000005",
      "lat": 47.639,
      "lon": -2.776,
      "cp": "56000",
      "ville": "VANNES",
      "prix": {
        "Gazole": 0.002149,
        "E85": 0.000799,
        "E10": 0.001999,
        "SP98": 0.002079
      },
      "maj_gouv": {
        "Gazole": "2026-04-28 08:42:20",
        "E85": "2026-04-18 08:52:00",
        "E10": "2026-04-28 08:42:20",
        "SP98": "2026-04-28 08:42:20"
      }
    },
    {
      "id": "56370002",
      "lat": 47.5212,
      "lon": -2.76697,
      "cp": "56370",
      "ville": "Sarzeau",
      "prix": {
        "Gazole": 0.002189,
        "SP95": 0.001999,
        "SP98": 0.002079
      },
      "maj_gouv": {
        "Gazole": "2026-04-21 10:21:23",
        "SP95": "2026-04-29 09:58:48",
        "SP98": "2026-04-29 09:59:16"
      }
    },
    {
      "id": "56150004",
      "lat": 47.882,
      "lon": -3.018,
      "cp": "56150",
      "ville": "Baud",
      "prix": {
        "Gazole": 0.0021669999999999997,
        "SP95": 0.002057,
        "E10": 0.0019890000000000003
      },
      "maj_gouv": {
        "Gazole": "2026-04-30 08:03:01",
        "SP95": "2026-04-30 08:03:01",
        "E10": "2026-04-30 08:03:01"
      }
    },
    {
      "id": "56100003",
      "lat": 47.73528,
      "lon": -3.38937,
      "cp": "56100",
      "ville": "Lorient",
      "prix": {
        "Gazole": 0.00225,
        "E10": 0.00199,
        "SP98": 0.00199
      },
      "maj_gouv": {
        "Gazole": "2026-04-30 09:22:32",
        "E10": "2026-04-30 09:22:32",
        "SP98": "2026-04-30 09:22:32"
      }
    },
    {
      "id": "56300001",
      "lat": 48.069,
      "lon": -2.971,
      "cp": "56300",
      "ville": "PONTIVY",
      "prix": {
        "Gazole": 0.0021880000000000003,
        "E85": 0.0008179999999999999,
        "E10": 0.0019890000000000003,
        "SP98": 0.002079
      },
      "maj_gouv": {
        "Gazole": "2026-04-28 11:05:27",
        "E85": "2026-04-27 10:36:28",
        "E10": "2026-04-27 10:36:28",
        "SP98": "2026-04-02 07:16:09"
      }
    },
    {
      "id": "56800003",
      "lat": 47.92,
      "lon": -2.361,
      "cp": "56800",
      "ville": "Ploërmel",
      "prix": {
        "Gazole": 0.002472,
        "E10": 0.0023490000000000004,
        "SP98": 0.002499
      },
      "maj_gouv": {
        "Gazole": "2026-04-30 09:30:00",
        "E10": "2026-04-30 09:30:00",
        "SP98": "2026-04-30 09:30:00"
      }
    },
    {
      "id": "56350004",
      "lat": 47.632,
      "lon": -2.174,
      "cp": "56350",
      "ville": "Allaire",
      "prix": {
        "Gazole": 0.002169,
        "E10": 0.001999,
        "SP98": 0.002099
      },
      "maj_gouv": {
        "Gazole": "2026-04-28 12:57:44",
        "E10": "2026-04-30 09:56:33",
        "SP98": "2026-04-30 09:56:33"
      }
    },
    {
      "id": "56130002",
      "lat": 47.53507,
      "lon": -2.28322,
      "cp": "56130",
      "ville": "NIVILLAC",
      "prix": {
        "Gazole": 0.002175,
        "SP95": 0.001999,
        "SP98": 0.002079
      },
      "maj_gouv": {
        "Gazole": "2026-04-29 11:35:53",
        "SP95": "2026-04-29 11:35:53",
        "SP98": "2026-04-29 11:35:53"
      }
    },
    {
      "id": "56890001",
      "lat": 47.698,
      "lon": -2.804,
      "cp": "56890",
      "ville": "PLESCOP",
      "prix": {
        "Gazole": 0.002199,
        "SP95": 0.001999,
        "SP98": 0.002049
      },
      "maj_gouv": {
        "Gazole": "2026-04-17 12:11:28",
        "SP95": "2026-04-17 12:11:28",
        "SP98": "2026-04-17 12:11:28"
      }
    },
    {
      "id": "56520001",
      "lat": 47.787,
      "lon": -3.49,
      "cp": "56520",
      "ville": "GUIDEL",
      "prix": {
        "Gazole": 0.002165,
        "E85": 0.000789,
        "E10": 0.0019890000000000003,
        "SP98": 0.002029
      },
      "maj_gouv": {
        "Gazole": "2026-04-30 06:33:33",
        "E85": "2026-04-15 09:43:53",
        "E10": "2026-04-30 06:33:33",
        "SP98": "2026-04-30 06:33:33"
      }
    },
    {
      "id": "56690002",
      "lat": 47.76,
      "lon": -3.123,
      "cp": "56690",
      "ville": "LANDEVANT",
      "prix": {
        "Gazole": 0.002159,
        "E10": 0.0019690000000000003,
        "SP98": 0.002059
      },
      "maj_gouv": {
        "Gazole": "2026-04-30 10:31:29",
        "E10": "2026-04-30 10:31:29",
        "SP98": "2026-04-29 09:34:04"
      }
    },
    {
      "id": "56420002",
      "lat": 47.839,
      "lon": -2.638,
      "cp": "56420",
      "ville": "Plumelec",
      "prix": {
        "Gazole": 0.00225,
        "SP95": 0.00199
      },
      "maj_gouv": {
        "Gazole": "2026-04-30 08:51:28",
        "SP95": "2026-04-28 09:08:30"
      }
    },
    {
      "id": "56660001",
      "lat": 47.84,
      "lon": -2.708,
      "cp": "56660",
      "ville": "Saint-Jean-Brévelay",
      "prix": {
        "Gazole": 0.002179,
        "E85": 0.000819,
        "E10": 0.001999,
        "SP98": 0.002089
      },
      "maj_gouv": {
        "Gazole": "2026-04-28 11:46:29",
        "E85": "2026-04-25 13:47:09",
        "E10": "2026-04-30 15:12:52",
        "SP98": "2026-04-30 15:12:53"
      }
    },
    {
      "id": "56300005",
      "lat": 48.053178995,
      "lon": -2.95900321221,
      "cp": "56300",
      "ville": "PONTIVY",
      "prix": {
        "Gazole": 0.0021880000000000003,
        "E85": 0.0008179999999999999,
        "GPLc": 0.001149,
        "E10": 0.0019890000000000003,
        "SP98": 0.002079
      },
      "maj_gouv": {
        "Gazole": "2026-04-28 09:03:30",
        "E85": "2026-04-16 08:50:55",
        "GPLc": "2026-04-23 08:39:05",
        "E10": "2026-04-27 08:40:18",
        "SP98": "2026-04-01 08:52:04"
      }
    },
    {
      "id": "56340002",
      "lat": 47.575,
      "lon": -3.06,
      "cp": "56340",
      "ville": "CARNAC",
      "prix": {
        "Gazole": 0.002159,
        "E85": 0.0008990000000000001,
        "E10": 0.0019890000000000003,
        "SP98": 0.002129
      },
      "maj_gouv": {
        "Gazole": "2026-04-30 10:17:06",
        "E85": "2026-04-30 08:22:28",
        "E10": "2026-04-30 10:17:06",
        "SP98": "2026-04-30 10:17:06"
      }
    },
    {
      "id": "56100009",
      "lat": 47.755,
      "lon": -3.39,
      "cp": "56100",
      "ville": "LORIENT",
      "prix": {
        "Gazole": 0.002141,
        "E85": 0.000819,
        "E10": 0.001931,
        "SP98": 0.002029
      },
      "maj_gouv": {
        "Gazole": "2026-04-28 10:59:51",
        "E85": "2026-04-23 08:32:03",
        "E10": "2026-04-28 10:59:52",
        "SP98": "2026-04-30 08:36:04"
      }
    },
    {
      "id": "56110002",
      "lat": 48.141,
      "lon": -3.602,
      "cp": "56110",
      "ville": "GOURIN",
      "prix": {
        "Gazole": 0.00213,
        "SP95": 0.002016,
        "E10": 0.0019619999999999998
      },
      "maj_gouv": {
        "Gazole": "2026-04-30 09:00:00",
        "SP95": "2026-04-30 09:00:00",
        "E10": "2026-04-30 09:00:00"
      }
    },
    {
      "id": "56800004",
      "lat": 47.937,
      "lon": -2.402,
      "cp": "56800",
      "ville": "PLOëRMEL",
      "prix": {
        "Gazole": 0.002179,
        "SP95": 0.001999,
        "E85": 0.000739,
        "E10": 0.0019890000000000003
      },
      "maj_gouv": {
        "Gazole": "2026-05-01 01:17:00",
        "SP95": "2026-05-01 01:17:00",
        "E85": "2026-05-01 01:17:00",
        "E10": "2026-05-01 01:17:00"
      }
    },
    {
      "id": "56390001",
      "lat": 47.755,
      "lon": -2.843,
      "cp": "56390",
      "ville": "GRAND-CHAMP",
      "prix": {
        "Gazole": 0.002128,
        "SP95": 0.002079,
        "E85": 0.000704,
        "E10": 0.0019479999999999999
      },
      "maj_gouv": {
        "Gazole": "2026-04-29 07:11:18",
        "SP95": "2026-04-30 08:03:35",
        "E85": "2026-04-30 08:03:35",
        "E10": "2026-04-30 08:03:35"
      }
    },
    {
      "id": "56130001",
      "lat": 47.526,
      "lon": -2.31,
      "cp": "56130",
      "ville": "Marzan",
      "prix": {
        "Gazole": 0.00225,
        "E85": 0.000828,
        "E10": 0.00199,
        "SP98": 0.00199
      },
      "maj_gouv": {
        "Gazole": "2026-04-29 22:01:09",
        "E85": "2026-04-13 21:19:23",
        "E10": "2026-04-21 20:24:02",
        "SP98": "2026-04-08 12:59:40"
      }
    },
    {
      "id": "56170003",
      "lat": 47.48597,
      "lon": -3.1208,
      "cp": "56170",
      "ville": "Quiberon",
      "prix": {
        "Gazole": 0.002169,
        "SP95": 0.00202,
        "E85": 0.0008,
        "E10": 0.001982,
        "SP98": 0.002049
      },
      "maj_gouv": {
        "Gazole": "2026-04-29 09:04:54",
        "SP95": "2026-04-30 10:48:10",
        "E85": "2026-04-21 16:03:30",
        "E10": "2026-04-29 09:04:55",
        "SP98": "2026-04-29 09:04:55"
      }
    },
    {
      "id": "56610001",
      "lat": 47.635,
      "lon": -2.823,
      "cp": "56610",
      "ville": "Arradon",
      "prix": {
        "Gazole": 0.002129,
        "SP95": 0.001999,
        "E10": 0.0019890000000000003,
        "SP98": 0.002019
      },
      "maj_gouv": {
        "Gazole": "2026-04-29 08:39:10",
        "SP95": "2026-04-29 08:43:51",
        "E10": "2026-04-30 07:45:08",
        "SP98": "2026-04-29 08:43:52"
      }
    },
    {
      "id": "56850004",
      "lat": 47.81518747966,
      "lon": -3.3429154336,
      "cp": "56850",
      "ville": "Caudan",
      "prix": {
        "Gazole": 0.002169,
        "E85": 0.000829,
        "E10": 0.0019790000000000003,
        "SP98": 0.002049
      },
      "maj_gouv": {
        "Gazole": "2026-04-30 11:35:41",
        "E85": "2026-04-30 19:05:32",
        "E10": "2026-04-30 11:35:42",
        "SP98": "2026-04-30 11:35:42"
      }
    },
    {
      "id": "56200001",
      "lat": 47.771,
      "lon": -2.131,
      "cp": "56200",
      "ville": "LA GACILLY",
      "prix": {
        "Gazole": 0.002169,
        "E10": 0.00199,
        "SP98": 0.00199
      },
      "maj_gouv": {
        "Gazole": "2026-04-30 09:15:00",
        "E10": "2026-04-30 09:15:00",
        "SP98": "2026-04-30 09:15:00"
      }
    },
    {
      "id": "56100008",
      "lat": 47.747,
      "lon": -3.388,
      "cp": "56100",
      "ville": "LORIENT",
      "prix": {
        "Gazole": 0.002139,
        "E85": 0.000819,
        "E10": 0.0019690000000000003,
        "SP98": 0.002059
      },
      "maj_gouv": {
        "Gazole": "2026-04-30 08:42:36",
        "E85": "2026-04-17 09:14:19",
        "E10": "2026-04-30 08:42:36",
        "SP98": "2026-04-30 08:42:36"
      }
    },
    {
      "id": "56301001",
      "lat": 48.06831,
      "lon": -2.94579,
      "cp": "56300",
      "ville": "Pontivy",
      "prix": {
        "Gazole": 0.0021880000000000003,
        "SP95": 0.002,
        "E85": 0.000758,
        "E10": 0.001975
      },
      "maj_gouv": {
        "Gazole": "2026-04-28 08:50:35",
        "SP95": "2026-04-30 08:56:21",
        "E85": "2026-04-15 11:48:10",
        "E10": "2026-04-30 08:56:21"
      }
    },
    {
      "id": "56370007",
      "lat": 47.529621,
      "lon": -2.754396,
      "cp": "56370",
      "ville": "SARZEAU",
      "prix": {
        "Gazole": 0.002199,
        "E10": 0.0019890000000000003,
        "SP98": 0.002089
      },
      "maj_gouv": {
        "Gazole": "2026-04-20 14:19:26",
        "E10": "2026-04-29 08:45:00",
        "SP98": "2026-04-29 08:45:00"
      }
    },
    {
      "id": "56340001",
      "lat": 47.59997,
      "lon": -3.11087,
      "cp": "56340",
      "ville": "Plouharnel",
      "prix": {
        "Gazole": 0.002169,
        "SP95": 0.002025,
        "SP98": 0.002058
      },
      "maj_gouv": {
        "Gazole": "2026-04-25 08:26:47",
        "SP95": "2026-04-25 08:26:47",
        "SP98": "2026-04-24 09:30:43"
      }
    },
    {
      "id": "56000004",
      "lat": 47.666,
      "lon": -2.794,
      "cp": "56000",
      "ville": "Vannes",
      "prix": {
        "Gazole": 0.002129,
        "E85": 0.000705,
        "GPLc": 0.0010689999999999999,
        "E10": 0.001949,
        "SP98": 0.002019
      },
      "maj_gouv": {
        "Gazole": "2026-04-28 23:59:00",
        "E85": "2026-04-26 23:59:00",
        "GPLc": "2026-04-13 23:30:00",
        "E10": "2026-04-30 06:00:00",
        "SP98": "2026-04-28 23:59:00"
      }
    },
    {
      "id": "56130003",
      "lat": 47.521,
      "lon": -2.283,
      "cp": "56130",
      "ville": "NIVILLAC",
      "prix": {
        "Gazole": 0.0021680000000000002,
        "E85": 0.0008179999999999999,
        "GPLc": 0.0011690000000000001,
        "E10": 0.002009,
        "SP98": 0.002077
      },
      "maj_gouv": {
        "Gazole": "2026-04-30 10:59:43",
        "E85": "2026-04-21 15:17:38",
        "GPLc": "2026-04-14 12:25:19",
        "E10": "2026-04-30 10:59:44",
        "SP98": "2026-04-28 12:41:12"
      }
    },
    {
      "id": "56700008",
      "lat": 47.81001,
      "lon": -3.26381,
      "cp": "56700",
      "ville": "HENNEBONT",
      "prix": {
        "Gazole": 0.002169,
        "SP95": 0.001999,
        "E10": 0.001965,
        "SP98": 0.0020510000000000003
      },
      "maj_gouv": {
        "Gazole": "2026-04-30 10:09:32",
        "SP95": "2026-04-30 10:09:32",
        "E10": "2026-04-30 10:09:32",
        "SP98": "2026-04-30 10:09:32"
      }
    },
    {
      "id": "56300010",
      "lat": 48.081,
      "lon": -2.949,
      "cp": "56300",
      "ville": "Pontivy",
      "prix": {
        "Gazole": 0.00225,
        "E10": 0.00199,
        "SP98": 0.00199
      },
      "maj_gouv": {
        "Gazole": "2026-04-28 10:33:32",
        "E10": "2026-04-28 10:33:32",
        "SP98": "2026-04-28 10:33:32"
      }
    },
    {
      "id": "56870001",
      "lat": 47.621,
      "lon": -2.916,
      "cp": "56870",
      "ville": "BADEN",
      "prix": {
        "Gazole": 0.002128,
        "SP95": 0.002019,
        "E10": 0.0019790000000000003,
        "SP98": 0.002049
      },
      "maj_gouv": {
        "Gazole": "2026-04-29 09:30:24",
        "SP95": "2026-04-29 09:30:24",
        "E10": "2026-04-29 09:30:24",
        "SP98": "2026-04-29 09:30:24"
      }
    },
    {
      "id": "56460003",
      "lat": 47.869697300000006,
      "lon": -2.4634533,
      "cp": "56460",
      "ville": "Le Roc-Saint-André",
      "prix": {
        "Gazole": 0.00225
      },
      "maj_gouv": {
        "Gazole": "2026-04-28 21:40:00"
      }
    },
    {
      "id": "56190001",
      "lat": 47.559,
      "lon": -2.511,
      "cp": "56190",
      "ville": "MUZILLAC",
      "prix": {
        "Gazole": 0.00216,
        "E10": 0.002009,
        "SP98": 0.0020870000000000003
      },
      "maj_gouv": {
        "Gazole": "2026-04-27 09:00:00",
        "E10": "2026-04-27 09:00:00",
        "SP98": "2026-04-27 09:00:00"
      }
    },
    {
      "id": "56150005",
      "lat": 47.87,
      "lon": -3.022,
      "cp": "56150",
      "ville": "BAUD",
      "prix": {
        "Gazole": 0.00225,
        "E10": 0.00199
      },
      "maj_gouv": {
        "Gazole": "2026-04-29 19:07:31",
        "E10": "2026-04-29 19:07:31"
      }
    },
    {
      "id": "56690004",
      "lat": 47.779,
      "lon": -3.195,
      "cp": "56690",
      "ville": "NOSTANG",
      "prix": {
        "Gazole": 0.00209,
        "E85": 0.000829,
        "GPLc": 0.001035,
        "E10": 0.00199,
        "SP98": 0.00199
      },
      "maj_gouv": {
        "Gazole": "2026-05-01 03:20:00",
        "E85": "2026-05-01 03:20:00",
        "GPLc": "2026-05-01 03:20:00",
        "E10": "2026-05-01 03:20:00",
        "SP98": "2026-05-01 03:20:00"
      }
    },
    {
      "id": "56890003",
      "lat": 47.682038768502,
      "lon": -2.7645718134344004,
      "cp": "56890",
      "ville": "SAINT-AVé",
      "prix": {
        "Gazole": 0.002179,
        "E85": 0.00074,
        "GPLc": 0.001099,
        "E10": 0.002019,
        "SP98": 0.002095
      },
      "maj_gouv": {
        "Gazole": "2026-04-28 08:32:15",
        "E85": "2026-04-29 08:48:03",
        "GPLc": "2026-04-23 15:18:01",
        "E10": "2026-04-29 08:48:03",
        "SP98": "2026-04-29 08:48:03"
      }
    },
    {
      "id": "56380004",
      "lat": 47.938155330083,
      "lon": -2.1322160777753,
      "cp": "56380",
      "ville": "Guer",
      "prix": {
        "Gazole": 0.00222,
        "SP95": 0.00197
      },
      "maj_gouv": {
        "Gazole": "2026-04-23 08:44:07",
        "SP95": "2026-04-09 13:47:08"
      }
    },
    {
      "id": "56920001",
      "lat": 48.067,
      "lon": -2.883,
      "cp": "56920",
      "ville": "Noyal-Pontivy",
      "prix": {
        "Gazole": 0.002299,
        "SP95": 0.0020499999999999997,
        "E10": 0.0019790000000000003
      },
      "maj_gouv": {
        "Gazole": "2026-04-13 09:50:31",
        "SP95": "2026-03-24 08:11:46",
        "E10": "2026-04-13 09:50:31"
      }
    },
    {
      "id": "56250004",
      "lat": 47.704,
      "lon": -2.649,
      "cp": "56250",
      "ville": "Saint-Nolff",
      "prix": {
        "Gazole": 0.00209,
        "E85": 0.000803,
        "E10": 0.00199,
        "SP98": 0.00199
      },
      "maj_gouv": {
        "Gazole": "2026-05-01 03:20:00",
        "E85": "2026-05-01 03:20:00",
        "E10": "2026-05-01 03:20:00",
        "SP98": "2026-05-01 03:20:00"
      }
    },
    {
      "id": "56850003",
      "lat": 47.785,
      "lon": -3.332,
      "cp": "56850",
      "ville": "Caudan",
      "prix": {
        "Gazole": 0.00225,
        "E85": 0.000842,
        "E10": 0.00199,
        "SP98": 0.00199
      },
      "maj_gouv": {
        "Gazole": "2026-04-30 07:59:29",
        "E85": "2026-04-28 08:02:15",
        "E10": "2026-04-22 07:58:54",
        "SP98": "2026-04-21 16:30:17"
      }
    },
    {
      "id": "56440003",
      "lat": 47.836,
      "lon": -3.164,
      "cp": "56440",
      "ville": "LANGUIDIC",
      "prix": {
        "Gazole": 0.00209,
        "E85": 0.000839,
        "E10": 0.00199,
        "SP98": 0.00199
      },
      "maj_gouv": {
        "Gazole": "2026-05-01 03:20:00",
        "E85": "2026-05-01 03:20:00",
        "E10": "2026-05-01 03:20:00",
        "SP98": "2026-05-01 03:20:00"
      }
    },
    {
      "id": "56109002",
      "lat": 47.733,
      "lon": -3.384,
      "cp": "56100",
      "ville": "LORIENT",
      "prix": {
        "Gazole": 0.002169,
        "E85": 0.000819,
        "GPLc": 0.0010580000000000001,
        "E10": 0.0019690000000000003,
        "SP98": 0.002059
      },
      "maj_gouv": {
        "Gazole": "2026-04-30 08:59:42",
        "E85": "2026-04-17 11:52:40",
        "GPLc": "2026-04-24 09:36:17",
        "E10": "2026-04-30 08:59:42",
        "SP98": "2026-04-30 08:59:42"
      }
    },
    {
      "id": "56320001",
      "lat": 48.036,
      "lon": -3.494,
      "cp": "56320",
      "ville": "LE FAOUëT",
      "prix": {
        "Gazole": 0.00212,
        "SP95": 0.00199
      },
      "maj_gouv": {
        "Gazole": "2026-04-27 08:00:00",
        "SP95": "2026-04-27 08:00:00"
      }
    },
    {
      "id": "56190011",
      "lat": 47.56016876,
      "lon": -2.50584059,
      "cp": "56190",
      "ville": "Ambon",
      "prix": {
        "Gazole": 0.0021680000000000002,
        "SP95": 0.0020099999999999996,
        "E85": 0.00099,
        "GPLc": 0.00099,
        "SP98": 0.00209
      },
      "maj_gouv": {
        "Gazole": "2026-04-30 11:29:59",
        "SP95": "2026-04-30 11:29:59",
        "E85": "2026-04-08 14:17:03",
        "GPLc": "2026-04-08 14:17:03",
        "SP98": "2026-04-30 11:29:59"
      }
    }
  ]
}