{
  "departement": "92",
  "date": "2026-05-01",
  "stations": [
    {
      "id": "92230008",
      "lat": 48.9327,
      "lon": 2.3044,
      "cp": "92230",
      "ville": "GENNEVILLIERS",
      "prix": {
        "Gazole": 0.002199,
        "SP95": 0.002079,
        "E10": 0.002029,
        "SP98": 0.0021190000000000002
      },
      "maj_gouv": {
        "Gazole": "2026-04-30 10:28:19",
        "SP95": "2026-04-30 10:28:19",
        "E10": "2026-04-30 10:28:19",
        "SP98": "2026-04-30 10:28:20"
      }
    },
    {
      "id": "92242003",
      "lat": 48.821,
      "lon": 2.312,
      "cp": "92242",
      "ville": "MALAKOFF",
      "prix": {
        "Gazole": 0.00209,
        "E85": 0.000929,
        "E10": 0.00199,
        "SP98": 0.00199
      },
      "maj_gouv": {
        "Gazole": "2026-05-01 03:20:00",
        "E85": "2026-05-01 03:20:00",
        "E10": "2026-05-01 03:20:00",
        "SP98": "2026-05-01 03:20:00"
      }
    },
    {
      "id": "92160006",
      "lat": 48.738,
      "lon": 2.295,
      "cp": "92160",
      "ville": "ANTONY",
      "prix": {
        "Gazole": 0.0022389999999999997,
        "E10": 0.00199,
        "SP98": 0.00199
      },
      "maj_gouv": {
        "Gazole": "2026-05-01 02:30:00",
        "E10": "2026-05-01 02:30:00",
        "SP98": "2026-05-01 02:30:00"
      }
    },
    {
      "id": "92170002",
      "lat": 48.82274,
      "lon": 2.29497,
      "cp": "92170",
      "ville": "VANVES",
      "prix": {
        "Gazole": 0.00209,
        "E85": 0.000929,
        "E10": 0.00199
      },
      "maj_gouv": {
        "Gazole": "2026-05-01 03:20:00",
        "E85": "2026-05-01 03:20:00",
        "E10": "2026-05-01 03:20:00"
      }
    },
    {
      "id": "92130005",
      "lat": 48.818,
      "lon": 2.277,
      "cp": "92130",
      "ville": "Issy-les-Moulineaux",
      "prix": {
        "Gazole": 0.00225,
        "E85": 0.0009360000000000001,
        "E10": 0.00199,
        "SP98": 0.00207
      },
      "maj_gouv": {
        "Gazole": "2026-04-30 07:46:00",
        "E85": "2026-04-30 07:46:00",
        "E10": "2026-04-30 07:46:00",
        "SP98": "2026-04-30 07:46:00"
      }
    },
    {
      "id": "92140005",
      "lat": 48.78,
      "lon": 2.238,
      "cp": "92140",
      "ville": "Clamart",
      "prix": {
        "Gazole": 0.00225,
        "E85": 0.0009360000000000001,
        "E10": 0.00199,
        "SP98": 0.002095
      },
      "maj_gouv": {
        "Gazole": "2026-05-01 06:31:00",
        "E85": "2026-05-01 06:31:00",
        "E10": "2026-05-01 06:31:00",
        "SP98": "2026-05-01 06:31:00"
      }
    },
    {
      "id": "92260001",
      "lat": 48.793,
      "lon": 2.29,
      "cp": "92260",
      "ville": "Fontenay-aux-Roses",
      "prix": {
        "Gazole": 0.00225,
        "E85": 0.0009310000000000001,
        "E10": 0.00199,
        "SP98": 0.00207
      },
      "maj_gouv": {
        "Gazole": "2026-04-30 07:46:00",
        "E85": "2026-04-30 07:46:00",
        "E10": "2026-04-30 07:46:00",
        "SP98": "2026-04-30 07:46:00"
      }
    },
    {
      "id": "92210003",
      "lat": 48.842,
      "lon": 2.202,
      "cp": "92210",
      "ville": "Saint-Cloud",
      "prix": {
        "Gazole": 0.0022519999999999997,
        "E10": 0.002008,
        "SP98": 0.0021190000000000002
      },
      "maj_gouv": {
        "Gazole": "2026-05-01 06:31:00",
        "E10": "2026-05-01 06:31:00",
        "SP98": "2026-05-01 06:31:00"
      }
    },
    {
      "id": "92410001",
      "lat": 48.819,
      "lon": 2.168,
      "cp": "92410",
      "ville": "Ville-d'Avray",
      "prix": {
        "Gazole": 0.00225,
        "E10": 0.00199,
        "SP98": 0.002045
      },
      "maj_gouv": {
        "Gazole": "2026-04-30 07:46:00",
        "E10": "2026-04-30 07:46:00",
        "SP98": "2026-04-30 07:46:00"
      }
    },
    {
      "id": "92230010",
      "lat": 48.92082,
      "lon": 2.30617,
      "cp": "92230",
      "ville": "GENNEVILLIERS",
      "prix": {},
      "maj_gouv": {}
    },
    {
      "id": "92110010",
      "lat": 48.907,
      "lon": 2.301,
      "cp": "92110",
      "ville": "CLICHY",
      "prix": {
        "Gazole": 0.00209,
        "E85": 0.000909,
        "E10": 0.00199,
        "SP98": 0.00199
      },
      "maj_gouv": {
        "Gazole": "2026-05-01 03:20:00",
        "E85": "2026-05-01 03:20:00",
        "E10": "2026-05-01 03:20:00",
        "SP98": "2026-05-01 03:20:00"
      }
    },
    {
      "id": "92130006",
      "lat": 48.827841660000004,
      "lon": 2.2713364300000003,
      "cp": "92130",
      "ville": "Issy-les-Moulineaux",
      "prix": {
        "Gazole": 0.00225,
        "E10": 0.00199,
        "SP98": 0.00199
      },
      "maj_gouv": {
        "Gazole": "2026-05-01 02:30:00",
        "E10": "2026-05-01 02:30:00",
        "SP98": "2026-05-01 02:30:00"
      }
    },
    {
      "id": "92000017",
      "lat": 48.887798608721,
      "lon": 2.1893396219249,
      "cp": "92000",
      "ville": "NANTERRE",
      "prix": {
        "Gazole": 0.00209,
        "E85": 0.000925,
        "GPLc": 0.001119,
        "E10": 0.00199,
        "SP98": 0.00199
      },
      "maj_gouv": {
        "Gazole": "2026-05-01 03:20:00",
        "E85": "2026-05-01 03:20:00",
        "GPLc": "2026-05-01 03:20:00",
        "E10": "2026-05-01 03:20:00",
        "SP98": "2026-05-01 03:20:00"
      }
    },
    {
      "id": "92250002",
      "lat": 48.906,
      "lon": 2.236,
      "cp": "92250",
      "ville": "La Garenne-Colombes",
      "prix": {
        "Gazole": 0.0022589999999999997,
        "E85": 0.000945,
        "E10": 0.001999,
        "SP98": 0.002079
      },
      "maj_gouv": {
        "Gazole": "2026-04-30 07:46:00",
        "E85": "2026-04-30 07:46:00",
        "E10": "2026-04-30 07:46:00",
        "SP98": "2026-04-30 07:46:00"
      }
    },
    {
      "id": "92160003",
      "lat": 48.753,
      "lon": 2.308,
      "cp": "92160",
      "ville": "Antony",
      "prix": {
        "Gazole": 0.0022389999999999997,
        "E85": 0.0009360000000000001,
        "E10": 0.00199,
        "SP98": 0.00209
      },
      "maj_gouv": {
        "Gazole": "2026-05-01 06:31:00",
        "E85": "2026-05-01 06:31:00",
        "E10": "2026-05-01 06:31:00",
        "SP98": "2026-05-01 06:31:00"
      }
    },
    {
      "id": "92700024",
      "lat": 48.926,
      "lon": 2.253,
      "cp": "92700",
      "ville": "COLOMBES",
      "prix": {
        "Gazole": 0.002269,
        "E10": 0.002059,
        "SP98": 0.002209
      },
      "maj_gouv": {
        "Gazole": "2026-05-01 06:24:05",
        "E10": "2026-05-01 06:24:05",
        "SP98": "2026-05-01 06:24:05"
      }
    },
    {
      "id": "92300013",
      "lat": 48.899,
      "lon": 2.294,
      "cp": "92300",
      "ville": "Levallois-Perret",
      "prix": {
        "Gazole": 0.002229,
        "E10": 0.002059
      },
      "maj_gouv": {
        "Gazole": "2026-04-30 11:12:22",
        "E10": "2026-04-30 11:12:22"
      }
    },
    {
      "id": "92210009",
      "lat": 48.855,
      "lon": 2.223,
      "cp": "92210",
      "ville": "Saint-Cloud",
      "prix": {
        "Gazole": 0.00209,
        "E85": 0.000919,
        "GPLc": 0.001099,
        "E10": 0.00199
      },
      "maj_gouv": {
        "Gazole": "2026-05-01 03:20:00",
        "E85": "2026-05-01 03:20:00",
        "GPLc": "2026-05-01 03:20:00",
        "E10": "2026-05-01 03:20:00"
      }
    },
    {
      "id": "92140014",
      "lat": 48.785,
      "lon": 2.251,
      "cp": "92140",
      "ville": "CLAMART",
      "prix": {
        "Gazole": 0.00209,
        "E10": 0.00199,
        "SP98": 0.00199
      },
      "maj_gouv": {
        "Gazole": "2026-05-01 03:20:00",
        "E10": "2026-05-01 03:20:00",
        "SP98": "2026-05-01 03:20:00"
      }
    },
    {
      "id": "92000021",
      "lat": 48.881,
      "lon": 2.206,
      "cp": "92000",
      "ville": "NANTERRE",
      "prix": {
        "Gazole": 0.00225,
        "E10": 0.00199
      },
      "maj_gouv": {
        "Gazole": "2026-05-01 02:30:00",
        "E10": "2026-05-01 02:30:00"
      }
    },
    {
      "id": "92150008",
      "lat": 48.862,
      "lon": 2.216,
      "cp": "92150",
      "ville": "Suresnes",
      "prix": {
        "Gazole": 0.002229,
        "E10": 0.002059,
        "SP98": 0.002229
      },
      "maj_gouv": {
        "Gazole": "2026-04-30 11:26:39",
        "E10": "2026-04-30 11:26:39",
        "SP98": "2026-04-30 11:26:39"
      }
    },
    {
      "id": "92390001",
      "lat": 48.935,
      "lon": 2.331,
      "cp": "92390",
      "ville": "Villeneuve-la-Garenne",
      "prix": {
        "Gazole": 0.002339,
        "E10": 0.002199,
        "SP98": 0.002379
      },
      "maj_gouv": {
        "Gazole": "2026-04-30 11:30:41",
        "E10": "2026-04-30 11:30:41",
        "SP98": "2026-04-30 11:30:41"
      }
    },
    {
      "id": "92000015",
      "lat": 48.888,
      "lon": 2.188,
      "cp": "92000",
      "ville": "Nanterre",
      "prix": {
        "Gazole": 0.002339,
        "E85": 0.0010689999999999999,
        "E10": 0.002159,
        "SP98": 0.0023090000000000003
      },
      "maj_gouv": {
        "Gazole": "2026-05-01 06:23:06",
        "E85": "2026-05-01 06:23:05",
        "E10": "2026-05-01 06:23:05",
        "SP98": "2026-05-01 06:23:06"
      }
    },
    {
      "id": "92400020",
      "lat": 48.9,
      "lon": 2.261,
      "cp": "92400",
      "ville": "COURBEVOIE",
      "prix": {
        "Gazole": 0.00209,
        "E10": 0.00199
      },
      "maj_gouv": {
        "Gazole": "2026-05-01 03:20:00",
        "E10": "2026-05-01 03:20:00"
      }
    },
    {
      "id": "92800007",
      "lat": 48.88,
      "lon": 2.245,
      "cp": "92800",
      "ville": "PUTEAUX",
      "prix": {
        "Gazole": 0.0022589999999999997,
        "E10": 0.002079
      },
      "maj_gouv": {
        "Gazole": "2026-04-30 11:27:59",
        "E10": "2026-04-30 11:27:59"
      }
    },
    {
      "id": "92330002",
      "lat": 48.774,
      "lon": 2.28,
      "cp": "92330",
      "ville": "SCEAUX",
      "prix": {
        "Gazole": 0.002359,
        "E10": 0.002099,
        "SP98": 0.0022789999999999998
      },
      "maj_gouv": {
        "Gazole": "2026-04-30 11:33:21",
        "E10": "2026-04-30 11:33:21",
        "SP98": "2026-04-30 11:33:21"
      }
    },
    {
      "id": "92700023",
      "lat": 48.911,
      "lon": 2.235,
      "cp": "92700",
      "ville": "COLOMBES",
      "prix": {
        "Gazole": 0.002299,
        "E85": 0.0010789999999999999,
        "E10": 0.0021190000000000002,
        "SP98": 0.0022890000000000002
      },
      "maj_gouv": {
        "Gazole": "2026-05-01 06:23:02",
        "E85": "2026-05-01 06:23:02",
        "E10": "2026-05-01 06:23:02",
        "SP98": "2026-05-01 06:23:03"
      }
    },
    {
      "id": "92400013",
      "lat": 48.902,
      "lon": 2.278,
      "cp": "92400",
      "ville": "Courbevoie",
      "prix": {
        "Gazole": 0.002269,
        "E10": 0.002059,
        "SP98": 0.002189
      },
      "maj_gouv": {
        "Gazole": "2026-04-30 11:12:54",
        "E10": "2026-04-30 11:12:54",
        "SP98": "2026-04-30 11:12:54"
      }
    },
    {
      "id": "92100014",
      "lat": 48.83585,
      "lon": 2.23898,
      "cp": "92100",
      "ville": "BOULOGNE BILLANCOURT",
      "prix": {
        "Gazole": 0.00209,
        "E10": 0.00199,
        "SP98": 0.00199
      },
      "maj_gouv": {
        "Gazole": "2026-05-01 03:20:00",
        "E10": "2026-05-01 03:20:00",
        "SP98": "2026-05-01 03:20:00"
      }
    },
    {
      "id": "92100010",
      "lat": 48.83468,
      "lon": 2.24193,
      "cp": "92100",
      "ville": "Boulogne-Billancourt",
      "prix": {
        "Gazole": 0.00225,
        "SP95": 0.00199,
        "SP98": 0.00199
      },
      "maj_gouv": {
        "Gazole": "2026-04-08 21:27:45",
        "SP95": "2026-03-30 18:30:46",
        "SP98": "2026-03-30 18:31:27"
      }
    },
    {
      "id": "92500013",
      "lat": 48.868,
      "lon": 2.191,
      "cp": "92500",
      "ville": "Rueil-Malmaison",
      "prix": {
        "Gazole": 0.00225,
        "E10": 0.00199,
        "SP98": 0.00199
      },
      "maj_gouv": {
        "Gazole": "2026-05-01 02:30:00",
        "E10": "2026-05-01 02:30:00",
        "SP98": "2026-05-01 02:30:00"
      }
    },
    {
      "id": "92000024",
      "lat": 48.886,
      "lon": 2.222,
      "cp": "92000",
      "ville": "NANTERRE",
      "prix": {},
      "maj_gouv": {}
    },
    {
      "id": "92240010",
      "lat": 48.82,
      "lon": 2.305,
      "cp": "92240",
      "ville": "Malakoff",
      "prix": {
        "Gazole": 0.002319,
        "E85": 0.001089,
        "E10": 0.002149,
        "SP98": 0.0022789999999999998
      },
      "maj_gouv": {
        "Gazole": "2026-04-30 11:31:41",
        "E85": "2026-04-30 11:31:41",
        "E10": "2026-04-30 11:31:41",
        "SP98": "2026-04-30 11:31:41"
      }
    },
    {
      "id": "92120002",
      "lat": 48.81468,
      "lon": 2.32592,
      "cp": "92120",
      "ville": "MONTROUGE",
      "prix": {
        "Gazole": 0.0023290000000000003,
        "E85": 0.000999,
        "GPLc": 0.001199,
        "E10": 0.002199,
        "SP98": 0.0023490000000000004
      },
      "maj_gouv": {
        "Gazole": "2026-04-23 08:35:26",
        "E85": "2026-04-23 08:35:27",
        "GPLc": "2026-04-23 08:35:27",
        "E10": "2026-04-23 08:35:27",
        "SP98": "2026-04-23 08:35:27"
      }
    },
    {
      "id": "92120004",
      "lat": 48.813,
      "lon": 2.357,
      "cp": "92120",
      "ville": "MONTROUGE",
      "prix": {
        "Gazole": 0.0023090000000000003,
        "E85": 0.001109,
        "E10": 0.002179,
        "SP98": 0.0023490000000000004
      },
      "maj_gouv": {
        "Gazole": "2026-05-01 06:23:04",
        "E85": "2026-05-01 06:23:04",
        "E10": "2026-05-01 06:23:04",
        "SP98": "2026-05-01 06:23:04"
      }
    },
    {
      "id": "92200006",
      "lat": 48.882,
      "lon": 2.28,
      "cp": "92200",
      "ville": "NEUILLY",
      "prix": {
        "Gazole": 0.002569
      },
      "maj_gouv": {
        "Gazole": "2026-04-30 16:54:19"
      }
    },
    {
      "id": "92500015",
      "lat": 48.862,
      "lon": 2.184,
      "cp": "92500",
      "ville": "RUEIL MALMAISON",
      "prix": {
        "Gazole": 0.0022890000000000002,
        "E10": 0.002059,
        "SP98": 0.002229
      },
      "maj_gouv": {
        "Gazole": "2026-04-30 11:18:03",
        "E10": "2026-04-30 11:18:03",
        "SP98": "2026-04-30 11:18:02"
      }
    },
    {
      "id": "92800008",
      "lat": 48.883,
      "lon": 2.248,
      "cp": "92800",
      "ville": "PUTEAUX",
      "prix": {
        "Gazole": 0.0022589999999999997,
        "E10": 0.002059,
        "SP98": 0.002189
      },
      "maj_gouv": {
        "Gazole": "2026-04-30 11:13:02",
        "E10": "2026-04-30 11:13:02",
        "SP98": "2026-04-30 11:13:02"
      }
    },
    {
      "id": "92000020",
      "lat": 48.88327,
      "lon": 2.2039052,
      "cp": "92000",
      "ville": "NANTERRE",
      "prix": {
        "Gazole": 0.00209,
        "E10": 0.00199,
        "SP98": 0.00199
      },
      "maj_gouv": {
        "Gazole": "2026-05-01 03:20:00",
        "E10": "2026-05-01 03:20:00",
        "SP98": "2026-05-01 03:20:00"
      }
    },
    {
      "id": "92340002",
      "lat": 48.786,
      "lon": 2.317,
      "cp": "92340",
      "ville": "Bourg-la-Reine",
      "prix": {
        "Gazole": 0.00209,
        "E10": 0.00199,
        "SP98": 0.00199
      },
      "maj_gouv": {
        "Gazole": "2026-05-01 03:20:00",
        "E10": "2026-05-01 03:20:00",
        "SP98": "2026-05-01 03:20:00"
      }
    },
    {
      "id": "92100015",
      "lat": 48.84,
      "lon": 2.231,
      "cp": "92100",
      "ville": "BOULOGNE BILLANCOURT",
      "prix": {
        "Gazole": 0.00209,
        "E85": 0.000925,
        "E10": 0.00199
      },
      "maj_gouv": {
        "Gazole": "2026-05-01 03:20:00",
        "E85": "2026-05-01 03:20:00",
        "E10": "2026-05-01 03:20:00"
      }
    },
    {
      "id": "92100016",
      "lat": 48.826,
      "lon": 2.248,
      "cp": "92100",
      "ville": "Boulogne-Billancourt",
      "prix": {
        "Gazole": 0.0023490000000000004,
        "E10": 0.002179,
        "SP98": 0.002359
      },
      "maj_gouv": {
        "Gazole": "2026-05-01 06:23:22",
        "E10": "2026-05-01 06:23:22",
        "SP98": "2026-05-01 06:23:22"
      }
    },
    {
      "id": "92210008",
      "lat": 48.845,
      "lon": 2.21,
      "cp": "92210",
      "ville": "SAINT-CLOUD",
      "prix": {
        "Gazole": 0.0022890000000000002,
        "E85": 0.001109,
        "E10": 0.002059,
        "SP98": 0.002229
      },
      "maj_gouv": {
        "Gazole": "2026-04-30 11:17:43",
        "E85": "2026-04-30 11:17:42",
        "E10": "2026-04-30 11:17:42",
        "SP98": "2026-04-30 11:17:42"
      }
    },
    {
      "id": "92240001",
      "lat": 48.81915,
      "lon": 2.29591,
      "cp": "92240",
      "ville": "MALAKOFF",
      "prix": {
        "Gazole": 0.002359,
        "E10": 0.002129,
        "SP98": 0.002199
      },
      "maj_gouv": {
        "Gazole": "2026-04-28 07:00:00",
        "E10": "2026-04-28 07:00:00",
        "SP98": "2026-04-25 07:00:00"
      }
    },
    {
      "id": "92140009",
      "lat": 48.812,
      "lon": 2.271,
      "cp": "92140",
      "ville": "CLAMART",
      "prix": {
        "Gazole": 0.002319,
        "E10": 0.002139,
        "SP98": 0.002319
      },
      "maj_gouv": {
        "Gazole": "2026-04-30 11:33:19",
        "E10": "2026-04-30 11:33:19",
        "SP98": "2026-04-30 11:33:19"
      }
    },
    {
      "id": "92300014",
      "lat": 48.896,
      "lon": 2.287,
      "cp": "92300",
      "ville": "Levallois-Perret",
      "prix": {
        "Gazole": 0.0022589999999999997,
        "E10": 0.002089,
        "SP98": 0.002269
      },
      "maj_gouv": {
        "Gazole": "2026-04-30 11:17:22",
        "E10": "2026-04-30 11:17:22",
        "SP98": "2026-04-30 11:17:22"
      }
    },
    {
      "id": "92160001",
      "lat": 48.74,
      "lon": 2.315,
      "cp": "92160",
      "ville": "ANTONY",
      "prix": {
        "Gazole": 0.00218,
        "E85": 0.0009360000000000001,
        "GPLc": 0.001009,
        "E10": 0.002,
        "SP98": 0.002137
      },
      "maj_gouv": {
        "Gazole": "2026-04-30 13:55:08",
        "E85": "2026-04-30 13:55:08",
        "GPLc": "2026-04-30 13:55:08",
        "E10": "2026-04-30 13:55:08",
        "SP98": "2026-04-30 13:55:09"
      }
    },
    {
      "id": "92500017",
      "lat": 48.8706222,
      "lon": 2.1804532,
      "cp": "92500",
      "ville": "Rueil-Malmaison",
      "prix": {
        "Gazole": 0.0023290000000000003,
        "E85": 0.000995,
        "E10": 0.002149,
        "SP98": 0.0022589999999999997
      },
      "maj_gouv": {
        "Gazole": "2026-04-30 11:48:32",
        "E85": "2026-04-30 11:48:33",
        "E10": "2026-04-30 11:48:33",
        "SP98": "2026-04-30 11:48:33"
      }
    },
    {
      "id": "92400018",
      "lat": 48.89685,
      "lon": 2.25419,
      "cp": "92400",
      "ville": "COURBEVOIE",
      "prix": {
        "Gazole": 0.00225,
        "E10": 0.00199,
        "SP98": 0.00199
      },
      "maj_gouv": {
        "Gazole": "2026-05-01 02:30:00",
        "E10": "2026-05-01 02:30:00",
        "SP98": "2026-05-01 02:30:00"
      }
    },
    {
      "id": "92140016",
      "lat": 48.794,
      "lon": 2.252,
      "cp": "92140",
      "ville": "CLAMART",
      "prix": {
        "Gazole": 0.00209,
        "E85": 0.000919,
        "E10": 0.00199,
        "SP98": 0.00199
      },
      "maj_gouv": {
        "Gazole": "2026-05-01 03:20:00",
        "E85": "2026-05-01 03:20:00",
        "E10": "2026-05-01 03:20:00",
        "SP98": "2026-05-01 03:20:00"
      }
    },
    {
      "id": "92380007",
      "lat": 48.851,
      "lon": 2.204,
      "cp": "92380",
      "ville": "GARCHES",
      "prix": {
        "Gazole": 0.0022789999999999998,
        "E10": 0.002059,
        "SP98": 0.002209
      },
      "maj_gouv": {
        "Gazole": "2026-04-30 11:16:21",
        "E10": "2026-04-30 11:16:21",
        "SP98": "2026-04-30 11:16:21"
      }
    },
    {
      "id": "92220010",
      "lat": 48.785,
      "lon": 2.305,
      "cp": "92220",
      "ville": "BAGNEUX",
      "prix": {
        "Gazole": 0.0022890000000000002,
        "E85": 0.001099,
        "E10": 0.002109,
        "SP98": 0.0023090000000000003
      },
      "maj_gouv": {
        "Gazole": "2026-04-30 11:31:39",
        "E85": "2026-04-30 11:31:39",
        "E10": "2026-04-30 11:31:40",
        "SP98": "2026-04-30 11:31:39"
      }
    },
    {
      "id": "92220009",
      "lat": 48.797,
      "lon": 2.298,
      "cp": "92220",
      "ville": "Bagneux",
      "prix": {
        "Gazole": 0.0023090000000000003,
        "E10": 0.002139,
        "SP98": 0.002269
      },
      "maj_gouv": {
        "Gazole": "2026-04-30 11:31:21",
        "E10": "2026-04-30 11:31:21",
        "SP98": "2026-04-30 11:31:21"
      }
    },
    {
      "id": "92110011",
      "lat": 48.9,
      "lon": 2.317,
      "cp": "92110",
      "ville": "CLICHY",
      "prix": {
        "Gazole": 0.00225
      },
      "maj_gouv": {
        "Gazole": "2026-05-01 02:30:00"
      }
    },
    {
      "id": "92400016",
      "lat": 48.894,
      "lon": 2.26,
      "cp": "92400",
      "ville": "COURBEVOIE",
      "prix": {
        "Gazole": 0.00209,
        "E85": 0.000925,
        "E10": 0.00199,
        "SP98": 0.00199
      },
      "maj_gouv": {
        "Gazole": "2026-05-01 03:20:00",
        "E85": "2026-05-01 03:20:00",
        "E10": "2026-05-01 03:20:00",
        "SP98": "2026-05-01 03:20:00"
      }
    },
    {
      "id": "92190003",
      "lat": 48.813200300000005,
      "lon": 2.21690094,
      "cp": "92190",
      "ville": "MEUDON",
      "prix": {
        "Gazole": 0.00209,
        "E10": 0.00199
      },
      "maj_gouv": {
        "Gazole": "2026-05-01 03:20:00",
        "E10": "2026-05-01 03:20:00"
      }
    },
    {
      "id": "92600007",
      "lat": 48.915,
      "lon": 2.283,
      "cp": "92600",
      "ville": "ASNIèRES-SUR-SEINE",
      "prix": {
        "Gazole": 0.002299,
        "E10": 0.002139,
        "SP98": 0.002269
      },
      "maj_gouv": {
        "Gazole": "2026-04-30 11:30:02",
        "E10": "2026-04-30 11:30:02",
        "SP98": "2026-04-30 11:30:02"
      }
    },
    {
      "id": "92230003",
      "lat": 48.926,
      "lon": 2.292,
      "cp": "92230",
      "ville": "GENNEVILLIERS",
      "prix": {
        "Gazole": 0.00215,
        "E10": 0.00199,
        "SP98": 0.001999
      },
      "maj_gouv": {
        "Gazole": "2026-04-24 11:18:00",
        "E10": "2026-04-24 11:18:01",
        "SP98": "2026-04-24 11:18:01"
      }
    },
    {
      "id": "92420002",
      "lat": 48.839,
      "lon": 2.166,
      "cp": "92420",
      "ville": "VAUCRESSON",
      "prix": {
        "Gazole": 0.002206,
        "SP95": 0.002059,
        "E10": 0.0019890000000000003,
        "SP98": 0.002069
      },
      "maj_gouv": {
        "Gazole": "2026-04-30 07:20:00",
        "SP95": "2026-04-30 07:20:00",
        "E10": "2026-04-30 07:20:00",
        "SP98": "2026-04-30 07:20:00"
      }
    },
    {
      "id": "92000018",
      "lat": 48.919,
      "lon": 2.223,
      "cp": "92000",
      "ville": "NANTERRE",
      "prix": {
        "Gazole": 0.00209,
        "E85": 0.0009040000000000001,
        "GPLc": 0.001119,
        "E10": 0.00199,
        "SP98": 0.00199
      },
      "maj_gouv": {
        "Gazole": "2026-05-01 03:20:00",
        "E85": "2026-05-01 03:20:00",
        "GPLc": "2026-05-01 03:20:00",
        "E10": "2026-05-01 03:20:00",
        "SP98": "2026-05-01 03:20:00"
      }
    },
    {
      "id": "92600009",
      "lat": 48.92,
      "lon": 2.313,
      "cp": "92600",
      "ville": "Asnières-sur-Seine",
      "prix": {
        "Gazole": 0.00209,
        "E10": 0.00199
      },
      "maj_gouv": {
        "Gazole": "2026-05-01 03:20:00",
        "E10": "2026-05-01 03:20:00"
      }
    },
    {
      "id": "92400017",
      "lat": 48.902,
      "lon": 2.259,
      "cp": "92400",
      "ville": "COURBEVOIE",
      "prix": {
        "Gazole": 0.00209,
        "E85": 0.000925,
        "GPLc": 0.001119,
        "E10": 0.00199
      },
      "maj_gouv": {
        "Gazole": "2026-05-01 03:20:00",
        "E85": "2026-05-01 03:20:00",
        "GPLc": "2026-05-01 03:20:00",
        "E10": "2026-05-01 03:20:00"
      }
    },
    {
      "id": "92200005",
      "lat": 48.8836134,
      "lon": 2.2725178,
      "cp": "92200",
      "ville": "Neuilly-sur-Seine",
      "prix": {
        "Gazole": 0.00209,
        "E10": 0.00199,
        "SP98": 0.00199
      },
      "maj_gouv": {
        "Gazole": "2026-05-01 03:20:00",
        "E10": "2026-05-01 03:20:00",
        "SP98": "2026-05-01 03:20:00"
      }
    },
    {
      "id": "92140015",
      "lat": 48.793,
      "lon": 2.253,
      "cp": "92140",
      "ville": "CLAMART",
      "prix": {
        "Gazole": 0.00225,
        "E85": 0.000919,
        "E10": 0.00199,
        "SP98": 0.00199
      },
      "maj_gouv": {
        "Gazole": "2026-05-01 02:30:00",
        "E85": "2026-05-01 02:30:00",
        "E10": "2026-05-01 02:30:00",
        "SP98": "2026-05-01 02:30:00"
      }
    },
    {
      "id": "92000028",
      "lat": 48.881646674498,
      "lon": 2.2056817155373,
      "cp": "92000",
      "ville": "Nanterre",
      "prix": {
        "Gazole": 0.0022429999999999998,
        "E10": 0.00199,
        "SP98": 0.00199
      },
      "maj_gouv": {
        "Gazole": "2026-04-11 14:47:41",
        "E10": "2026-04-11 14:47:41",
        "SP98": "2026-04-11 14:47:41"
      }
    },
    {
      "id": "92500012",
      "lat": 48.86843,
      "lon": 2.19878,
      "cp": "92500",
      "ville": "Rueil-Malmaison",
      "prix": {
        "Gazole": 0.00225,
        "E10": 0.00199
      },
      "maj_gouv": {
        "Gazole": "2026-05-01 02:30:00",
        "E10": "2026-05-01 02:30:00"
      }
    },
    {
      "id": "92230011",
      "lat": 48.932,
      "lon": 2.29,
      "cp": "92230",
      "ville": "GENNEVILLIERS",
      "prix": {
        "Gazole": 0.00209,
        "E85": 0.000909,
        "E10": 0.00199,
        "SP98": 0.00199
      },
      "maj_gouv": {
        "Gazole": "2026-05-01 03:20:00",
        "E85": "2026-05-01 03:20:00",
        "E10": "2026-05-01 03:20:00",
        "SP98": "2026-05-01 03:20:00"
      }
    },
    {
      "id": "92000019",
      "lat": 48.888,
      "lon": 2.19,
      "cp": "92000",
      "ville": "NANTERRE",
      "prix": {
        "Gazole": 0.00209,
        "E85": 0.000903,
        "E10": 0.00199,
        "SP98": 0.00199
      },
      "maj_gouv": {
        "Gazole": "2026-05-01 03:20:00",
        "E85": "2026-05-01 03:20:00",
        "E10": "2026-05-01 03:20:00",
        "SP98": "2026-05-01 03:20:00"
      }
    }
  ]
}