{
  "departement": "94",
  "date": "2026-05-01",
  "stations": [
    {
      "id": "94420001",
      "lat": 48.813,
      "lon": 2.566,
      "cp": "94420",
      "ville": "Le Plessis-Trévise",
      "prix": {
        "Gazole": 0.00225,
        "E10": 0.00199,
        "SP98": 0.00199
      },
      "maj_gouv": {
        "Gazole": "2026-04-23 07:44:48",
        "E10": "2026-03-12 07:35:15",
        "SP98": "2026-03-04 07:21:42"
      }
    },
    {
      "id": "94800008",
      "lat": 48.785417567889,
      "lon": 2.366599755323,
      "cp": "94800",
      "ville": "VILLEJUIF",
      "prix": {
        "Gazole": 0.002246,
        "E85": 0.000914,
        "E10": 0.00199,
        "SP98": 0.00199
      },
      "maj_gouv": {
        "Gazole": "2026-05-01 02:30:00",
        "E85": "2026-05-01 02:30:00",
        "E10": "2026-05-01 02:30:00",
        "SP98": "2026-05-01 02:30:00"
      }
    },
    {
      "id": "94100006",
      "lat": 48.799,
      "lon": 2.5,
      "cp": "94100",
      "ville": "Saint-Maur-des-Fossés",
      "prix": {
        "Gazole": 0.00225,
        "E10": 0.00199,
        "SP98": 0.00207
      },
      "maj_gouv": {
        "Gazole": "2026-04-30 07:46:00",
        "E10": "2026-04-30 07:46:00",
        "SP98": "2026-04-30 07:46:00"
      }
    },
    {
      "id": "94000004",
      "lat": 48.791,
      "lon": 2.462,
      "cp": "94000",
      "ville": "Créteil",
      "prix": {
        "Gazole": 0.002195,
        "E85": 0.000934,
        "E10": 0.0020139999999999997,
        "SP98": 0.002094
      },
      "maj_gouv": {
        "Gazole": "2026-04-30 16:16:00",
        "E85": "2026-04-30 16:16:00",
        "E10": "2026-04-30 16:16:00",
        "SP98": "2026-04-30 16:16:00"
      }
    },
    {
      "id": "94170002",
      "lat": 48.851,
      "lon": 2.495,
      "cp": "94170",
      "ville": "Le Perreux-sur-Marne",
      "prix": {
        "Gazole": 0.0022480000000000004,
        "E85": 0.0009419999999999999,
        "E10": 0.00199,
        "SP98": 0.00207
      },
      "maj_gouv": {
        "Gazole": "2026-05-01 06:31:00",
        "E85": "2026-05-01 06:31:00",
        "E10": "2026-05-01 06:31:00",
        "SP98": "2026-05-01 06:31:00"
      }
    },
    {
      "id": "94190002",
      "lat": 48.754,
      "lon": 2.45,
      "cp": "94190",
      "ville": "Villeneuve-Saint-Georges",
      "prix": {
        "Gazole": 0.002195,
        "E10": 0.0020139999999999997,
        "SP98": 0.002094
      },
      "maj_gouv": {
        "Gazole": "2026-05-01 00:30:00",
        "E10": "2026-05-01 00:30:00",
        "SP98": "2026-05-01 00:30:00"
      }
    },
    {
      "id": "94250001",
      "lat": 48.814,
      "lon": 2.348,
      "cp": "94250",
      "ville": "Gentilly",
      "prix": {
        "Gazole": 0.0022679999999999996,
        "E10": 0.002098,
        "SP98": 0.002178
      },
      "maj_gouv": {
        "Gazole": "2026-04-30 07:46:00",
        "E10": "2026-04-30 07:46:00",
        "SP98": "2026-04-30 07:46:00"
      }
    },
    {
      "id": "94380002",
      "lat": 48.765,
      "lon": 2.478,
      "cp": "94380",
      "ville": "Bonneuil-sur-Marne",
      "prix": {
        "Gazole": 0.002241,
        "E10": 0.00199,
        "SP98": 0.00207
      },
      "maj_gouv": {
        "Gazole": "2026-05-01 00:30:00",
        "E10": "2026-05-01 00:30:00",
        "SP98": "2026-05-01 00:30:00"
      }
    },
    {
      "id": "94370003",
      "lat": 48.773,
      "lon": 2.5,
      "cp": "94370",
      "ville": "Sucy-en-Brie",
      "prix": {
        "Gazole": 0.0022589999999999997,
        "E10": 0.001999,
        "SP98": 0.002079
      },
      "maj_gouv": {
        "Gazole": "2026-04-30 07:46:00",
        "E10": "2026-04-30 07:46:00",
        "SP98": "2026-04-30 07:46:00"
      }
    },
    {
      "id": "94400003",
      "lat": 48.782,
      "lon": 2.395,
      "cp": "94400",
      "ville": "Vitry-sur-Seine",
      "prix": {
        "Gazole": 0.0022570000000000003,
        "E10": 0.001999,
        "SP98": 0.002079
      },
      "maj_gouv": {
        "Gazole": "2026-04-30 07:46:00",
        "E10": "2026-04-30 07:46:00",
        "SP98": "2026-04-30 07:46:00"
      }
    },
    {
      "id": "94600003",
      "lat": 48.768,
      "lon": 2.403,
      "cp": "94600",
      "ville": "Choisy-le-Roi",
      "prix": {
        "Gazole": 0.0022480000000000004,
        "E10": 0.00199,
        "SP98": 0.00207
      },
      "maj_gouv": {
        "Gazole": "2026-04-30 07:46:00",
        "E10": "2026-04-30 07:46:00",
        "SP98": "2026-04-30 07:46:00"
      }
    },
    {
      "id": "94700005",
      "lat": 48.802,
      "lon": 2.436,
      "cp": "94700",
      "ville": "Maisons-Alfort",
      "prix": {
        "Gazole": 0.002258,
        "E10": 0.001999,
        "SP98": 0.002079
      },
      "maj_gouv": {
        "Gazole": "2026-04-30 07:46:00",
        "E10": "2026-04-30 07:46:00",
        "SP98": "2026-04-30 07:46:00"
      }
    },
    {
      "id": "94350003",
      "lat": 48.834,
      "lon": 2.547,
      "cp": "94350",
      "ville": "VILLIERS SUR MARNE",
      "prix": {
        "Gazole": 0.002229,
        "GPLc": 0.001259,
        "E10": 0.002059,
        "SP98": 0.002209
      },
      "maj_gouv": {
        "Gazole": "2026-05-01 06:27:02",
        "GPLc": "2026-05-01 06:27:03",
        "E10": "2026-05-01 06:27:02",
        "SP98": "2026-05-01 06:27:03"
      }
    },
    {
      "id": "94430007",
      "lat": 48.799,
      "lon": 2.543,
      "cp": "94430",
      "ville": "Chennevières-sur-Marne",
      "prix": {
        "Gazole": 0.00209,
        "E85": 0.000909,
        "E10": 0.00199
      },
      "maj_gouv": {
        "Gazole": "2026-05-01 03:20:00",
        "E85": "2026-05-01 03:20:00",
        "E10": "2026-05-01 03:20:00"
      }
    },
    {
      "id": "94140004",
      "lat": 48.8043,
      "lon": 2.41212,
      "cp": "94140",
      "ville": "ALFORTVILLE",
      "prix": {
        "Gazole": 0.00209,
        "E10": 0.00199,
        "SP98": 0.00199
      },
      "maj_gouv": {
        "Gazole": "2026-05-01 03:20:00",
        "E10": "2026-05-01 03:20:00",
        "SP98": "2026-05-01 03:20:00"
      }
    },
    {
      "id": "94470006",
      "lat": 48.748,
      "lon": 2.51,
      "cp": "94470",
      "ville": "Boissy-Saint-Léger",
      "prix": {
        "Gazole": 0.002299,
        "E85": 0.001199,
        "E10": 0.002049,
        "SP98": 0.002299
      },
      "maj_gouv": {
        "Gazole": "2026-04-23 06:13:28",
        "E85": "2026-04-15 06:51:16",
        "E10": "2026-04-23 06:14:43",
        "SP98": "2026-04-15 06:51:16"
      }
    },
    {
      "id": "94000006",
      "lat": 48.79,
      "lon": 2.464,
      "cp": "94000",
      "ville": "Créteil",
      "prix": {
        "Gazole": 0.002359,
        "SP95": 0.002235,
        "SP98": 0.002326
      },
      "maj_gouv": {
        "Gazole": "2026-04-22 07:55:42",
        "SP95": "2026-04-28 14:13:36",
        "SP98": "2026-04-28 14:13:36"
      }
    },
    {
      "id": "94400005",
      "lat": 48.793,
      "lon": 2.39,
      "cp": "94400",
      "ville": "Vitry-sur-Seine",
      "prix": {
        "Gazole": 0.0022480000000000004,
        "E85": 0.000914,
        "E10": 0.00199,
        "SP98": 0.00199
      },
      "maj_gouv": {
        "Gazole": "2026-05-01 02:30:00",
        "E85": "2026-05-01 02:30:00",
        "E10": "2026-05-01 02:30:00",
        "SP98": "2026-05-01 02:30:00"
      }
    },
    {
      "id": "94537002",
      "lat": 48.75,
      "lon": 2.389,
      "cp": "94537",
      "ville": "ORLY",
      "prix": {
        "Gazole": 0.00225,
        "E10": 0.00199
      },
      "maj_gouv": {
        "Gazole": "2026-05-01 02:30:00",
        "E10": "2026-05-01 02:30:00"
      }
    },
    {
      "id": "94290003",
      "lat": 48.728739311157995,
      "lon": 2.4318446308188,
      "cp": "94290",
      "ville": "VILLENEUVE-LE-ROI",
      "prix": {
        "Gazole": 0.002247,
        "SP95": 0.0021469999999999996,
        "E10": 0.002097,
        "SP98": 0.002197
      },
      "maj_gouv": {
        "Gazole": "2026-04-30 06:54:56",
        "SP95": "2026-04-28 07:52:13",
        "E10": "2026-04-28 07:52:14",
        "SP98": "2026-04-28 07:52:14"
      }
    },
    {
      "id": "94000010",
      "lat": 48.777365166952,
      "lon": 2.4409142048333,
      "cp": "94000",
      "ville": "Créteil",
      "prix": {
        "Gazole": 0.00209,
        "E85": 0.0008990000000000001,
        "GPLc": 0.0010509999999999999,
        "E10": 0.00199,
        "SP98": 0.00199
      },
      "maj_gouv": {
        "Gazole": "2026-05-01 03:20:00",
        "E85": "2026-05-01 03:20:00",
        "GPLc": "2026-05-01 03:20:00",
        "E10": "2026-05-01 03:20:00",
        "SP98": "2026-05-01 03:20:00"
      }
    },
    {
      "id": "94003002",
      "lat": 48.77982431969,
      "lon": 2.4408683431092,
      "cp": "94000",
      "ville": "Créteil",
      "prix": {
        "Gazole": 0.00209,
        "E85": 0.000929,
        "GPLc": 0.001129,
        "E10": 0.00199,
        "SP98": 0.00199
      },
      "maj_gouv": {
        "Gazole": "2026-05-01 03:20:00",
        "E85": "2026-05-01 03:20:00",
        "GPLc": "2026-05-01 03:20:00",
        "E10": "2026-05-01 03:20:00",
        "SP98": "2026-05-01 03:20:00"
      }
    },
    {
      "id": "94000012",
      "lat": 48.753,
      "lon": 2.361,
      "cp": "94000",
      "ville": "Créteil",
      "prix": {
        "Gazole": 0.0022589999999999997,
        "E10": 0.002059,
        "SP98": 0.002229
      },
      "maj_gouv": {
        "Gazole": "2026-04-30 11:31:19",
        "E10": "2026-04-30 11:31:19",
        "SP98": "2026-04-30 11:31:19"
      }
    },
    {
      "id": "94120010",
      "lat": 48.853,
      "lon": 2.485,
      "cp": "94120",
      "ville": "Fontenay-sous-Bois",
      "prix": {
        "Gazole": 0.002249,
        "GPLc": 0.001239,
        "E10": 0.002069,
        "SP98": 0.0022389999999999997
      },
      "maj_gouv": {
        "Gazole": "2026-05-01 06:21:00",
        "GPLc": "2026-05-01 06:20:59",
        "E10": "2026-05-01 06:20:59",
        "SP98": "2026-05-01 06:20:59"
      }
    },
    {
      "id": "94310004",
      "lat": 48.74588,
      "lon": 2.38308,
      "cp": "94310",
      "ville": "ORLY",
      "prix": {
        "Gazole": 0.00209,
        "GPLc": 0.001129,
        "E10": 0.00199,
        "SP98": 0.00199
      },
      "maj_gouv": {
        "Gazole": "2026-05-01 03:20:00",
        "GPLc": "2026-05-01 03:20:00",
        "E10": "2026-05-01 03:20:00",
        "SP98": "2026-05-01 03:20:00"
      }
    },
    {
      "id": "94800007",
      "lat": 48.793,
      "lon": 2.37,
      "cp": "94800",
      "ville": "VILLEJUIF",
      "prix": {
        "Gazole": 0.00209,
        "E85": 0.000914,
        "E10": 0.00199,
        "SP98": 0.00199
      },
      "maj_gouv": {
        "Gazole": "2026-05-01 03:20:00",
        "E85": "2026-05-01 03:20:00",
        "E10": "2026-05-01 03:20:00",
        "SP98": "2026-05-01 03:20:00"
      }
    },
    {
      "id": "94400004",
      "lat": 48.794,
      "lon": 2.416,
      "cp": "94400",
      "ville": "VITRY-SUR-SEINE",
      "prix": {
        "Gazole": 0.002139,
        "SP95": 0.002019,
        "GPLc": 0.001059,
        "E10": 0.0019890000000000003,
        "SP98": 0.002079
      },
      "maj_gouv": {
        "Gazole": "2026-04-30 15:05:28",
        "SP95": "2026-04-30 15:05:28",
        "GPLc": "2026-04-16 09:53:51",
        "E10": "2026-04-30 15:05:28",
        "SP98": "2026-04-30 15:05:28"
      }
    },
    {
      "id": "94110003",
      "lat": 48.807,
      "lon": 2.337,
      "cp": "94110",
      "ville": "Arcueil",
      "prix": {
        "Gazole": 0.002369,
        "E10": 0.002199,
        "SP98": 0.0023490000000000004
      },
      "maj_gouv": {
        "Gazole": "2026-04-30 11:33:24",
        "E10": "2026-04-30 11:33:24",
        "SP98": "2026-04-30 11:33:24"
      }
    },
    {
      "id": "94470002",
      "lat": 48.749,
      "lon": 2.509,
      "cp": "94470",
      "ville": "Boissy-Saint-Léger",
      "prix": {
        "Gazole": 0.002249,
        "E10": 0.002059
      },
      "maj_gouv": {
        "Gazole": "2026-04-30 11:35:19",
        "E10": "2026-04-30 11:35:19"
      }
    },
    {
      "id": "94600007",
      "lat": 48.771,
      "lon": 2.409,
      "cp": "94600",
      "ville": "Choisy-le-Roi",
      "prix": {
        "Gazole": 0.00209
      },
      "maj_gouv": {
        "Gazole": "2026-05-01 03:20:00"
      }
    },
    {
      "id": "94880001",
      "lat": 48.77667,
      "lon": 2.55134,
      "cp": "94880",
      "ville": "Noiseau",
      "prix": {
        "Gazole": 0.0022389999999999997,
        "E10": 0.002009,
        "SP98": 0.002139
      },
      "maj_gouv": {
        "Gazole": "2026-04-24 09:34:19",
        "E10": "2026-04-24 09:34:19",
        "SP98": "2026-04-24 09:34:20"
      }
    },
    {
      "id": "94200009",
      "lat": 48.813,
      "lon": 2.389,
      "cp": "94200",
      "ville": "IVRY SUR SEINE",
      "prix": {
        "Gazole": 0.0023090000000000003,
        "E10": 0.002129,
        "SP98": 0.002299
      },
      "maj_gouv": {
        "Gazole": "2026-04-30 11:16:22",
        "E10": "2026-04-30 11:16:22",
        "SP98": "2026-04-30 11:16:22"
      }
    },
    {
      "id": "94651002",
      "lat": 48.755,
      "lon": 2.375,
      "cp": "94651",
      "ville": "Thiais",
      "prix": {
        "Gazole": 0.002249,
        "E85": 0.001089,
        "GPLc": 0.0011690000000000001,
        "E10": 0.002079,
        "SP98": 0.002249
      },
      "maj_gouv": {
        "Gazole": "2026-04-30 11:32:04",
        "E85": "2026-04-30 11:32:04",
        "GPLc": "2026-04-30 11:32:04",
        "E10": "2026-04-30 11:32:03",
        "SP98": "2026-04-30 11:32:04"
      }
    },
    {
      "id": "94500014",
      "lat": 48.823,
      "lon": 2.494,
      "cp": "94500",
      "ville": "Champigny-sur-Marne",
      "prix": {
        "Gazole": 0.0022589999999999997,
        "E85": 0.001099,
        "GPLc": 0.0011690000000000001,
        "E10": 0.002089,
        "SP98": 0.0022589999999999997
      },
      "maj_gouv": {
        "Gazole": "2026-04-30 11:17:46",
        "E85": "2026-04-30 11:17:45",
        "GPLc": "2026-04-30 11:17:46",
        "E10": "2026-04-30 11:17:46",
        "SP98": "2026-04-30 11:17:45"
      }
    },
    {
      "id": "94150009",
      "lat": 48.753,
      "lon": 2.361,
      "cp": "94150",
      "ville": "RUNGIS",
      "prix": {
        "Gazole": 0.0022890000000000002,
        "GPLc": 0.0011790000000000001,
        "E10": 0.0021190000000000002,
        "SP98": 0.0022890000000000002
      },
      "maj_gouv": {
        "Gazole": "2026-05-01 06:22:59",
        "GPLc": "2026-05-01 06:22:59",
        "E10": "2026-05-01 06:22:59",
        "SP98": "2026-05-01 06:23:00"
      }
    },
    {
      "id": "94150008",
      "lat": 48.754,
      "lon": 2.362,
      "cp": "94150",
      "ville": "RUNGIS",
      "prix": {
        "Gazole": 0.0022890000000000002,
        "GPLc": 0.0011690000000000001,
        "E10": 0.0021190000000000002,
        "SP98": 0.0022890000000000002
      },
      "maj_gouv": {
        "Gazole": "2026-05-01 06:20:41",
        "GPLc": "2026-05-01 06:20:41",
        "E10": "2026-05-01 06:20:41",
        "SP98": "2026-05-01 06:20:41"
      }
    },
    {
      "id": "94340008",
      "lat": 48.814,
      "lon": 2.466,
      "cp": "94340",
      "ville": "JOINVILLE LE PONT",
      "prix": {
        "Gazole": 0.002269,
        "E85": 0.001109,
        "E10": 0.002099,
        "SP98": 0.002269
      },
      "maj_gouv": {
        "Gazole": "2026-05-01 06:27:01",
        "E85": "2026-05-01 06:27:01",
        "E10": "2026-05-01 06:27:01",
        "SP98": "2026-05-01 06:27:01"
      }
    },
    {
      "id": "94500011",
      "lat": 48.823,
      "lon": 2.495,
      "cp": "94500",
      "ville": "CHAMPIGNY SUR MARNE",
      "prix": {
        "Gazole": 0.00225,
        "E10": 0.00199
      },
      "maj_gouv": {
        "Gazole": "2026-05-01 02:30:00",
        "E10": "2026-05-01 02:30:00"
      }
    },
    {
      "id": "94000011",
      "lat": 48.78292,
      "lon": 2.4467,
      "cp": "94000",
      "ville": "Créteil",
      "prix": {
        "Gazole": 0.00209,
        "E85": 0.000919,
        "E10": 0.00199
      },
      "maj_gouv": {
        "Gazole": "2026-05-01 03:20:00",
        "E85": "2026-05-01 03:20:00",
        "E10": "2026-05-01 03:20:00"
      }
    },
    {
      "id": "94380003",
      "lat": 48.766693142122996,
      "lon": 2.4901101735978,
      "cp": "94380",
      "ville": "BONNEUIL SUR MARNE",
      "prix": {
        "Gazole": 0.00213,
        "SP95": 0.0019850000000000002,
        "E10": 0.001986,
        "SP98": 0.00204
      },
      "maj_gouv": {
        "Gazole": "2026-04-30 09:05:47",
        "SP95": "2026-04-30 09:05:47",
        "E10": "2026-04-30 09:05:47",
        "SP98": "2026-04-30 09:05:47"
      }
    },
    {
      "id": "94430003",
      "lat": 48.793,
      "lon": 2.554,
      "cp": "94490",
      "ville": "Ormesson-sur-Marne",
      "prix": {
        "Gazole": 0.002162,
        "SP95": 0.002068,
        "E85": 0.000911,
        "GPLc": 0.000999,
        "E10": 0.002013,
        "SP98": 0.00214
      },
      "maj_gouv": {
        "Gazole": "2026-04-29 22:39:00",
        "SP95": "2026-04-29 22:39:00",
        "E85": "2026-04-29 22:39:00",
        "GPLc": "2026-04-23 22:41:00",
        "E10": "2026-04-29 22:39:00",
        "SP98": "2026-04-29 22:39:00"
      }
    },
    {
      "id": "94220004",
      "lat": 48.82225,
      "lon": 2.40285,
      "cp": "94220",
      "ville": "Charenton-le-Pont",
      "prix": {
        "Gazole": 0.00209,
        "E10": 0.00199
      },
      "maj_gouv": {
        "Gazole": "2026-05-01 03:20:00",
        "E10": "2026-05-01 03:20:00"
      }
    },
    {
      "id": "94440001",
      "lat": 48.721,
      "lon": 2.525,
      "cp": "94440",
      "ville": "Villecresnes",
      "prix": {
        "Gazole": 0.0022789999999999998,
        "SP95": 0.002209,
        "E10": 0.002159,
        "SP98": 0.002269
      },
      "maj_gouv": {
        "Gazole": "2026-04-30 08:00:00",
        "SP95": "2026-04-30 08:00:00",
        "E10": "2026-04-30 08:00:00",
        "SP98": "2026-04-30 08:00:00"
      }
    },
    {
      "id": "94190007",
      "lat": 48.742052731851004,
      "lon": 2.446910938728,
      "cp": "94190",
      "ville": "Villeneuve-Saint-Georges",
      "prix": {
        "Gazole": 0.00225,
        "E85": 0.000929,
        "GPLc": 0.001155,
        "E10": 0.00199,
        "SP98": 0.00199
      },
      "maj_gouv": {
        "Gazole": "2026-04-30 08:06:52",
        "E85": "2026-04-30 08:06:52",
        "GPLc": "2026-04-30 08:06:52",
        "E10": "2026-04-30 08:06:52",
        "SP98": "2026-04-30 08:06:52"
      }
    },
    {
      "id": "94594002",
      "lat": 48.76462365898399,
      "lon": 2.3566444220819003,
      "cp": "94594",
      "ville": "RUNGIS",
      "prix": {
        "Gazole": 0.00209,
        "E10": 0.00199,
        "SP98": 0.00199
      },
      "maj_gouv": {
        "Gazole": "2026-05-01 03:20:00",
        "E10": "2026-05-01 03:20:00",
        "SP98": "2026-05-01 03:20:00"
      }
    },
    {
      "id": "94500007",
      "lat": 48.82,
      "lon": 2.531,
      "cp": "94500",
      "ville": "Champigny-sur-Marne",
      "prix": {
        "Gazole": 0.00213,
        "SP95": 0.0019850000000000002,
        "E10": 0.001986,
        "SP98": 0.00204
      },
      "maj_gouv": {
        "Gazole": "2026-04-30 05:00:00",
        "SP95": "2026-04-30 05:00:00",
        "E10": "2026-04-30 05:00:00",
        "SP98": "2026-04-30 05:00:00"
      }
    },
    {
      "id": "94130003",
      "lat": 48.843,
      "lon": 2.486,
      "cp": "94130",
      "ville": "Nogent-sur-Marne",
      "prix": {
        "Gazole": 0.00225,
        "E10": 0.00199
      },
      "maj_gouv": {
        "Gazole": "2026-05-01 02:30:00",
        "E10": "2026-05-01 02:30:00"
      }
    },
    {
      "id": "94510001",
      "lat": 48.789,
      "lon": 2.576,
      "cp": "94510",
      "ville": "LA QUEUE-EN-BRIE",
      "prix": {
        "Gazole": 0.002249,
        "E10": 0.00199,
        "SP98": 0.00199
      },
      "maj_gouv": {
        "Gazole": "2026-04-29 19:08:44",
        "E10": "2026-04-23 19:13:56",
        "SP98": "2026-04-22 20:07:03"
      }
    },
    {
      "id": "94310002",
      "lat": 48.743,
      "lon": 2.408,
      "cp": "94310",
      "ville": "Orly",
      "prix": {
        "Gazole": 0.00213,
        "SP95": 0.00199,
        "E10": 0.0019850000000000002,
        "SP98": 0.00204
      },
      "maj_gouv": {
        "Gazole": "2026-04-30 10:00:49",
        "SP95": "2026-04-30 10:00:49",
        "E10": "2026-04-30 10:00:49",
        "SP98": "2026-04-30 10:00:49"
      }
    },
    {
      "id": "94420005",
      "lat": 48.81,
      "lon": 2.572,
      "cp": "94420",
      "ville": "Le Plessis-Trévise",
      "prix": {
        "Gazole": 0.002317,
        "E10": 0.002146,
        "SP98": 0.002316
      },
      "maj_gouv": {
        "Gazole": "2026-04-30 11:33:01",
        "E10": "2026-04-30 11:33:01",
        "SP98": "2026-04-30 11:33:01"
      }
    },
    {
      "id": "94700008",
      "lat": 48.80623,
      "lon": 2.43809,
      "cp": "94700",
      "ville": "Maisons-Alfort",
      "prix": {
        "Gazole": 0.00209,
        "E85": 0.000929,
        "E10": 0.00199,
        "SP98": 0.00199
      },
      "maj_gouv": {
        "Gazole": "2026-05-01 03:20:00",
        "E85": "2026-05-01 03:20:00",
        "E10": "2026-05-01 03:20:00",
        "SP98": "2026-05-01 03:20:00"
      }
    },
    {
      "id": "94160001",
      "lat": 48.847,
      "lon": 2.416,
      "cp": "94160",
      "ville": "SAINT-MANDé",
      "prix": {
        "Gazole": 0.002399,
        "E10": 0.002249,
        "SP98": 0.0023490000000000004
      },
      "maj_gouv": {
        "Gazole": "2026-04-23 06:57:00",
        "E10": "2026-04-15 06:27:00",
        "SP98": "2026-04-15 06:27:00"
      }
    },
    {
      "id": "94700007",
      "lat": 48.80694774210001,
      "lon": 2.43827166369,
      "cp": "94700",
      "ville": "MAISONS-ALFORT",
      "prix": {
        "Gazole": 0.0023490000000000004,
        "E85": 0.000949,
        "E10": 0.002199,
        "SP98": 0.002299
      },
      "maj_gouv": {
        "Gazole": "2026-04-23 06:00:00",
        "E85": "2026-04-15 06:22:00",
        "E10": "2026-04-15 06:22:00",
        "SP98": "2026-04-15 06:22:00"
      }
    },
    {
      "id": "94120005",
      "lat": 48.853,
      "lon": 2.466,
      "cp": "94120",
      "ville": "Fontenay-sous-Bois",
      "prix": {
        "Gazole": 0.002348,
        "E85": 0.001099,
        "E10": 0.002179,
        "SP98": 0.002348
      },
      "maj_gouv": {
        "Gazole": "2026-04-29 06:55:55",
        "E85": "2026-04-20 06:42:33",
        "E10": "2026-04-20 06:42:33",
        "SP98": "2026-04-20 06:42:33"
      }
    },
    {
      "id": "94500010",
      "lat": 48.828,
      "lon": 2.513,
      "cp": "94500",
      "ville": "Champigny-sur-Marne",
      "prix": {
        "Gazole": 0.00209,
        "E85": 0.000909,
        "E10": 0.00199,
        "SP98": 0.00199
      },
      "maj_gouv": {
        "Gazole": "2026-05-01 03:20:00",
        "E85": "2026-05-01 03:20:00",
        "E10": "2026-05-01 03:20:00",
        "SP98": "2026-05-01 03:20:00"
      }
    },
    {
      "id": "94100013",
      "lat": 48.8005783,
      "lon": 2.4949924,
      "cp": "94100",
      "ville": "SAINT-MAUR-DES-FOSSÉS",
      "prix": {
        "Gazole": 0.002299,
        "E85": 0.000999,
        "E10": 0.002199,
        "SP98": 0.002249
      },
      "maj_gouv": {
        "Gazole": "2026-04-23 06:16:16",
        "E85": "2026-04-15 06:53:17",
        "E10": "2026-04-15 06:53:17",
        "SP98": "2026-04-15 06:53:17"
      }
    },
    {
      "id": "94150005",
      "lat": 48.7575828377,
      "lon": 2.3483460055500003,
      "cp": "94150",
      "ville": "RUNGIS",
      "prix": {
        "Gazole": 0.00225,
        "E85": 0.000929,
        "E10": 0.00199
      },
      "maj_gouv": {
        "Gazole": "2026-05-01 02:30:00",
        "E85": "2026-05-01 02:30:00",
        "E10": "2026-05-01 02:30:00"
      }
    },
    {
      "id": "94370005",
      "lat": 48.761,
      "lon": 2.533,
      "cp": "94370",
      "ville": "Sucy-en-Brie",
      "prix": {
        "Gazole": 0.002549,
        "E10": 0.00199,
        "SP98": 0.002109
      },
      "maj_gouv": {
        "Gazole": "2026-04-21 08:44:41",
        "E10": "2026-04-21 08:44:41",
        "SP98": "2026-04-21 08:44:41"
      }
    },
    {
      "id": "94000009",
      "lat": 48.790388298253,
      "lon": 2.4451740423071002,
      "cp": "94000",
      "ville": "Créteil",
      "prix": {
        "Gazole": 0.002249,
        "E10": 0.00199,
        "SP98": 0.00199
      },
      "maj_gouv": {
        "Gazole": "2026-05-01 02:30:00",
        "E10": "2026-05-01 02:30:00",
        "SP98": "2026-05-01 02:30:00"
      }
    },
    {
      "id": "94450004",
      "lat": 48.755,
      "lon": 2.484,
      "cp": "94450",
      "ville": "Limeil-Brévannes",
      "prix": {
        "Gazole": 0.00209,
        "E85": 0.000919,
        "E10": 0.00199,
        "SP98": 0.00199
      },
      "maj_gouv": {
        "Gazole": "2026-05-01 03:20:00",
        "E85": "2026-05-01 03:20:00",
        "E10": "2026-05-01 03:20:00",
        "SP98": "2026-05-01 03:20:00"
      }
    },
    {
      "id": "94542003",
      "lat": 48.732,
      "lon": 2.366,
      "cp": "94542",
      "ville": "ORLY",
      "prix": {
        "Gazole": 0.002299,
        "E85": 0.0008990000000000001,
        "GPLc": 0.001269,
        "E10": 0.002099,
        "SP98": 0.002249
      },
      "maj_gouv": {
        "Gazole": "2026-04-22 22:00:00",
        "E85": "2026-04-22 22:00:00",
        "GPLc": "2026-04-22 22:00:00",
        "E10": "2026-04-22 22:00:00",
        "SP98": "2026-04-22 22:00:00"
      }
    },
    {
      "id": "94550002",
      "lat": 48.77313,
      "lon": 2.3378,
      "cp": "94550",
      "ville": "Chevilly-Larue",
      "prix": {
        "Gazole": 0.00209,
        "E85": 0.000929,
        "E10": 0.00199,
        "SP98": 0.00199
      },
      "maj_gouv": {
        "Gazole": "2026-05-01 03:20:00",
        "E85": "2026-05-01 03:20:00",
        "E10": "2026-05-01 03:20:00",
        "SP98": "2026-05-01 03:20:00"
      }
    },
    {
      "id": "94594003",
      "lat": 48.760473268084006,
      "lon": 2.348661444053,
      "cp": "94594",
      "ville": "RUNGIS CEDEX",
      "prix": {
        "Gazole": 0.0022890000000000002,
        "SP98": 0.002209
      },
      "maj_gouv": {
        "Gazole": "2026-04-30 11:10:59",
        "SP98": "2026-04-30 11:10:59"
      }
    },
    {
      "id": "94370008",
      "lat": 48.777,
      "lon": 2.511,
      "cp": "94370",
      "ville": "Sucy-en-Brie",
      "prix": {
        "Gazole": 0.00209,
        "E10": 0.00199,
        "SP98": 0.00199
      },
      "maj_gouv": {
        "Gazole": "2026-05-01 03:20:00",
        "E10": "2026-05-01 03:20:00",
        "SP98": "2026-05-01 03:20:00"
      }
    },
    {
      "id": "94340007",
      "lat": 48.822,
      "lon": 2.465,
      "cp": "94340",
      "ville": "Joinville-le-Pont",
      "prix": {
        "Gazole": 0.0023889999999999996,
        "E10": 0.002219,
        "SP98": 0.002399
      },
      "maj_gouv": {
        "Gazole": "2026-04-30 11:30:21",
        "E10": "2026-04-30 11:30:21",
        "SP98": "2026-04-30 11:30:21"
      }
    },
    {
      "id": "94240004",
      "lat": 48.777,
      "lon": 2.34,
      "cp": "94240",
      "ville": "L'Hay-les-Roses",
      "prix": {
        "Gazole": 0.0022589999999999997,
        "E10": 0.002089,
        "SP98": 0.0022589999999999997
      },
      "maj_gouv": {
        "Gazole": "2026-04-30 11:30:44",
        "E10": "2026-04-30 11:30:43",
        "SP98": "2026-04-30 11:30:44"
      }
    },
    {
      "id": "94460001",
      "lat": 48.74926,
      "lon": 2.45465,
      "cp": "94460",
      "ville": "Valenton",
      "prix": {
        "Gazole": 0.002218,
        "E10": 0.0020139999999999997,
        "SP98": 0.002154
      },
      "maj_gouv": {
        "Gazole": "2026-04-30 09:25:30",
        "E10": "2026-04-30 09:25:30",
        "SP98": "2026-04-30 09:25:30"
      }
    },
    {
      "id": "94170004",
      "lat": 48.835,
      "lon": 2.497,
      "cp": "94170",
      "ville": "LE PERREUX SUR MARNE",
      "prix": {
        "Gazole": 0.0022589999999999997,
        "E10": 0.0022010000000000003,
        "SP98": 0.0022429999999999998
      },
      "maj_gouv": {
        "Gazole": "2026-04-30 07:00:00",
        "E10": "2026-04-30 07:00:00",
        "SP98": "2026-04-30 07:00:00"
      }
    },
    {
      "id": "94600005",
      "lat": 48.772,
      "lon": 2.409,
      "cp": "94600",
      "ville": "CHOISY-LE-ROI",
      "prix": {
        "Gazole": 0.002139,
        "SP95": 0.002019,
        "E10": 0.0019890000000000003,
        "SP98": 0.002079
      },
      "maj_gouv": {
        "Gazole": "2026-04-29 19:03:58",
        "SP95": "2026-04-29 19:03:58",
        "E10": "2026-04-30 18:50:39",
        "SP98": "2026-04-29 19:03:59"
      }
    },
    {
      "id": "94100005",
      "lat": 48.796237162845,
      "lon": 2.4929910965866,
      "cp": "94100",
      "ville": "SAINT-MAUR-DES-FOSSéS",
      "prix": {
        "Gazole": 0.00219,
        "E10": 0.002006,
        "SP98": 0.002132
      },
      "maj_gouv": {
        "Gazole": "2026-04-30 08:54:47",
        "E10": "2026-04-30 08:54:47",
        "SP98": "2026-04-30 08:54:47"
      }
    },
    {
      "id": "94110005",
      "lat": 48.804,
      "lon": 2.325,
      "cp": "94110",
      "ville": "ARCUEIL",
      "prix": {
        "Gazole": 0.00209
      },
      "maj_gouv": {
        "Gazole": "2026-05-01 03:20:00"
      }
    },
    {
      "id": "94204001",
      "lat": 48.819,
      "lon": 2.396,
      "cp": "94200",
      "ville": "IVRY-SUR-SEINE",
      "prix": {
        "Gazole": 0.002197,
        "SP95": 0.002038,
        "E10": 0.001994,
        "SP98": 0.002099
      },
      "maj_gouv": {
        "Gazole": "2026-04-30 06:19:41",
        "SP95": "2026-04-30 06:19:41",
        "E10": "2026-04-30 06:19:41",
        "SP98": "2026-04-27 07:19:50"
      }
    },
    {
      "id": "94110004",
      "lat": 48.801,
      "lon": 2.34,
      "cp": "94110",
      "ville": "Arcueil",
      "prix": {
        "Gazole": 0.0022679999999999996,
        "E85": 0.000934,
        "E10": 0.002098,
        "SP98": 0.002178
      },
      "maj_gouv": {
        "Gazole": "2026-05-01 06:31:00",
        "E85": "2026-05-01 06:31:00",
        "E10": "2026-05-01 06:31:00",
        "SP98": "2026-05-01 06:31:00"
      }
    },
    {
      "id": "94550001",
      "lat": 48.767,
      "lon": 2.368,
      "cp": "94550",
      "ville": "Chevilly-Larue",
      "prix": {
        "Gazole": 0.002246,
        "E85": 0.0009320000000000001,
        "E10": 0.00199,
        "SP98": 0.00207
      },
      "maj_gouv": {
        "Gazole": "2026-04-30 07:46:00",
        "E85": "2026-04-30 07:46:00",
        "E10": "2026-04-30 07:46:00",
        "SP98": "2026-04-30 07:46:00"
      }
    },
    {
      "id": "94100011",
      "lat": 48.798,
      "lon": 2.481,
      "cp": "94100",
      "ville": "Saint-Maur-des-Fossés",
      "prix": {
        "Gazole": 0.0023090000000000003,
        "E10": 0.002099,
        "SP98": 0.002249
      },
      "maj_gouv": {
        "Gazole": "2026-04-30 18:04:39",
        "E10": "2026-04-30 18:04:39",
        "SP98": "2026-04-30 18:04:39"
      }
    },
    {
      "id": "94370007",
      "lat": 48.773,
      "lon": 2.517,
      "cp": "94370",
      "ville": "SUCY-EN-BRIE",
      "prix": {
        "Gazole": 0.00225,
        "E10": 0.00199,
        "SP98": 0.00199
      },
      "maj_gouv": {
        "Gazole": "2026-04-30 00:01:00",
        "E10": "2026-04-30 00:01:00",
        "SP98": "2026-04-30 00:01:00"
      }
    },
    {
      "id": "94270005",
      "lat": 48.807706768264,
      "lon": 2.3626414755006997,
      "cp": "94270",
      "ville": "LE KREMLIN-BICêTRE",
      "prix": {
        "Gazole": 0.002249,
        "E10": 0.002089,
        "SP98": 0.002175
      },
      "maj_gouv": {
        "Gazole": "2026-04-30 00:00:00",
        "E10": "2026-04-30 00:00:00",
        "SP98": "2026-04-30 00:00:00"
      }
    },
    {
      "id": "94012001",
      "lat": 48.781867204601,
      "lon": 2.4578945751426,
      "cp": "94000",
      "ville": "Créteil",
      "prix": {
        "Gazole": 0.002176,
        "SP95": 0.002076,
        "E10": 0.002005,
        "SP98": 0.002153
      },
      "maj_gouv": {
        "Gazole": "2026-04-30 10:57:56",
        "SP95": "2026-04-30 10:55:34",
        "E10": "2026-04-30 10:55:34",
        "SP98": "2026-04-30 10:55:35"
      }
    },
    {
      "id": "94220003",
      "lat": 48.825,
      "lon": 2.408,
      "cp": "94220",
      "ville": "Charenton-le-Pont",
      "prix": {
        "Gazole": 0.0023490000000000004,
        "E85": 0.001149,
        "GPLc": 0.001269,
        "E10": 0.002229,
        "SP98": 0.0023290000000000003
      },
      "maj_gouv": {
        "Gazole": "2026-04-23 06:59:00",
        "E85": "2026-04-15 06:29:00",
        "GPLc": "2026-04-15 06:29:00",
        "E10": "2026-04-15 06:29:00",
        "SP98": "2026-04-15 06:29:00"
      }
    },
    {
      "id": "94200008",
      "lat": 48.80595,
      "lon": 2.37609,
      "cp": "94200",
      "ville": "Ivry-sur-Seine",
      "prix": {
        "Gazole": 0.00209,
        "E85": 0.000929,
        "E10": 0.00199,
        "SP98": 0.00199
      },
      "maj_gouv": {
        "Gazole": "2026-05-01 03:20:00",
        "E85": "2026-05-01 03:20:00",
        "E10": "2026-05-01 03:20:00",
        "SP98": "2026-05-01 03:20:00"
      }
    }
  ]
}