{
  "departement": "89",
  "date": "2026-05-30",
  "stations": [
    {
      "id": "89100001",
      "lat": 48.183,
      "lon": 3.309,
      "cp": "89100",
      "ville": "SENS",
      "prix": {
        "Gazole": 0.002059,
        "E85": 0.000829,
        "E10": 0.002049,
        "SP98": 0.002129
      },
      "maj_gouv": {
        "Gazole": "2026-05-28 13:55:28",
        "E85": "2026-05-04 09:44:51",
        "E10": "2026-05-28 13:55:29",
        "SP98": "2026-05-04 09:44:51"
      }
    },
    {
      "id": "89330001",
      "lat": 48.0361,
      "lon": 3.30502,
      "cp": "89330",
      "ville": "Saint-Julien-du-Sault",
      "prix": {
        "Gazole": 0.00211,
        "E10": 0.002054,
        "SP98": 0.00218
      },
      "maj_gouv": {
        "Gazole": "2026-05-26 07:26:59",
        "E10": "2026-05-26 07:27:00",
        "SP98": "2026-05-26 07:27:00"
      }
    },
    {
      "id": "89690001",
      "lat": 48.2,
      "lon": 2.992,
      "cp": "89690",
      "ville": "CHEROY",
      "prix": {
        "Gazole": 0.002098,
        "E85": 0.000798,
        "E10": 0.002058,
        "SP98": 0.002179
      },
      "maj_gouv": {
        "Gazole": "2026-05-22 06:05:20",
        "E85": "2026-05-19 06:04:50",
        "E10": "2026-05-22 06:05:20",
        "SP98": "2026-05-22 06:05:20"
      }
    },
    {
      "id": "89380001",
      "lat": 47.880826805196,
      "lon": 3.5268365139365,
      "cp": "89380",
      "ville": "APPOIGNY",
      "prix": {
        "Gazole": 0.002189,
        "SP95": 0.002169,
        "SP98": 0.002229
      },
      "maj_gouv": {
        "Gazole": "2026-05-22 00:00:00",
        "SP95": "2026-05-22 00:00:00",
        "SP98": "2026-05-22 00:00:00"
      }
    },
    {
      "id": "89000004",
      "lat": 47.793,
      "lon": 3.575,
      "cp": "89000",
      "ville": "Auxerre",
      "prix": {
        "Gazole": 0.002053
      },
      "maj_gouv": {
        "Gazole": "2026-05-29 06:56:39"
      }
    },
    {
      "id": "89140004",
      "lat": 48.284,
      "lon": 3.212,
      "cp": "89140",
      "ville": "Pont-sur-Yonne",
      "prix": {
        "Gazole": 0.002053,
        "E10": 0.00199,
        "SP98": 0.00199
      },
      "maj_gouv": {
        "Gazole": "2026-05-29 10:12:00",
        "E10": "2026-05-26 11:22:48",
        "SP98": "2026-05-26 11:22:48"
      }
    },
    {
      "id": "89290001",
      "lat": 47.74,
      "lon": 3.599,
      "cp": "89290",
      "ville": "CHAMPS-SUR-YONNE",
      "prix": {
        "Gazole": 0.002189,
        "SP95": 0.002169,
        "SP98": 0.002229
      },
      "maj_gouv": {
        "Gazole": "2026-05-22 00:00:00",
        "SP95": "2026-05-22 00:00:00",
        "SP98": "2026-05-22 00:00:00"
      }
    },
    {
      "id": "89250001",
      "lat": 47.902354808005,
      "lon": 3.6105720708072,
      "cp": "89250",
      "ville": "SEIGNELAY",
      "prix": {
        "Gazole": 0.002189,
        "SP95": 0.002169,
        "SP98": 0.002229
      },
      "maj_gouv": {
        "Gazole": "2026-05-22 00:00:00",
        "SP95": "2026-05-22 00:00:00",
        "SP98": "2026-05-22 00:00:00"
      }
    },
    {
      "id": "89420003",
      "lat": 47.504517327111,
      "lon": 4.0382550768547,
      "cp": "89420",
      "ville": "Sceaux",
      "prix": {
        "Gazole": 0.002269,
        "E85": 0.001055,
        "GPLc": 0.00116,
        "E10": 0.002219,
        "SP98": 0.002299
      },
      "maj_gouv": {
        "Gazole": "2026-05-28 06:00:00",
        "E85": "2026-05-28 06:00:00",
        "GPLc": "2026-05-28 06:00:00",
        "E10": "2026-05-28 06:00:00",
        "SP98": "2026-05-28 06:00:00"
      }
    },
    {
      "id": "89000012",
      "lat": 47.809074609693,
      "lon": 3.5588100228173,
      "cp": "89000",
      "ville": "AUXERRE",
      "prix": {
        "Gazole": 0.002199,
        "E85": 0.000798,
        "E10": 0.002129,
        "SP98": 0.0022589999999999997
      },
      "maj_gouv": {
        "Gazole": "2026-05-20 20:00:00",
        "E85": "2026-05-20 08:00:00",
        "E10": "2026-05-20 20:00:00",
        "SP98": "2026-05-20 20:00:00"
      }
    },
    {
      "id": "89190008",
      "lat": 48.247221052308,
      "lon": 3.5555068346406,
      "cp": "89190",
      "ville": "Villeneuve-l'Archevêque",
      "prix": {
        "Gazole": 0.0022040000000000002,
        "GPLc": 0.001108,
        "E10": 0.002236,
        "SP98": 0.002319
      },
      "maj_gouv": {
        "Gazole": "2026-05-27 09:30:00",
        "GPLc": "2026-05-27 09:30:00",
        "E10": "2026-05-27 09:30:00",
        "SP98": "2026-05-27 09:30:00"
      }
    },
    {
      "id": "89700001",
      "lat": 47.852,
      "lon": 3.985,
      "cp": "89700",
      "ville": "Tonnerre",
      "prix": {
        "Gazole": 0.002189,
        "SP95": 0.002149,
        "SP98": 0.002229
      },
      "maj_gouv": {
        "Gazole": "2026-05-22 00:00:00",
        "SP95": "2026-05-22 00:00:00",
        "SP98": "2026-05-22 00:00:00"
      }
    },
    {
      "id": "89130001",
      "lat": 47.762,
      "lon": 3.254,
      "cp": "89130",
      "ville": "TOUCY",
      "prix": {
        "Gazole": 0.002199,
        "E10": 0.002149,
        "SP98": 0.002229
      },
      "maj_gouv": {
        "Gazole": "2026-05-22 00:00:00",
        "E10": "2026-05-22 00:00:00",
        "SP98": "2026-05-22 00:00:00"
      }
    },
    {
      "id": "89200009",
      "lat": 47.491,
      "lon": 3.902,
      "cp": "89200",
      "ville": "AVALLON",
      "prix": {
        "Gazole": 0.002146,
        "SP95": 0.002109,
        "E10": 0.002088
      },
      "maj_gouv": {
        "Gazole": "2026-05-23 07:37:43",
        "SP95": "2026-05-23 07:37:43",
        "E10": "2026-05-23 07:37:43"
      }
    },
    {
      "id": "89000013",
      "lat": 47.815,
      "lon": 3.573,
      "cp": "89000",
      "ville": "AUXERRE",
      "prix": {
        "Gazole": 0.002109,
        "E85": 0.000768,
        "GPLc": 0.00107,
        "E10": 0.002016
      },
      "maj_gouv": {
        "Gazole": "2026-05-29 12:20:22",
        "E85": "2026-05-29 12:20:23",
        "GPLc": "2026-05-29 12:20:23",
        "E10": "2026-05-29 12:20:23"
      }
    },
    {
      "id": "89100007",
      "lat": 48.198,
      "lon": 3.277,
      "cp": "89100",
      "ville": "Sens",
      "prix": {
        "Gazole": 0.002169,
        "E10": 0.0021190000000000002,
        "SP98": 0.002229
      },
      "maj_gouv": {
        "Gazole": "2026-05-21 19:52:09",
        "E10": "2026-05-21 19:52:09",
        "SP98": "2026-05-21 19:52:09"
      }
    },
    {
      "id": "89190006",
      "lat": 48.237,
      "lon": 3.552,
      "cp": "89190",
      "ville": "Villeneuve-l'Archevêque",
      "prix": {
        "Gazole": 0.002099,
        "SP95": 0.002079,
        "SP98": 0.002189
      },
      "maj_gouv": {
        "Gazole": "2026-05-29 10:36:41",
        "SP95": "2026-05-29 10:36:41",
        "SP98": "2026-05-29 10:36:41"
      }
    },
    {
      "id": "89400003",
      "lat": 47.973,
      "lon": 3.511,
      "cp": "89400",
      "ville": "Migennes",
      "prix": {
        "Gazole": 0.002007,
        "E85": 0.0007970000000000001,
        "E10": 0.002021,
        "SP98": 0.002126
      },
      "maj_gouv": {
        "Gazole": "2026-05-30 01:15:00",
        "E85": "2026-05-30 01:15:00",
        "E10": "2026-05-30 01:15:00",
        "SP98": "2026-05-30 01:15:00"
      }
    },
    {
      "id": "89270001",
      "lat": 47.664130022077,
      "lon": 3.7387714294689,
      "cp": "89270",
      "ville": "VERMENTON",
      "prix": {
        "Gazole": 0.002159,
        "SP95": 0.002139,
        "SP98": 0.002229
      },
      "maj_gouv": {
        "Gazole": "2026-05-19 10:55:23",
        "SP95": "2026-05-19 15:09:49",
        "SP98": "2026-05-18 12:53:51"
      }
    },
    {
      "id": "89170001",
      "lat": 47.642,
      "lon": 3.068,
      "cp": "89170",
      "ville": "Saint-Fargeau",
      "prix": {
        "Gazole": 0.002189,
        "SP95": 0.002169,
        "E10": 0.002149
      },
      "maj_gouv": {
        "Gazole": "2026-05-22 00:00:00",
        "SP95": "2026-05-22 00:00:00",
        "E10": "2026-05-22 00:00:00"
      }
    },
    {
      "id": "89200002",
      "lat": 47.49,
      "lon": 3.9,
      "cp": "89200",
      "ville": "Avallon",
      "prix": {
        "Gazole": 0.002179,
        "SP95": 0.0021190000000000002
      },
      "maj_gouv": {
        "Gazole": "2026-05-22 00:00:00",
        "SP95": "2026-05-22 00:00:00"
      }
    },
    {
      "id": "89520001",
      "lat": 47.62,
      "lon": 3.198,
      "cp": "89520",
      "ville": "SAINT-SAUVEUR-EN-PUISAYE",
      "prix": {
        "Gazole": 0.002189,
        "SP95": 0.002169,
        "SP98": 0.002229
      },
      "maj_gouv": {
        "Gazole": "2026-05-22 00:00:00",
        "SP95": "2026-05-22 00:00:00",
        "SP98": "2026-05-22 00:00:00"
      }
    },
    {
      "id": "89200008",
      "lat": 47.491,
      "lon": 3.912,
      "cp": "89200",
      "ville": "Avallon",
      "prix": {
        "Gazole": 0.002179,
        "SP95": 0.0021190000000000002,
        "E85": 0.000949,
        "GPLc": 0.0011979999999999998,
        "SP98": 0.002199
      },
      "maj_gouv": {
        "Gazole": "2026-05-22 00:00:00",
        "SP95": "2026-05-22 00:00:00",
        "E85": "2026-04-14 23:59:00",
        "GPLc": "2026-04-25 00:00:00",
        "SP98": "2026-04-14 23:59:00"
      }
    },
    {
      "id": "89500002",
      "lat": 48.087524187696,
      "lon": 3.2972951411349,
      "cp": "89500",
      "ville": "Villeneuve-sur-Yonne",
      "prix": {
        "Gazole": 0.00211,
        "E85": 0.000798,
        "E10": 0.002054,
        "SP98": 0.00218
      },
      "maj_gouv": {
        "Gazole": "2026-05-26 10:15:42",
        "E85": "2026-05-26 10:15:42",
        "E10": "2026-05-26 10:15:42",
        "SP98": "2026-05-26 10:15:42"
      }
    },
    {
      "id": "89130003",
      "lat": 47.732,
      "lon": 3.31,
      "cp": "89130",
      "ville": "TOUCY",
      "prix": {
        "Gazole": 0.002189,
        "SP95": 0.002169,
        "E85": 0.0008990000000000001
      },
      "maj_gouv": {
        "Gazole": "2026-05-22 00:10:00",
        "SP95": "2026-04-15 00:10:00",
        "E85": "2026-04-15 00:10:00"
      }
    },
    {
      "id": "89290002",
      "lat": 47.705,
      "lon": 3.634,
      "cp": "89290",
      "ville": "VINCELLES",
      "prix": {
        "Gazole": 0.002159,
        "SP95": 0.002099
      },
      "maj_gouv": {
        "Gazole": "2026-05-18 12:15:14",
        "SP95": "2026-05-18 12:15:51"
      }
    },
    {
      "id": "89100013",
      "lat": 48.172,
      "lon": 3.292,
      "cp": "89100",
      "ville": "Sens",
      "prix": {
        "Gazole": 0.002169,
        "SP95": 0.002169,
        "E10": 0.0021190000000000002,
        "SP98": 0.002229
      },
      "maj_gouv": {
        "Gazole": "2026-05-22 00:00:00",
        "SP95": "2026-05-22 00:00:00",
        "E10": "2026-05-22 00:00:00",
        "SP98": "2026-05-22 00:00:00"
      }
    },
    {
      "id": "89520003",
      "lat": 47.518,
      "lon": 3.26,
      "cp": "89520",
      "ville": "Sainpuits",
      "prix": {
        "Gazole": 0.00239,
        "SP95": 0.0022,
        "SP98": 0.00227
      },
      "maj_gouv": {
        "Gazole": "2026-04-14 07:26:30",
        "SP95": "2026-04-07 01:15:11",
        "SP98": "2026-04-07 01:15:11"
      }
    },
    {
      "id": "89160001",
      "lat": 47.77,
      "lon": 4.175,
      "cp": "89160",
      "ville": "Ancy-le-Franc",
      "prix": {
        "Gazole": 0.002079,
        "SP95": 0.002059,
        "E85": 0.000959,
        "SP98": 0.002099
      },
      "maj_gouv": {
        "Gazole": "2026-05-29 09:10:49",
        "SP95": "2026-05-29 09:10:50",
        "E85": "2026-04-22 12:05:35",
        "SP98": "2026-05-29 09:10:50"
      }
    },
    {
      "id": "89470004",
      "lat": 47.846,
      "lon": 3.55,
      "cp": "89470",
      "ville": "MONETEAU",
      "prix": {
        "Gazole": 0.00209,
        "E85": 0.0008489999999999999,
        "E10": 0.00199
      },
      "maj_gouv": {
        "Gazole": "2026-05-30 00:01:00",
        "E85": "2026-05-30 00:01:00",
        "E10": "2026-05-30 00:01:00"
      }
    },
    {
      "id": "89140001",
      "lat": 48.294584699999994,
      "lon": 3.195853,
      "cp": "89140",
      "ville": "Pont-sur-Yonne",
      "prix": {
        "Gazole": 0.002199,
        "SP95": 0.002229,
        "E85": 0.0008990000000000001
      },
      "maj_gouv": {
        "Gazole": "2026-05-22 00:00:00",
        "SP95": "2026-05-22 00:00:00",
        "E85": "2026-05-22 00:00:00"
      }
    },
    {
      "id": "89350001",
      "lat": 47.779,
      "lon": 3.077,
      "cp": "89350",
      "ville": "Champignelles",
      "prix": {
        "Gazole": 0.002189,
        "SP95": 0.002169,
        "SP98": 0.002229
      },
      "maj_gouv": {
        "Gazole": "2026-05-22 00:00:00",
        "SP95": "2026-05-22 00:00:00",
        "SP98": "2026-05-22 00:00:00"
      }
    },
    {
      "id": "89560001",
      "lat": 47.616,
      "lon": 3.497,
      "cp": "89560",
      "ville": "COURSON-LES-CARRIèRES",
      "prix": {
        "Gazole": 0.002053
      },
      "maj_gouv": {
        "Gazole": "2026-05-29 08:01:36"
      }
    },
    {
      "id": "89000008",
      "lat": 47.797,
      "lon": 3.579,
      "cp": "89000",
      "ville": "Auxerre",
      "prix": {
        "Gazole": 0.002047,
        "E85": 0.000749,
        "E10": 0.002018,
        "SP98": 0.002094
      },
      "maj_gouv": {
        "Gazole": "2026-05-30 01:15:00",
        "E85": "2026-05-30 01:15:00",
        "E10": "2026-05-30 01:15:00",
        "SP98": "2026-05-30 01:15:00"
      }
    },
    {
      "id": "89600001",
      "lat": 48.00053054102,
      "lon": 3.71870193155,
      "cp": "89600",
      "ville": "Saint-Florentin",
      "prix": {
        "Gazole": 0.002199,
        "E10": 0.002149,
        "SP98": 0.002229
      },
      "maj_gouv": {
        "Gazole": "2026-05-22 00:00:00",
        "E10": "2026-05-22 00:00:00",
        "SP98": "2026-05-22 00:00:00"
      }
    },
    {
      "id": "89100006",
      "lat": 48.216605760092996,
      "lon": 3.2771067499518,
      "cp": "89100",
      "ville": "Saint-Denis-lès-Sens",
      "prix": {
        "Gazole": 0.002039,
        "E85": 0.000799,
        "GPLc": 0.001059,
        "E10": 0.002009,
        "SP98": 0.002089
      },
      "maj_gouv": {
        "Gazole": "2026-05-29 09:00:00",
        "E85": "2026-04-20 09:00:00",
        "GPLc": "2026-04-24 09:00:00",
        "E10": "2026-05-29 09:00:00",
        "SP98": "2026-05-29 09:00:00"
      }
    },
    {
      "id": "89100015",
      "lat": 48.204,
      "lon": 3.271,
      "cp": "89100",
      "ville": "Sens",
      "prix": {
        "Gazole": 0.00209,
        "E85": 0.0008449999999999999,
        "E10": 0.00199
      },
      "maj_gouv": {
        "Gazole": "2026-05-30 00:01:00",
        "E85": "2026-05-30 00:01:00",
        "E10": "2026-05-30 00:01:00"
      }
    },
    {
      "id": "89000007",
      "lat": 47.799,
      "lon": 3.553,
      "cp": "89000",
      "ville": "Auxerre",
      "prix": {
        "Gazole": 0.002007,
        "E10": 0.00199,
        "SP98": 0.00207
      },
      "maj_gouv": {
        "Gazole": "2026-05-30 06:31:00",
        "E10": "2026-05-30 06:31:00",
        "SP98": "2026-05-30 06:31:00"
      }
    },
    {
      "id": "89150002",
      "lat": 48.166,
      "lon": 3.172,
      "cp": "89150",
      "ville": "Fouchères",
      "prix": {
        "Gazole": 0.00227,
        "GPLc": 0.001088,
        "E10": 0.002211,
        "SP98": 0.002311
      },
      "maj_gouv": {
        "Gazole": "2026-05-25 07:41:00",
        "GPLc": "2026-05-25 07:41:00",
        "E10": "2026-05-25 07:41:00",
        "SP98": "2026-05-25 07:41:00"
      }
    },
    {
      "id": "89330002",
      "lat": 48.032,
      "lon": 3.304,
      "cp": "89330",
      "ville": "SAINT-JULIEN-DU-SAULT",
      "prix": {
        "Gazole": 0.002282,
        "SP95": 0.002233
      },
      "maj_gouv": {
        "Gazole": "2026-05-22 08:31:06",
        "SP95": "2026-05-22 08:31:06"
      }
    },
    {
      "id": "89400002",
      "lat": 47.963,
      "lon": 3.502,
      "cp": "89400",
      "ville": "Migennes",
      "prix": {
        "Gazole": 0.002021,
        "E10": 0.0020299999999999997,
        "SP98": 0.00211
      },
      "maj_gouv": {
        "Gazole": "2026-05-29 15:21:00",
        "E10": "2026-05-29 15:21:00",
        "SP98": "2026-05-29 15:21:00"
      }
    },
    {
      "id": "89380006",
      "lat": 47.880994937581995,
      "lon": 3.5280124431542,
      "cp": "89380",
      "ville": "APPOIGNY",
      "prix": {
        "Gazole": 0.00209,
        "E85": 0.0008489999999999999
      },
      "maj_gouv": {
        "Gazole": "2026-05-30 00:01:00",
        "E85": "2026-05-30 00:01:00"
      }
    },
    {
      "id": "89600003",
      "lat": 48.001252533769005,
      "lon": 3.7213207423039996,
      "cp": "89600",
      "ville": "SAINT-FLORENTIN",
      "prix": {
        "Gazole": 0.002053,
        "E10": 0.00199
      },
      "maj_gouv": {
        "Gazole": "2026-05-29 05:44:23",
        "E10": "2026-05-29 06:34:05"
      }
    },
    {
      "id": "89100014",
      "lat": 48.148,
      "lon": 3.307,
      "cp": "89100",
      "ville": "SENS",
      "prix": {
        "E85": 0.000829
      },
      "maj_gouv": {
        "E85": "2026-05-30 00:01:00"
      }
    },
    {
      "id": "89290007",
      "lat": 47.78765,
      "lon": 3.67211,
      "cp": "89290",
      "ville": "VENOY",
      "prix": {
        "Gazole": 0.00209,
        "E85": 0.000998,
        "GPLc": 0.001098,
        "E10": 0.00199,
        "SP98": 0.00199
      },
      "maj_gouv": {
        "Gazole": "2026-05-30 00:01:00",
        "E85": "2026-05-30 00:01:00",
        "GPLc": "2026-05-30 00:01:00",
        "E10": "2026-05-30 00:01:00",
        "SP98": "2026-05-30 00:01:00"
      }
    },
    {
      "id": "89000003",
      "lat": 47.811,
      "lon": 3.536,
      "cp": "89000",
      "ville": "SAINT-GEORGES-SUR-BAULCHE",
      "prix": {
        "Gazole": 0.002189,
        "E10": 0.002169,
        "SP98": 0.002229
      },
      "maj_gouv": {
        "Gazole": "2026-05-22 00:00:00",
        "E10": "2026-05-22 00:00:00",
        "SP98": "2026-05-22 00:00:00"
      }
    },
    {
      "id": "89116003",
      "lat": 47.97408,
      "lon": 3.19921,
      "cp": "89116",
      "ville": "Précy-sur-Vrin",
      "prix": {
        "Gazole": 0.00209,
        "E85": 0.000998,
        "GPLc": 0.001088,
        "E10": 0.00199,
        "SP98": 0.00199
      },
      "maj_gouv": {
        "Gazole": "2026-05-30 00:01:00",
        "E85": "2026-05-30 00:01:00",
        "GPLc": "2026-05-30 00:01:00",
        "E10": "2026-05-30 00:01:00",
        "SP98": "2026-05-30 00:01:00"
      }
    },
    {
      "id": "89110001",
      "lat": 47.876,
      "lon": 3.353,
      "cp": "89110",
      "ville": "AILLANT-SUR-THOLON",
      "prix": {
        "Gazole": 0.002189,
        "SP95": 0.002169,
        "SP98": 0.002229
      },
      "maj_gouv": {
        "Gazole": "2026-05-22 00:00:00",
        "SP95": "2026-05-22 00:00:00",
        "SP98": "2026-05-22 00:00:00"
      }
    },
    {
      "id": "89630001",
      "lat": 47.371,
      "lon": 3.998,
      "cp": "89630",
      "ville": "Quarré-les-Tombes",
      "prix": {
        "Gazole": 0.002162,
        "E10": 0.002127
      },
      "maj_gouv": {
        "Gazole": "2026-05-28 08:31:00",
        "E10": "2026-05-28 08:31:00"
      }
    },
    {
      "id": "89400001",
      "lat": 47.962,
      "lon": 3.505,
      "cp": "89400",
      "ville": "MIGENNES",
      "prix": {
        "Gazole": 0.002189,
        "SP95": 0.002169,
        "SP98": 0.002229
      },
      "maj_gouv": {
        "Gazole": "2026-05-22 00:00:00",
        "SP95": "2026-05-22 00:00:00",
        "SP98": "2026-05-22 00:00:00"
      }
    },
    {
      "id": "89340004",
      "lat": 48.336,
      "lon": 3.08,
      "cp": "89340",
      "ville": "Villeblevin",
      "prix": {
        "Gazole": 0.002655,
        "SP95": 0.0023580000000000003
      },
      "maj_gouv": {
        "Gazole": "2026-04-09 13:17:13",
        "SP95": "2026-04-09 13:17:13"
      }
    },
    {
      "id": "89420007",
      "lat": 47.467419859402,
      "lon": 4.0803019554445,
      "cp": "89420",
      "ville": "Cussy les Forges",
      "prix": {
        "Gazole": 0.002159,
        "E85": 0.001019,
        "E10": 0.002109,
        "SP98": 0.002249
      },
      "maj_gouv": {
        "Gazole": "2026-05-22 17:35:58",
        "E85": "2026-05-15 11:35:29",
        "E10": "2026-05-22 17:35:58",
        "SP98": "2026-05-22 17:35:59"
      }
    },
    {
      "id": "89000002",
      "lat": 47.792,
      "lon": 3.58,
      "cp": "89000",
      "ville": "Auxerre",
      "prix": {
        "Gazole": 0.002189,
        "SP95": 0.002169,
        "E10": 0.002149
      },
      "maj_gouv": {
        "Gazole": "2026-05-22 00:00:00",
        "SP95": "2026-05-22 00:00:00",
        "E10": "2026-05-22 00:00:00"
      }
    },
    {
      "id": "89800001",
      "lat": 47.81846,
      "lon": 3.78141,
      "cp": "89800",
      "ville": "Chablis",
      "prix": {
        "Gazole": 0.002125,
        "E10": 0.002099,
        "SP98": 0.002215
      },
      "maj_gouv": {
        "Gazole": "2026-05-26 10:43:59",
        "E10": "2026-05-20 12:30:25",
        "SP98": "2026-05-20 12:30:26"
      }
    },
    {
      "id": "89220001",
      "lat": 47.694,
      "lon": 2.95,
      "cp": "89220",
      "ville": "BLéNEAU",
      "prix": {
        "Gazole": 0.002189,
        "E10": 0.002149,
        "SP98": 0.002229
      },
      "maj_gouv": {
        "Gazole": "2026-05-22 00:00:00",
        "E10": "2026-05-22 00:00:00",
        "SP98": "2026-05-22 00:00:00"
      }
    },
    {
      "id": "89200006",
      "lat": 47.4982722302,
      "lon": 3.89684379984,
      "cp": "89200",
      "ville": "AVALLON",
      "prix": {
        "Gazole": 0.002159,
        "SP95": 0.002149,
        "E10": 0.002109,
        "SP98": 0.002249
      },
      "maj_gouv": {
        "Gazole": "2026-05-22 17:35:14",
        "SP95": "2026-05-22 17:35:14",
        "E10": "2026-05-22 17:35:14",
        "SP98": "2026-05-22 17:35:15"
      }
    },
    {
      "id": "89700002",
      "lat": 47.873,
      "lon": 3.967,
      "cp": "89700",
      "ville": "TONNERRE",
      "prix": {
        "Gazole": 0.002089,
        "E85": 0.0007970000000000001,
        "E10": 0.002069,
        "SP98": 0.002195
      },
      "maj_gouv": {
        "Gazole": "2026-05-30 01:15:00",
        "E85": "2026-05-30 01:15:00",
        "E10": "2026-05-30 01:15:00",
        "SP98": "2026-05-30 01:15:00"
      }
    },
    {
      "id": "89150004",
      "lat": 48.178,
      "lon": 3.11,
      "cp": "89150",
      "ville": "SAINT-VALERIEN",
      "prix": {
        "Gazole": 0.002199,
        "SP95": 0.002169,
        "SP98": 0.002229
      },
      "maj_gouv": {
        "Gazole": "2026-05-22 00:00:00",
        "SP95": "2026-05-22 00:00:00",
        "SP98": "2026-05-22 00:00:00"
      }
    },
    {
      "id": "89290008",
      "lat": 47.703,
      "lon": 3.628,
      "cp": "89290",
      "ville": "Vincelles",
      "prix": {
        "Gazole": 0.002229,
        "E10": 0.002169,
        "SP98": 0.0022890000000000002
      },
      "maj_gouv": {
        "Gazole": "2026-05-26 10:36:44",
        "E10": "2026-05-26 10:36:45",
        "SP98": "2026-05-26 10:36:45"
      }
    },
    {
      "id": "89400004",
      "lat": 47.95,
      "lon": 3.469,
      "cp": "89400",
      "ville": "Épineau-les-Voves",
      "prix": {
        "Gazole": 0.002007,
        "E85": 0.000767,
        "E10": 0.002021,
        "SP98": 0.002126
      },
      "maj_gouv": {
        "Gazole": "2026-05-30 01:15:00",
        "E85": "2026-05-30 01:15:00",
        "E10": "2026-05-30 01:15:00",
        "SP98": "2026-05-30 01:15:00"
      }
    },
    {
      "id": "89210002",
      "lat": 47.99,
      "lon": 3.606,
      "cp": "89210",
      "ville": "Brienon-sur-Armançon",
      "prix": {
        "Gazole": 0.002053,
        "E10": 0.00199,
        "SP98": 0.00199
      },
      "maj_gouv": {
        "Gazole": "2026-05-29 09:12:50",
        "E10": "2026-05-29 09:12:50",
        "SP98": "2026-05-29 09:12:50"
      }
    },
    {
      "id": "89120001",
      "lat": 47.887,
      "lon": 3.096,
      "cp": "89120",
      "ville": "Charny",
      "prix": {
        "Gazole": 0.002189,
        "SP95": 0.002169,
        "SP98": 0.002229
      },
      "maj_gouv": {
        "Gazole": "2026-05-22 00:00:00",
        "SP95": "2026-05-22 00:00:00",
        "SP98": "2026-05-22 00:00:00"
      }
    },
    {
      "id": "89132001",
      "lat": 47.974,
      "lon": 3.198,
      "cp": "89116",
      "ville": "PRECY-SUR-VRIN",
      "prix": {
        "Gazole": 0.002269,
        "E85": 0.001055,
        "GPLc": 0.00116,
        "E10": 0.002219,
        "SP98": 0.002299
      },
      "maj_gouv": {
        "Gazole": "2026-05-28 18:06:06",
        "E85": "2026-05-28 18:06:06",
        "GPLc": "2026-05-28 18:06:06",
        "E10": "2026-05-28 18:06:06",
        "SP98": "2026-05-28 18:06:06"
      }
    },
    {
      "id": "89190007",
      "lat": 48.242996678371,
      "lon": 3.5544017645264,
      "cp": "89190",
      "ville": "Villeneuve-l'Archevêque",
      "prix": {
        "Gazole": 0.0022040000000000002,
        "GPLc": 0.001108,
        "E10": 0.002236,
        "SP98": 0.002319
      },
      "maj_gouv": {
        "Gazole": "2026-05-27 09:30:00",
        "GPLc": "2026-05-27 09:30:00",
        "E10": "2026-05-27 09:30:00",
        "SP98": "2026-05-27 09:30:00"
      }
    },
    {
      "id": "89600004",
      "lat": 47.99973,
      "lon": 3.71494,
      "cp": "89600",
      "ville": "Saint-Florentin",
      "prix": {
        "Gazole": 0.002079,
        "E85": 0.000798,
        "E10": 0.002059,
        "SP98": 0.002159
      },
      "maj_gouv": {
        "Gazole": "2026-05-29 08:57:14",
        "E85": "2026-05-28 09:24:20",
        "E10": "2026-05-15 09:08:44",
        "SP98": "2026-05-15 09:08:44"
      }
    },
    {
      "id": "89100002",
      "lat": 48.197,
      "lon": 3.266,
      "cp": "89100",
      "ville": "SENS",
      "prix": {
        "Gazole": 0.002059,
        "SP95": 0.002099,
        "E10": 0.002049
      },
      "maj_gouv": {
        "Gazole": "2026-05-28 10:14:09",
        "SP95": "2026-05-28 10:14:09",
        "E10": "2026-05-28 10:14:09"
      }
    },
    {
      "id": "89000011",
      "lat": 47.797,
      "lon": 3.547,
      "cp": "89000",
      "ville": "Auxerre",
      "prix": {
        "Gazole": 0.002029,
        "SP95": 0.002049,
        "SP98": 0.002079
      },
      "maj_gouv": {
        "Gazole": "2026-05-29 10:10:21",
        "SP95": "2026-05-29 10:10:21",
        "SP98": "2026-05-29 10:10:21"
      }
    },
    {
      "id": "89200003",
      "lat": 47.499,
      "lon": 3.908,
      "cp": "89200",
      "ville": "AVALLON",
      "prix": {
        "Gazole": 0.002179,
        "SP95": 0.0021190000000000002,
        "GPLc": 0.001199,
        "E10": 0.002099,
        "SP98": 0.002199
      },
      "maj_gouv": {
        "Gazole": "2026-05-22 00:00:00",
        "SP95": "2026-05-22 00:00:00",
        "GPLc": "2026-04-03 00:00:00",
        "E10": "2026-05-22 00:00:00",
        "SP98": "2026-04-15 00:00:00"
      }
    },
    {
      "id": "89300002",
      "lat": 47.9797,
      "lon": 3.38167,
      "cp": "89300",
      "ville": "Joigny",
      "prix": {
        "Gazole": 0.00199,
        "E85": 0.000798,
        "E10": 0.0019190000000000001,
        "SP98": 0.002029
      },
      "maj_gouv": {
        "Gazole": "2026-05-29 09:00:00",
        "E85": "2026-05-15 09:55:08",
        "E10": "2026-05-29 09:00:00",
        "SP98": "2026-05-29 09:00:00"
      }
    },
    {
      "id": "89130002",
      "lat": 47.7217607339,
      "lon": 3.3131277129499996,
      "cp": "89130",
      "ville": "TOUCY",
      "prix": {
        "Gazole": 0.002039,
        "E85": 0.000798,
        "E10": 0.002029,
        "SP98": 0.002189
      },
      "maj_gouv": {
        "Gazole": "2026-05-29 07:21:55",
        "E85": "2026-05-18 08:47:24",
        "E10": "2026-05-29 07:21:55",
        "SP98": "2026-05-19 09:01:43"
      }
    },
    {
      "id": "89450002",
      "lat": 47.462,
      "lon": 3.768,
      "cp": "89450",
      "ville": "ST PERE SOUS VEZELAY",
      "prix": {
        "Gazole": 0.002099,
        "SP95": 0.002099
      },
      "maj_gouv": {
        "Gazole": "2026-05-28 16:26:38",
        "SP95": "2026-05-28 16:26:38"
      }
    },
    {
      "id": "89920001",
      "lat": 47.79,
      "lon": 3.673,
      "cp": "89290",
      "ville": "Champs-sur-Yonne",
      "prix": {
        "Gazole": 0.00221,
        "E85": 0.0009260000000000001,
        "GPLc": 0.001088,
        "E10": 0.00215,
        "SP98": 0.002235
      },
      "maj_gouv": {
        "Gazole": "2026-05-28 06:31:00",
        "E85": "2026-05-28 06:31:00",
        "GPLc": "2026-05-28 06:31:00",
        "E10": "2026-05-28 06:31:00",
        "SP98": "2026-05-28 06:31:00"
      }
    },
    {
      "id": "89340003",
      "lat": 48.335,
      "lon": 3.065,
      "cp": "89340",
      "ville": "VILLENEUVE-LA-GUYARD",
      "prix": {
        "Gazole": 0.002029,
        "E85": 0.000798,
        "E10": 0.0019590000000000002,
        "SP98": 0.002069
      },
      "maj_gouv": {
        "Gazole": "2026-05-29 08:00:00",
        "E85": "2026-05-21 08:00:00",
        "E10": "2026-05-29 08:00:00",
        "SP98": "2026-05-29 08:00:00"
      }
    },
    {
      "id": "89100009",
      "lat": 48.187222861284,
      "lon": 3.3178043719670995,
      "cp": "89100",
      "ville": "MALAY-LE-GRAND",
      "prix": {
        "Gazole": 0.002049,
        "E85": 0.000799,
        "E10": 0.002019,
        "SP98": 0.002099
      },
      "maj_gouv": {
        "Gazole": "2026-05-29 10:02:07",
        "E85": "2026-05-13 18:54:03",
        "E10": "2026-05-29 10:02:07",
        "SP98": "2026-05-29 10:02:08"
      }
    },
    {
      "id": "89144002",
      "lat": 47.895,
      "lon": 3.758,
      "cp": "89144",
      "ville": "Ligny-le-Châtel",
      "prix": {
        "Gazole": 0.002109,
        "E85": 0.000879,
        "E10": 0.002089
      },
      "maj_gouv": {
        "Gazole": "2026-05-27 17:55:40",
        "E85": "2026-04-28 18:22:59",
        "E10": "2026-05-27 17:55:40"
      }
    },
    {
      "id": "89340001",
      "lat": 48.336,
      "lon": 3.08,
      "cp": "89340",
      "ville": "VILLEBLEVIN",
      "prix": {
        "Gazole": 0.00209,
        "SP95": 0.00199
      },
      "maj_gouv": {
        "Gazole": "2026-05-30 06:25:52",
        "SP95": "2026-05-30 06:25:52"
      }
    },
    {
      "id": "89000005",
      "lat": 47.804,
      "lon": 3.589,
      "cp": "89000",
      "ville": "AUXERRE",
      "prix": {
        "GPLc": 0.00107
      },
      "maj_gouv": {
        "GPLc": "2026-05-29 09:26:23"
      }
    },
    {
      "id": "89100004",
      "lat": 48.184,
      "lon": 3.287,
      "cp": "89100",
      "ville": "SENS",
      "prix": {
        "Gazole": 0.002053,
        "E10": 0.00199,
        "SP98": 0.00199
      },
      "maj_gouv": {
        "Gazole": "2026-05-29 07:53:32",
        "E10": "2026-05-27 10:39:46",
        "SP98": "2026-05-29 13:26:01"
      }
    },
    {
      "id": "89100017",
      "lat": 48.204847767689,
      "lon": 3.2890251042323,
      "cp": "89100",
      "ville": "SENS",
      "prix": {
        "Gazole": 0.002169,
        "E85": 0.0009649999999999999,
        "GPLc": 0.001089,
        "E10": 0.0021190000000000002,
        "SP98": 0.002229
      },
      "maj_gouv": {
        "Gazole": "2026-05-29 23:30:00",
        "E85": "2026-05-29 23:30:00",
        "GPLc": "2026-05-29 23:30:00",
        "E10": "2026-05-29 23:30:00",
        "SP98": "2026-05-29 23:30:00"
      }
    },
    {
      "id": "89120003",
      "lat": 47.877,
      "lon": 3.095,
      "cp": "89120",
      "ville": "Charny-Orée-de-Puisaye",
      "prix": {
        "Gazole": 0.002019,
        "E85": 0.000798,
        "E10": 0.002019,
        "SP98": 0.002139
      },
      "maj_gouv": {
        "Gazole": "2026-05-28 09:49:56",
        "E85": "2026-05-15 15:00:00",
        "E10": "2026-05-28 09:46:37",
        "SP98": "2026-05-28 09:46:37"
      }
    },
    {
      "id": "89470001",
      "lat": 47.844,
      "lon": 3.551,
      "cp": "89470",
      "ville": "MONETEAU",
      "prix": {
        "Gazole": 0.0020670000000000003,
        "GPLc": 0.001028,
        "E10": 0.0020169999999999997,
        "SP98": 0.002212
      },
      "maj_gouv": {
        "Gazole": "2026-05-29 10:14:38",
        "GPLc": "2026-05-29 10:14:38",
        "E10": "2026-05-29 10:14:38",
        "SP98": "2026-05-29 10:14:38"
      }
    },
    {
      "id": "89300003",
      "lat": 47.977,
      "lon": 3.411,
      "cp": "89300",
      "ville": "JOIGNY",
      "prix": {
        "Gazole": 0.002053
      },
      "maj_gouv": {
        "Gazole": "2026-05-29 06:13:33"
      }
    },
    {
      "id": "89470005",
      "lat": 47.847,
      "lon": 3.58,
      "cp": "89470",
      "ville": "MONETEAU",
      "prix": {
        "E85": 0.000859
      },
      "maj_gouv": {
        "E85": "2026-04-15 09:34:44"
      }
    },
    {
      "id": "89440001",
      "lat": 47.591429000000005,
      "lon": 4.002189,
      "cp": "89440",
      "ville": "L'ISLE SUR SEREIN",
      "prix": {
        "Gazole": 0.002179,
        "SP95": 0.0021190000000000002,
        "SP98": 0.002229
      },
      "maj_gouv": {
        "Gazole": "2026-05-22 07:45:00",
        "SP95": "2026-05-22 07:45:00",
        "SP98": "2026-05-22 07:45:00"
      }
    },
    {
      "id": "89420008",
      "lat": 47.503302875357996,
      "lon": 4.0352394865034,
      "cp": "89420",
      "ville": "guillon en terre plaine",
      "prix": {
        "Gazole": 0.002205,
        "E85": 0.000978,
        "GPLc": 0.00116,
        "E10": 0.002142,
        "SP98": 0.0022080000000000003
      },
      "maj_gouv": {
        "Gazole": "2026-05-28 06:00:00",
        "E85": "2026-05-28 06:00:00",
        "GPLc": "2026-05-21 12:52:13",
        "E10": "2026-05-28 06:00:00",
        "SP98": "2026-05-28 06:00:00"
      }
    },
    {
      "id": "89520002",
      "lat": 47.62,
      "lon": 3.192,
      "cp": "89520",
      "ville": "SAINT-SAUVEUR-EN-PUISAYE",
      "prix": {
        "Gazole": 0.002053,
        "SP95": 0.00199
      },
      "maj_gouv": {
        "Gazole": "2026-05-29 08:40:37",
        "SP95": "2026-05-27 08:53:20"
      }
    }
  ]
}