{
  "departement": "34",
  "date": "2026-05-14",
  "stations": [
    {
      "id": "34150003",
      "lat": 43.651,
      "lon": 3.547,
      "cp": "34150",
      "ville": "GIGNAC",
      "prix": {
        "Gazole": 0.002074,
        "E85": 0.000819,
        "E10": 0.001998,
        "SP98": 0.002105
      },
      "maj_gouv": {
        "Gazole": "2026-05-13 08:30:00",
        "E85": "2026-04-16 08:30:00",
        "E10": "2026-05-13 08:30:00",
        "SP98": "2026-05-12 08:29:00"
      }
    },
    {
      "id": "34670001",
      "lat": 43.655,
      "lon": 3.996,
      "cp": "34670",
      "ville": "BAILLARGUES",
      "prix": {
        "Gazole": 0.002199,
        "E10": 0.002079,
        "SP98": 0.002199
      },
      "maj_gouv": {
        "Gazole": "2026-05-13 05:30:58",
        "E10": "2026-05-13 05:30:58",
        "SP98": "2026-05-13 05:30:58"
      }
    },
    {
      "id": "34420003",
      "lat": 43.322,
      "lon": 3.291,
      "cp": "34420",
      "ville": "Villeneuve-lès-Béziers",
      "prix": {
        "Gazole": 0.002088,
        "SP95": 0.002033,
        "SP98": 0.002111
      },
      "maj_gouv": {
        "Gazole": "2026-05-11 12:06:50",
        "SP95": "2026-05-11 12:06:50",
        "SP98": "2026-05-11 12:06:50"
      }
    },
    {
      "id": "34170001",
      "lat": 43.623,
      "lon": 3.898,
      "cp": "34170",
      "ville": "CASTELNAU-LE-LEZ",
      "prix": {
        "Gazole": 0.002099,
        "E85": 0.000859,
        "E10": 0.002059,
        "SP98": 0.002149
      },
      "maj_gouv": {
        "Gazole": "2026-05-13 07:34:38",
        "E85": "2026-05-13 07:34:38",
        "E10": "2026-05-13 07:34:38",
        "SP98": "2026-05-13 07:34:38"
      }
    },
    {
      "id": "34620002",
      "lat": 43.367,
      "lon": 3.049,
      "cp": "34620",
      "ville": "Puisserguier",
      "prix": {
        "Gazole": 0.002232,
        "SP95": 0.002117,
        "E85": 0.000915,
        "SP98": 0.002186
      },
      "maj_gouv": {
        "Gazole": "2026-05-11 20:46:50",
        "SP95": "2026-05-06 12:08:02",
        "E85": "2026-05-01 20:18:08",
        "SP98": "2026-05-06 12:08:02"
      }
    },
    {
      "id": "34360002",
      "lat": 43.422409575399996,
      "lon": 2.93681726025,
      "cp": "34360",
      "ville": "SAINT-CHINIAN",
      "prix": {
        "Gazole": 0.002199,
        "E10": 0.002049
      },
      "maj_gouv": {
        "Gazole": "2026-04-30 00:00:00",
        "E10": "2026-04-30 00:00:00"
      }
    },
    {
      "id": "34690009",
      "lat": 43.548175937549,
      "lon": 3.7956014943175,
      "cp": "34690",
      "ville": "FABREGUES",
      "prix": {
        "Gazole": 0.00209,
        "E85": 0.000998,
        "GPLc": 0.001148,
        "E10": 0.00199,
        "SP98": 0.00199
      },
      "maj_gouv": {
        "Gazole": "2026-05-14 00:01:00",
        "E85": "2026-05-14 00:01:00",
        "GPLc": "2026-05-14 00:01:00",
        "E10": "2026-05-14 00:01:00",
        "SP98": "2026-05-14 00:01:00"
      }
    },
    {
      "id": "34110002",
      "lat": 43.449,
      "lon": 3.753,
      "cp": "34110",
      "ville": "FRONTIGNAN",
      "prix": {
        "Gazole": 0.002299,
        "SP95": 0.002059,
        "SP98": 0.002109
      },
      "maj_gouv": {
        "Gazole": "2026-05-05 10:21:24",
        "SP95": "2026-05-05 10:21:24",
        "SP98": "2026-05-05 10:21:24"
      }
    },
    {
      "id": "34920001",
      "lat": 43.659613186824,
      "lon": 3.9361696295143,
      "cp": "34920",
      "ville": "LE CRèS",
      "prix": {
        "Gazole": 0.0021000000000000003,
        "SP95": 0.0021000000000000003,
        "E85": 0.000833,
        "SP98": 0.00219
      },
      "maj_gouv": {
        "Gazole": "2026-05-13 13:33:11",
        "SP95": "2026-05-13 13:33:11",
        "E85": "2026-05-11 09:32:14",
        "SP98": "2026-05-13 13:33:12"
      }
    },
    {
      "id": "34000017",
      "lat": 43.578845,
      "lon": 3.8767620000000003,
      "cp": "34000",
      "ville": "Montpellier",
      "prix": {
        "Gazole": 0.002169,
        "GPLc": 0.001099,
        "E10": 0.002169,
        "SP98": 0.002269
      },
      "maj_gouv": {
        "Gazole": "2026-05-13 20:00:00",
        "GPLc": "2026-05-13 20:00:00",
        "E10": "2026-05-13 20:00:00",
        "SP98": "2026-05-13 20:00:00"
      }
    },
    {
      "id": "34540002",
      "lat": 43.439,
      "lon": 3.7,
      "cp": "34540",
      "ville": "Balaruc-les-Bains",
      "prix": {
        "Gazole": 0.002091,
        "E10": 0.00199,
        "SP98": 0.00199
      },
      "maj_gouv": {
        "Gazole": "2026-05-11 07:01:01",
        "E10": "2026-04-25 08:04:42",
        "SP98": "2026-04-25 08:02:07"
      }
    },
    {
      "id": "34410009",
      "lat": 43.29988743551,
      "lon": 3.2484989992494997,
      "cp": "34410",
      "ville": "sauvian",
      "prix": {
        "Gazole": 0.002199,
        "E10": 0.002068
      },
      "maj_gouv": {
        "Gazole": "2026-05-11 10:12:35",
        "E10": "2026-05-02 10:39:00"
      }
    },
    {
      "id": "34500025",
      "lat": 43.35448,
      "lon": 3.22184,
      "cp": "34500",
      "ville": "BEZIERS",
      "prix": {
        "E85": 0.0008489999999999999
      },
      "maj_gouv": {
        "E85": "2026-05-14 00:01:00"
      }
    },
    {
      "id": "34500032",
      "lat": 43.358321,
      "lon": 3.243799,
      "cp": "34500",
      "ville": "Béziers",
      "prix": {
        "Gazole": 0.002229,
        "E10": 0.002149,
        "SP98": 0.002249
      },
      "maj_gouv": {
        "Gazole": "2026-05-13 21:00:00",
        "E10": "2026-05-13 21:00:00",
        "SP98": "2026-05-13 21:00:00"
      }
    },
    {
      "id": "34190002",
      "lat": 43.92689,
      "lon": 3.721,
      "cp": "34190",
      "ville": "LAROQUE",
      "prix": {
        "Gazole": 0.0020670000000000003,
        "SP95": 0.0020510000000000003,
        "E10": 0.002021,
        "SP98": 0.002112
      },
      "maj_gouv": {
        "Gazole": "2026-05-13 08:33:57",
        "SP95": "2026-05-13 08:33:57",
        "E10": "2026-05-13 08:33:57",
        "SP98": "2026-05-13 08:33:57"
      }
    },
    {
      "id": "34220002",
      "lat": 43.488,
      "lon": 2.764,
      "cp": "34220",
      "ville": "Saint-Pons-de-Thomières",
      "prix": {
        "Gazole": 0.002149,
        "SP95": 0.00209,
        "E85": 0.00085
      },
      "maj_gouv": {
        "Gazole": "2026-05-13 09:32:48",
        "SP95": "2026-05-13 09:32:49",
        "E85": "2026-05-13 09:32:49"
      }
    },
    {
      "id": "34990001",
      "lat": 43.614,
      "lon": 3.809,
      "cp": "34990",
      "ville": "JUVIGNAC",
      "prix": {
        "Gazole": 0.002229,
        "E85": 0.000819,
        "GPLc": 0.001085,
        "E10": 0.002079,
        "SP98": 0.002199
      },
      "maj_gouv": {
        "Gazole": "2026-05-14 06:26:57",
        "E85": "2026-04-16 06:31:58",
        "GPLc": "2026-04-13 06:48:29",
        "E10": "2026-05-14 06:26:57",
        "SP98": "2026-05-14 06:26:58"
      }
    },
    {
      "id": "34320003",
      "lat": 43.501,
      "lon": 3.32,
      "cp": "34320",
      "ville": "ROUJAN",
      "prix": {
        "Gazole": 0.002075,
        "E85": 0.000799,
        "E10": 0.0020299999999999997,
        "SP98": 0.002105
      },
      "maj_gouv": {
        "Gazole": "2026-05-12 12:36:04",
        "E85": "2026-04-27 12:28:18",
        "E10": "2026-05-12 12:36:04",
        "SP98": "2026-05-12 12:36:05"
      }
    },
    {
      "id": "34120008",
      "lat": 43.464,
      "lon": 3.427,
      "cp": "34120",
      "ville": "Pézenas",
      "prix": {
        "Gazole": 0.002249,
        "E10": 0.002117,
        "SP98": 0.002249
      },
      "maj_gouv": {
        "Gazole": "2026-05-07 14:46:24",
        "E10": "2026-05-07 14:46:24",
        "SP98": "2026-05-07 14:46:24"
      }
    },
    {
      "id": "34140006",
      "lat": 43.448,
      "lon": 3.643,
      "cp": "34140",
      "ville": "BOUZIGUES",
      "prix": {
        "Gazole": 0.002299,
        "GPLc": 0.001089,
        "E10": 0.002099,
        "SP98": 0.002199
      },
      "maj_gouv": {
        "Gazole": "2026-05-01 13:14:23",
        "GPLc": "2026-04-15 10:19:03",
        "E10": "2026-04-15 10:19:03",
        "SP98": "2026-04-15 10:19:04"
      }
    },
    {
      "id": "34500033",
      "lat": 43.355531129999996,
      "lon": 3.239479914,
      "cp": "34500",
      "ville": "BEZIERS",
      "prix": {
        "Gazole": 0.002088,
        "E10": 0.00199,
        "SP98": 0.0020659999999999997
      },
      "maj_gouv": {
        "Gazole": "2026-05-12 09:14:31",
        "E10": "2026-05-13 09:31:35",
        "SP98": "2026-05-12 09:14:32"
      }
    },
    {
      "id": "34200003",
      "lat": 43.414,
      "lon": 3.716,
      "cp": "34200",
      "ville": "SèTE",
      "prix": {
        "Gazole": 0.0022389999999999997,
        "E85": 0.000859,
        "GPLc": 0.001095,
        "E10": 0.002149,
        "SP98": 0.002229
      },
      "maj_gouv": {
        "Gazole": "2026-05-13 14:00:00",
        "E85": "2026-05-13 14:00:00",
        "GPLc": "2026-05-13 14:00:00",
        "E10": "2026-05-13 14:00:00",
        "SP98": "2026-05-13 14:00:00"
      }
    },
    {
      "id": "34370001",
      "lat": 43.387,
      "lon": 3.11,
      "cp": "34370",
      "ville": "CAZOULS-LèS-BéZIERS",
      "prix": {
        "Gazole": 0.0020859999999999997,
        "SP95": 0.002047,
        "E85": 0.00082,
        "E10": 0.001999
      },
      "maj_gouv": {
        "Gazole": "2026-05-12 11:18:07",
        "SP95": "2026-05-12 11:18:07",
        "E85": "2026-04-28 08:42:27",
        "E10": "2026-05-12 11:18:07"
      }
    },
    {
      "id": "34250003",
      "lat": 43.529,
      "lon": 3.931,
      "cp": "34250",
      "ville": "Palavas-les-Flots",
      "prix": {
        "Gazole": 0.00209,
        "E10": 0.00199,
        "SP98": 0.00199
      },
      "maj_gouv": {
        "Gazole": "2026-05-14 00:01:00",
        "E10": "2026-05-14 00:01:00",
        "SP98": "2026-05-14 00:01:00"
      }
    },
    {
      "id": "34520002",
      "lat": 43.86449,
      "lon": 3.31188,
      "cp": "34520",
      "ville": "LE CAYLAR",
      "prix": {
        "Gazole": 0.00209,
        "E85": 0.000998,
        "GPLc": 0.0011279999999999999,
        "E10": 0.00199,
        "SP98": 0.00199
      },
      "maj_gouv": {
        "Gazole": "2026-05-14 00:01:00",
        "E85": "2026-05-14 00:01:00",
        "GPLc": "2026-05-14 00:01:00",
        "E10": "2026-05-14 00:01:00",
        "SP98": "2026-05-14 00:01:00"
      }
    },
    {
      "id": "34400016",
      "lat": 43.716,
      "lon": 4.134,
      "cp": "34400",
      "ville": "villetelle",
      "prix": {
        "Gazole": 0.002326,
        "E85": 0.000998,
        "GPLc": 0.001206,
        "E10": 0.002206,
        "SP98": 0.002281
      },
      "maj_gouv": {
        "Gazole": "2026-05-13 11:09:59",
        "E85": "2026-05-13 11:10:00",
        "GPLc": "2026-05-13 11:09:59",
        "E10": "2026-05-13 11:09:59",
        "SP98": "2026-05-13 11:09:59"
      }
    },
    {
      "id": "34070004",
      "lat": 43.592,
      "lon": 3.867,
      "cp": "34070",
      "ville": "MONTPELLIER",
      "prix": {
        "Gazole": 0.0021219999999999998,
        "E10": 0.002038,
        "SP98": 0.002177
      },
      "maj_gouv": {
        "Gazole": "2026-05-12 16:55:44",
        "E10": "2026-05-12 16:55:44",
        "SP98": "2026-05-12 16:55:44"
      }
    },
    {
      "id": "34250002",
      "lat": 43.535,
      "lon": 3.911,
      "cp": "34250",
      "ville": "PALAVAS-LES-FLOTS",
      "prix": {
        "Gazole": 0.0022890000000000002,
        "SP95": 0.002129,
        "E10": 0.0020499999999999997,
        "SP98": 0.00217
      },
      "maj_gouv": {
        "Gazole": "2026-05-07 12:09:27",
        "SP95": "2026-05-07 12:09:27",
        "E10": "2026-05-07 12:09:27",
        "SP98": "2026-05-07 12:09:27"
      }
    },
    {
      "id": "34070012",
      "lat": 43.595,
      "lon": 3.868,
      "cp": "34070",
      "ville": "MONTPELLIER",
      "prix": {
        "Gazole": 0.00229,
        "SP95": 0.002199,
        "E85": 0.000996,
        "SP98": 0.0022389999999999997
      },
      "maj_gouv": {
        "Gazole": "2026-04-24 11:37:56",
        "SP95": "2026-05-07 08:38:04",
        "E85": "2026-05-07 08:38:05",
        "SP98": "2026-05-07 08:38:05"
      }
    },
    {
      "id": "34725001",
      "lat": 43.65075,
      "lon": 3.50952,
      "cp": "34725",
      "ville": "SAINT-ANDRé-DE-SANGONIS",
      "prix": {
        "Gazole": 0.002159,
        "E10": 0.002049,
        "SP98": 0.002189
      },
      "maj_gouv": {
        "Gazole": "2026-05-12 14:36:32",
        "E10": "2026-05-12 14:36:32",
        "SP98": "2026-05-12 14:36:32"
      }
    },
    {
      "id": "34550002",
      "lat": 43.372,
      "lon": 3.422,
      "cp": "34550",
      "ville": "BESSAN",
      "prix": {
        "Gazole": 0.002199,
        "E85": 0.0008179999999999999,
        "GPLc": 0.0010689999999999999,
        "E10": 0.002049,
        "SP98": 0.002189
      },
      "maj_gouv": {
        "Gazole": "2026-05-13 09:13:21",
        "E85": "2026-04-17 08:45:00",
        "GPLc": "2026-04-08 07:23:36",
        "E10": "2026-05-04 09:00:00",
        "SP98": "2026-04-08 07:23:36"
      }
    },
    {
      "id": "34700002",
      "lat": 43.72279323,
      "lon": 3.32299427,
      "cp": "34700",
      "ville": "LODèVE",
      "prix": {
        "Gazole": 0.002069,
        "E85": 0.000909,
        "E10": 0.0020169999999999997,
        "SP98": 0.002089
      },
      "maj_gouv": {
        "Gazole": "2026-05-12 11:55:53",
        "E85": "2026-05-11 09:51:44",
        "E10": "2026-05-12 11:55:53",
        "SP98": "2026-05-12 11:55:53"
      }
    },
    {
      "id": "34570002",
      "lat": 43.6427954,
      "lon": 3.69559828,
      "cp": "34570",
      "ville": "Montarnaud",
      "prix": {
        "Gazole": 0.002099,
        "E85": 0.000819,
        "E10": 0.002089,
        "SP98": 0.002179
      },
      "maj_gouv": {
        "Gazole": "2026-05-13 08:55:51",
        "E85": "2026-04-23 12:16:24",
        "E10": "2026-05-13 08:55:51",
        "SP98": "2026-05-13 08:55:52"
      }
    },
    {
      "id": "34460001",
      "lat": 43.44814,
      "lon": 3.05598,
      "cp": "34460",
      "ville": "CESSENON-SUR-ORB",
      "prix": {
        "Gazole": 0.00215,
        "E10": 0.0021000000000000003,
        "SP98": 0.00217
      },
      "maj_gouv": {
        "Gazole": "2026-05-13 10:53:39",
        "E10": "2026-05-13 10:53:39",
        "SP98": "2026-05-13 10:53:39"
      }
    },
    {
      "id": "34973001",
      "lat": 43.58112502463099,
      "lon": 3.9310174668007,
      "cp": "34970",
      "ville": "LATTES",
      "prix": {
        "Gazole": 0.002095,
        "SP95": 0.002075,
        "E10": 0.0020299999999999997,
        "SP98": 0.002165
      },
      "maj_gouv": {
        "Gazole": "2026-05-13 00:39:00",
        "SP95": "2026-05-13 00:39:00",
        "E10": "2026-05-13 00:39:00",
        "SP98": "2026-05-13 00:39:00"
      }
    },
    {
      "id": "34200002",
      "lat": 43.40612,
      "lon": 3.70318,
      "cp": "34200",
      "ville": "Sète",
      "prix": {
        "Gazole": 0.002199,
        "E85": 0.000859,
        "E10": 0.002039,
        "SP98": 0.002199
      },
      "maj_gouv": {
        "Gazole": "2026-04-30 13:37:47",
        "E85": "2026-04-10 10:11:53",
        "E10": "2026-05-10 11:09:13",
        "SP98": "2026-04-10 10:11:54"
      }
    },
    {
      "id": "34800002",
      "lat": 43.632,
      "lon": 3.44,
      "cp": "34800",
      "ville": "CLERMONT-L'HéRAULT",
      "prix": {
        "Gazole": 0.002219,
        "SP95": 0.002099,
        "E10": 0.002079
      },
      "maj_gouv": {
        "Gazole": "2026-05-04 11:08:48",
        "SP95": "2026-05-04 11:08:48",
        "E10": "2026-05-04 11:08:48"
      }
    },
    {
      "id": "34120002",
      "lat": 43.452029065111994,
      "lon": 3.4178689993915,
      "cp": "34120",
      "ville": "PéZENAS",
      "prix": {
        "Gazole": 0.002198,
        "E10": 0.00199,
        "SP98": 0.00199
      },
      "maj_gouv": {
        "Gazole": "2026-05-13 06:44:30",
        "E10": "2026-05-13 06:44:30",
        "SP98": "2026-05-13 06:44:30"
      }
    },
    {
      "id": "34590001",
      "lat": 43.662,
      "lon": 4.178,
      "cp": "34590",
      "ville": "MARSILLARGUES",
      "prix": {
        "Gazole": 0.002099,
        "E10": 0.002089,
        "SP98": 0.002159
      },
      "maj_gouv": {
        "Gazole": "2026-05-11 09:00:00",
        "E10": "2026-05-11 09:00:00",
        "SP98": "2026-05-11 09:00:00"
      }
    },
    {
      "id": "34570001",
      "lat": 43.58474,
      "lon": 3.77903,
      "cp": "34570",
      "ville": "Pignan",
      "prix": {
        "Gazole": 0.002216,
        "E10": 0.00199,
        "SP98": 0.00199
      },
      "maj_gouv": {
        "Gazole": "2026-05-13 07:53:39",
        "E10": "2026-05-13 07:53:39",
        "SP98": "2026-05-13 07:53:39"
      }
    },
    {
      "id": "34450002",
      "lat": 43.312,
      "lon": 3.419,
      "cp": "34450",
      "ville": "VIAS",
      "prix": {
        "Gazole": 0.002249,
        "E85": 0.0008179999999999999,
        "E10": 0.002039,
        "SP98": 0.002139
      },
      "maj_gouv": {
        "Gazole": "2026-04-20 09:19:13",
        "E85": "2026-04-22 10:57:21",
        "E10": "2026-05-05 09:22:54",
        "SP98": "2026-05-05 09:22:55"
      }
    },
    {
      "id": "34810001",
      "lat": 43.391,
      "lon": 3.489,
      "cp": "34810",
      "ville": "Pomérols",
      "prix": {
        "Gazole": 0.002195,
        "E10": 0.002079,
        "SP98": 0.002169
      },
      "maj_gouv": {
        "Gazole": "2026-05-07 09:15:14",
        "E10": "2026-05-07 09:06:56",
        "SP98": "2026-05-07 09:06:56"
      }
    },
    {
      "id": "34490001",
      "lat": 43.421,
      "lon": 3.161,
      "cp": "34490",
      "ville": "Thézan-lès-Béziers",
      "prix": {
        "Gazole": 0.002099,
        "E85": 0.000799,
        "E10": 0.002062,
        "SP98": 0.002169
      },
      "maj_gouv": {
        "Gazole": "2026-05-13 13:47:59",
        "E85": "2026-05-08 18:36:12",
        "E10": "2026-05-13 13:51:58",
        "SP98": "2026-05-06 16:47:19"
      }
    },
    {
      "id": "34070002",
      "lat": 43.571,
      "lon": 3.942,
      "cp": "34475",
      "ville": "PEROLS",
      "prix": {
        "Gazole": 0.002095,
        "GPLc": 0.001095,
        "E10": 0.0020299999999999997,
        "SP98": 0.002165
      },
      "maj_gouv": {
        "Gazole": "2026-05-13 09:00:00",
        "GPLc": "2026-05-13 09:00:00",
        "E10": "2026-05-13 09:00:00",
        "SP98": "2026-05-13 09:00:00"
      }
    },
    {
      "id": "34380002",
      "lat": 43.783,
      "lon": 3.737,
      "cp": "34380",
      "ville": "Saint-Martin-de-Londres",
      "prix": {
        "Gazole": 0.002093,
        "E85": 0.000847,
        "E10": 0.0020259999999999996,
        "SP98": 0.002134
      },
      "maj_gouv": {
        "Gazole": "2026-05-11 06:41:12",
        "E85": "2026-05-01 00:46:00",
        "E10": "2026-05-11 06:41:12",
        "SP98": "2026-05-11 06:41:12"
      }
    },
    {
      "id": "34440001",
      "lat": 43.312,
      "lon": 3.141,
      "cp": "34440",
      "ville": "COLOMBIERS",
      "prix": {
        "Gazole": 0.002189,
        "E85": 0.000859,
        "GPLc": 0.001095,
        "E10": 0.002149,
        "SP98": 0.0022890000000000002
      },
      "maj_gouv": {
        "Gazole": "2026-05-13 14:00:00",
        "E85": "2026-05-13 14:00:00",
        "GPLc": "2026-05-13 14:00:00",
        "E10": "2026-05-13 14:00:00",
        "SP98": "2026-05-13 14:00:00"
      }
    },
    {
      "id": "34410002",
      "lat": 43.27112,
      "lon": 3.2829,
      "cp": "34410",
      "ville": "Sérignan",
      "prix": {
        "Gazole": 0.002088,
        "SP95": 0.002033,
        "E85": 0.0008179999999999999,
        "E10": 0.002019,
        "SP98": 0.002111
      },
      "maj_gouv": {
        "Gazole": "2026-05-12 07:40:47",
        "SP95": "2026-05-12 07:40:47",
        "E85": "2026-04-30 19:00:57",
        "E10": "2026-05-12 07:40:47",
        "SP98": "2026-05-12 07:40:47"
      }
    },
    {
      "id": "34130004",
      "lat": 43.618,
      "lon": 3.989,
      "cp": "34130",
      "ville": "Mauguio",
      "prix": {
        "Gazole": 0.002199,
        "GPLc": 0.0012,
        "E10": 0.00199,
        "SP98": 0.00199
      },
      "maj_gouv": {
        "Gazole": "2026-05-13 07:36:02",
        "GPLc": "2026-05-13 07:36:02",
        "E10": "2026-05-13 07:36:02",
        "SP98": "2026-05-13 07:36:02"
      }
    },
    {
      "id": "34290007",
      "lat": 43.369129317048,
      "lon": 3.3910774626099,
      "cp": "34290",
      "ville": "MONTBLANC",
      "prix": {
        "Gazole": 0.0024129999999999998,
        "GPLc": 0.001148,
        "E10": 0.002432,
        "SP98": 0.0025819999999999997
      },
      "maj_gouv": {
        "Gazole": "2026-05-13 09:30:00",
        "GPLc": "2026-05-13 09:30:00",
        "E10": "2026-05-13 09:30:00",
        "SP98": "2026-05-13 09:30:00"
      }
    },
    {
      "id": "34500030",
      "lat": 43.34,
      "lon": 3.264,
      "cp": "34500",
      "ville": "Béziers",
      "prix": {
        "Gazole": 0.002088,
        "GPLc": 0.00111,
        "E10": 0.002043
      },
      "maj_gouv": {
        "Gazole": "2026-05-14 01:18:00",
        "GPLc": "2026-05-14 01:18:00",
        "E10": "2026-05-14 01:18:00"
      }
    },
    {
      "id": "34200001",
      "lat": 43.41,
      "lon": 3.669,
      "cp": "34200",
      "ville": "Sète",
      "prix": {
        "Gazole": 0.00209,
        "E85": 0.000859,
        "E10": 0.00199,
        "SP98": 0.0020659999999999997
      },
      "maj_gouv": {
        "Gazole": "2026-05-12 08:30:00",
        "E85": "2026-04-24 06:48:27",
        "E10": "2026-05-12 08:30:00",
        "SP98": "2026-05-12 08:30:00"
      }
    },
    {
      "id": "34750001",
      "lat": 43.537,
      "lon": 3.858,
      "cp": "34750",
      "ville": "Villeneuve-lès-Maguelone",
      "prix": {
        "Gazole": 0.00219,
        "E85": 0.0008179999999999999,
        "E10": 0.0020299999999999997,
        "SP98": 0.00217
      },
      "maj_gouv": {
        "Gazole": "2026-05-07 08:31:20",
        "E85": "2026-05-12 10:30:57",
        "E10": "2026-05-12 10:30:57",
        "SP98": "2026-05-07 08:31:20"
      }
    },
    {
      "id": "34110005",
      "lat": 43.4457,
      "lon": 3.75207,
      "cp": "34110",
      "ville": "FRONTIGNAN",
      "prix": {
        "Gazole": 0.00209,
        "E10": 0.00199,
        "SP98": 0.00199
      },
      "maj_gouv": {
        "Gazole": "2026-05-14 00:01:00",
        "E10": "2026-05-14 00:01:00",
        "SP98": "2026-05-14 00:01:00"
      }
    },
    {
      "id": "34280005",
      "lat": 43.549,
      "lon": 3.979,
      "cp": "34130",
      "ville": "MAUGUIO",
      "prix": {
        "Gazole": 0.00209,
        "E10": 0.00199,
        "SP98": 0.00199
      },
      "maj_gouv": {
        "Gazole": "2026-05-14 00:01:00",
        "E10": "2026-05-14 00:01:00",
        "SP98": "2026-05-14 00:01:00"
      }
    },
    {
      "id": "34830001",
      "lat": 43.66,
      "lon": 3.904,
      "cp": "34830",
      "ville": "JACOU",
      "prix": {
        "Gazole": 0.0021190000000000002,
        "E85": 0.000819,
        "E10": 0.002009,
        "SP98": 0.0021379999999999997
      },
      "maj_gouv": {
        "Gazole": "2026-05-12 07:22:10",
        "E85": "2026-05-12 07:22:10",
        "E10": "2026-05-12 07:22:10",
        "SP98": "2026-05-12 07:22:10"
      }
    },
    {
      "id": "34311001",
      "lat": 43.338,
      "lon": 3.239,
      "cp": "34500",
      "ville": "Béziers",
      "prix": {
        "Gazole": 0.002129,
        "SP95": 0.002054,
        "E10": 0.002019,
        "SP98": 0.0020819999999999996
      },
      "maj_gouv": {
        "Gazole": "2026-05-14 01:16:00",
        "SP95": "2026-05-14 01:16:00",
        "E10": "2026-05-14 01:16:00",
        "SP98": "2026-05-14 01:16:00"
      }
    },
    {
      "id": "34420004",
      "lat": 43.319,
      "lon": 3.302,
      "cp": "34420",
      "ville": "CERS",
      "prix": {
        "Gazole": 0.0021190000000000002,
        "E85": 0.0008179999999999999,
        "E10": 0.002059,
        "SP98": 0.002169
      },
      "maj_gouv": {
        "Gazole": "2026-05-13 06:22:42",
        "E85": "2026-04-21 06:44:34",
        "E10": "2026-05-13 06:22:42",
        "SP98": "2026-05-05 09:55:55"
      }
    },
    {
      "id": "34480001",
      "lat": 43.468,
      "lon": 3.209,
      "cp": "34480",
      "ville": "MAGALAS",
      "prix": {
        "Gazole": 0.002148,
        "E85": 0.0008179999999999999,
        "E10": 0.00206,
        "SP98": 0.00216
      },
      "maj_gouv": {
        "Gazole": "2026-05-11 14:00:00",
        "E85": "2026-05-07 07:21:37",
        "E10": "2026-05-11 14:00:00",
        "SP98": "2026-05-11 14:00:00"
      }
    },
    {
      "id": "34770001",
      "lat": 43.494,
      "lon": 3.709,
      "cp": "34770",
      "ville": "Gigean",
      "prix": {
        "Gazole": 0.002101,
        "E10": 0.00199
      },
      "maj_gouv": {
        "Gazole": "2026-05-13 07:03:16",
        "E10": "2026-05-11 14:46:52"
      }
    },
    {
      "id": "34300009",
      "lat": 43.284815569799996,
      "lon": 3.50286260671,
      "cp": "34300",
      "ville": "Agde",
      "prix": {
        "Gazole": 0.00209,
        "E85": 0.000853,
        "E10": 0.00199,
        "SP98": 0.00199
      },
      "maj_gouv": {
        "Gazole": "2026-05-14 00:01:00",
        "E85": "2026-05-14 00:01:00",
        "E10": "2026-05-14 00:01:00",
        "SP98": "2026-05-14 00:01:00"
      }
    },
    {
      "id": "34120007",
      "lat": 43.455,
      "lon": 3.423,
      "cp": "34120",
      "ville": "PEZENAS",
      "prix": {
        "Gazole": 0.002149,
        "E85": 0.0008990000000000001,
        "E10": 0.002089,
        "SP98": 0.002189
      },
      "maj_gouv": {
        "Gazole": "2026-05-14 00:01:00",
        "E85": "2026-05-14 00:01:00",
        "E10": "2026-05-14 00:01:00",
        "SP98": "2026-05-14 00:01:00"
      }
    },
    {
      "id": "34300002",
      "lat": 43.302,
      "lon": 3.472,
      "cp": "34300",
      "ville": "Agde",
      "prix": {},
      "maj_gouv": {}
    },
    {
      "id": "34090003",
      "lat": 43.627,
      "lon": 3.876,
      "cp": "34090",
      "ville": "MONTPELLIER",
      "prix": {
        "Gazole": 0.00209,
        "E10": 0.00199,
        "SP98": 0.00199
      },
      "maj_gouv": {
        "Gazole": "2026-05-14 00:01:00",
        "E10": "2026-05-14 00:01:00",
        "SP98": "2026-05-14 00:01:00"
      }
    },
    {
      "id": "34300013",
      "lat": 43.286,
      "lon": 3.514,
      "cp": "34300",
      "ville": "Agde",
      "prix": {
        "Gazole": 0.002229,
        "E85": 0.0008990000000000001,
        "E10": 0.002169,
        "SP98": 0.002269
      },
      "maj_gouv": {
        "Gazole": "2026-05-14 06:00:00",
        "E85": "2026-05-14 06:00:00",
        "E10": "2026-05-14 06:00:00",
        "SP98": "2026-05-14 06:00:00"
      }
    },
    {
      "id": "34200013",
      "lat": 43.413,
      "lon": 3.683,
      "cp": "34200",
      "ville": "SETE",
      "prix": {},
      "maj_gouv": {}
    },
    {
      "id": "34000014",
      "lat": 43.635,
      "lon": 3.823,
      "cp": "34000",
      "ville": "MONTPELLIER",
      "prix": {
        "Gazole": 0.00209,
        "E85": 0.000879,
        "GPLc": 0.0010789999999999999,
        "E10": 0.00199,
        "SP98": 0.00199
      },
      "maj_gouv": {
        "Gazole": "2026-05-14 00:01:00",
        "E85": "2026-05-14 00:01:00",
        "GPLc": "2026-05-14 00:01:00",
        "E10": "2026-05-14 00:01:00",
        "SP98": "2026-05-14 00:01:00"
      }
    },
    {
      "id": "34070017",
      "lat": 43.5895,
      "lon": 3.88887,
      "cp": "34070",
      "ville": "MONTPELLIER",
      "prix": {
        "Gazole": 0.00209,
        "E85": 0.000879,
        "E10": 0.00199,
        "SP98": 0.00199
      },
      "maj_gouv": {
        "Gazole": "2026-05-14 00:01:00",
        "E85": "2026-05-14 00:01:00",
        "E10": "2026-05-14 00:01:00",
        "SP98": "2026-05-14 00:01:00"
      }
    },
    {
      "id": "34140003",
      "lat": 43.4280745215,
      "lon": 3.60615111179,
      "cp": "34140",
      "ville": "MèZE",
      "prix": {
        "Gazole": 0.002269,
        "E10": 0.002169,
        "SP98": 0.002269
      },
      "maj_gouv": {
        "Gazole": "2026-05-14 06:00:00",
        "E10": "2026-05-14 06:00:00",
        "SP98": "2026-05-14 06:00:00"
      }
    },
    {
      "id": "34100001",
      "lat": 43.618,
      "lon": 3.844,
      "cp": "34080",
      "ville": "Montpellier",
      "prix": {
        "Gazole": 0.002229,
        "E10": 0.002149,
        "SP98": 0.002249
      },
      "maj_gouv": {
        "Gazole": "2026-05-13 21:30:00",
        "E10": "2026-05-13 21:30:00",
        "SP98": "2026-05-13 21:30:00"
      }
    },
    {
      "id": "34070020",
      "lat": 43.596,
      "lon": 3.887,
      "cp": "34070",
      "ville": "MONTPELLIER",
      "prix": {
        "Gazole": 0.00222,
        "E85": 0.0008900000000000001,
        "E10": 0.00214
      },
      "maj_gouv": {
        "Gazole": "2026-05-14 06:00:00",
        "E85": "2026-05-14 06:00:00",
        "E10": "2026-05-14 06:00:00"
      }
    },
    {
      "id": "34070019",
      "lat": 43.61,
      "lon": 3.839,
      "cp": "34070",
      "ville": "MONTPELLIER",
      "prix": {},
      "maj_gouv": {}
    },
    {
      "id": "34070018",
      "lat": 43.595,
      "lon": 3.849,
      "cp": "34070",
      "ville": "MONTPELLIER",
      "prix": {
        "Gazole": 0.00209,
        "E10": 0.00199
      },
      "maj_gouv": {
        "Gazole": "2026-05-14 00:01:00",
        "E10": "2026-05-14 00:01:00"
      }
    },
    {
      "id": "34110003",
      "lat": 43.434,
      "lon": 3.738,
      "cp": "34110",
      "ville": "Frontignan",
      "prix": {
        "Gazole": 0.002164,
        "E10": 0.002034,
        "SP98": 0.002157
      },
      "maj_gouv": {
        "Gazole": "2026-05-13 15:31:14",
        "E10": "2026-05-13 15:31:14",
        "SP98": "2026-05-13 15:31:14"
      }
    },
    {
      "id": "34270001",
      "lat": 43.76059,
      "lon": 3.86538,
      "cp": "34270",
      "ville": "Saint-Mathieu-de-Tréviers",
      "prix": {
        "Gazole": 0.002219,
        "SP95": 0.002145,
        "E10": 0.002055,
        "SP98": 0.002179
      },
      "maj_gouv": {
        "Gazole": "2026-05-04 09:58:24",
        "SP95": "2026-05-04 09:58:36",
        "E10": "2026-05-04 09:59:16",
        "SP98": "2026-05-04 09:58:54"
      }
    },
    {
      "id": "34330001",
      "lat": 43.59984,
      "lon": 2.69757,
      "cp": "34330",
      "ville": "La Salvetat-sur-Agout",
      "prix": {
        "Gazole": 0.00225,
        "SP95": 0.00199,
        "SP98": 0.00199
      },
      "maj_gouv": {
        "Gazole": "2026-04-08 16:25:40",
        "SP95": "2026-03-07 13:49:43",
        "SP98": "2026-03-09 11:50:55"
      }
    },
    {
      "id": "34400004",
      "lat": 43.676,
      "lon": 4.128,
      "cp": "34400",
      "ville": "Lunel",
      "prix": {
        "Gazole": 0.0021920000000000004,
        "E10": 0.002012,
        "SP98": 0.0020670000000000003
      },
      "maj_gouv": {
        "Gazole": "2026-05-07 11:31:00",
        "E10": "2026-05-07 11:31:00",
        "SP98": "2026-05-07 11:31:00"
      }
    },
    {
      "id": "34500028",
      "lat": 43.346448175582,
      "lon": 3.2412510394399003,
      "cp": "34500",
      "ville": "BEZIERS",
      "prix": {
        "Gazole": 0.00209,
        "E10": 0.00199
      },
      "maj_gouv": {
        "Gazole": "2026-05-14 00:01:00",
        "E10": "2026-05-14 00:01:00"
      }
    },
    {
      "id": "34500024",
      "lat": 43.337949625164,
      "lon": 3.2035771636848,
      "cp": "34500",
      "ville": "BEZIERS",
      "prix": {
        "Gazole": 0.0022789999999999998,
        "E85": 0.000829,
        "E10": 0.002059
      },
      "maj_gouv": {
        "Gazole": "2026-05-13 14:00:00",
        "E85": "2026-05-13 14:00:00",
        "E10": "2026-05-13 14:00:00"
      }
    },
    {
      "id": "34500026",
      "lat": 43.354260237735,
      "lon": 3.2291535224152,
      "cp": "34500",
      "ville": "BEZIERS",
      "prix": {
        "Gazole": 0.002101,
        "E85": 0.000846,
        "GPLc": 0.001099
      },
      "maj_gouv": {
        "Gazole": "2026-05-13 21:25:28",
        "E85": "2026-05-14 00:01:00",
        "GPLc": "2026-05-13 21:25:28"
      }
    },
    {
      "id": "34770002",
      "lat": 43.595,
      "lon": 3.888,
      "cp": "34070",
      "ville": "Montpellier",
      "prix": {
        "Gazole": 0.002127,
        "E10": 0.0020459999999999996,
        "SP98": 0.0022040000000000002
      },
      "maj_gouv": {
        "Gazole": "2026-05-13 10:50:00",
        "E10": "2026-05-13 10:50:00",
        "SP98": "2026-05-13 10:50:00"
      }
    },
    {
      "id": "34550001",
      "lat": 43.38,
      "lon": 3.42,
      "cp": "34550",
      "ville": "Bessan",
      "prix": {
        "Gazole": 0.0022080000000000003,
        "E10": 0.002058,
        "SP98": 0.002198
      },
      "maj_gouv": {
        "Gazole": "2026-05-13 16:50:00",
        "E10": "2026-05-13 16:50:00",
        "SP98": "2026-05-13 16:50:00"
      }
    },
    {
      "id": "34740002",
      "lat": 43.656,
      "lon": 3.962,
      "cp": "34740",
      "ville": "Vendargues",
      "prix": {
        "Gazole": 0.00211,
        "E10": 0.002032,
        "SP98": 0.002098
      },
      "maj_gouv": {
        "Gazole": "2026-05-13 07:40:00",
        "E10": "2026-05-13 07:40:00",
        "SP98": "2026-05-13 07:40:00"
      }
    },
    {
      "id": "34740004",
      "lat": 43.654,
      "lon": 3.966,
      "cp": "34740",
      "ville": "VENDARGUES",
      "prix": {
        "Gazole": 0.00209,
        "E85": 0.000865,
        "E10": 0.00199,
        "SP98": 0.00199
      },
      "maj_gouv": {
        "Gazole": "2026-05-14 00:01:00",
        "E85": "2026-05-14 00:01:00",
        "E10": "2026-05-14 00:01:00",
        "SP98": "2026-05-14 00:01:00"
      }
    },
    {
      "id": "34770005",
      "lat": 43.497574148983,
      "lon": 3.7116784796608,
      "cp": "34770",
      "ville": "Gigean",
      "prix": {
        "Gazole": 0.002229,
        "E10": 0.002109,
        "SP98": 0.00219
      },
      "maj_gouv": {
        "Gazole": "2026-04-30 09:01:06",
        "E10": "2026-05-06 13:30:06",
        "SP98": "2026-04-30 14:18:23"
      }
    },
    {
      "id": "34690010",
      "lat": 43.544,
      "lon": 3.792,
      "cp": "34690",
      "ville": "Fabrègues",
      "prix": {
        "Gazole": 0.002276,
        "E85": 0.000999,
        "GPLc": 0.00116,
        "E10": 0.002156,
        "SP98": 0.0022240000000000003
      },
      "maj_gouv": {
        "Gazole": "2026-05-13 15:25:47",
        "E85": "2026-05-13 15:25:47",
        "GPLc": "2026-05-13 15:25:47",
        "E10": "2026-05-14 06:00:00",
        "SP98": "2026-05-14 06:00:00"
      }
    },
    {
      "id": "34230002",
      "lat": 43.535,
      "lon": 3.453,
      "cp": "34230",
      "ville": "paulhan",
      "prix": {
        "Gazole": 0.002179,
        "E10": 0.002019,
        "SP98": 0.002129
      },
      "maj_gouv": {
        "Gazole": "2026-05-09 09:34:49",
        "E10": "2026-05-09 09:34:50",
        "SP98": "2026-05-09 09:34:50"
      }
    },
    {
      "id": "11200003",
      "lat": 43.58,
      "lon": 3.953,
      "cp": "34130",
      "ville": "Mauguio",
      "prix": {
        "Gazole": 0.002189,
        "E85": 0.000859,
        "GPLc": 0.001095,
        "E10": 0.002149
      },
      "maj_gouv": {
        "Gazole": "2026-05-13 14:00:00",
        "E85": "2026-05-13 14:00:00",
        "GPLc": "2026-05-13 14:00:00",
        "E10": "2026-05-13 14:00:00"
      }
    },
    {
      "id": "34320001",
      "lat": 43.50555,
      "lon": 3.30844,
      "cp": "34320",
      "ville": "Roujan",
      "prix": {
        "Gazole": 0.00225,
        "SP95": 0.00199,
        "SP98": 0.00199
      },
      "maj_gouv": {
        "Gazole": "2026-04-30 20:32:54",
        "SP95": "2026-04-30 20:33:23",
        "SP98": "2026-04-30 20:33:43"
      }
    },
    {
      "id": "34560001",
      "lat": 43.499,
      "lon": 3.592,
      "cp": "34560",
      "ville": "Villeveyrac",
      "prix": {
        "Gazole": 0.00215,
        "E10": 0.002129,
        "SP98": 0.0021680000000000002
      },
      "maj_gouv": {
        "Gazole": "2026-05-07 10:25:45",
        "E10": "2026-05-13 08:29:48",
        "SP98": "2026-05-07 10:25:46"
      }
    },
    {
      "id": "34490002",
      "lat": 43.3766586291,
      "lon": 3.1779261921799997,
      "cp": "34490",
      "ville": "LIGNAN-SUR-ORB",
      "prix": {
        "Gazole": 0.002185,
        "E85": 0.000819,
        "E10": 0.002039,
        "SP98": 0.0021680000000000002
      },
      "maj_gouv": {
        "Gazole": "2026-05-11 12:00:42",
        "E85": "2026-05-11 12:00:42",
        "E10": "2026-05-11 12:00:42",
        "SP98": "2026-05-11 12:00:42"
      }
    },
    {
      "id": "34400007",
      "lat": 43.676,
      "lon": 4.115,
      "cp": "34400",
      "ville": "LUNEL",
      "prix": {
        "Gazole": 0.002191,
        "E85": 0.000739,
        "E10": 0.002121,
        "SP98": 0.0021579999999999998
      },
      "maj_gouv": {
        "Gazole": "2026-05-13 16:25:46",
        "E85": "2026-05-13 16:25:46",
        "E10": "2026-05-13 16:25:46",
        "SP98": "2026-05-13 16:25:46"
      }
    },
    {
      "id": "34500023",
      "lat": 43.366,
      "lon": 3.209,
      "cp": "34500",
      "ville": "Béziers",
      "prix": {
        "Gazole": 0.002173,
        "E85": 0.000819,
        "E10": 0.001999,
        "SP98": 0.002112
      },
      "maj_gouv": {
        "Gazole": "2026-05-13 10:33:47",
        "E85": "2026-05-13 10:33:48",
        "E10": "2026-05-13 10:33:48",
        "SP98": "2026-05-13 10:33:48"
      }
    },
    {
      "id": "34070003",
      "lat": 43.589,
      "lon": 3.855,
      "cp": "34070",
      "ville": "MONTPELLIER",
      "prix": {
        "Gazole": 0.0021219999999999998,
        "E10": 0.002038,
        "SP98": 0.002177
      },
      "maj_gouv": {
        "Gazole": "2026-05-12 11:13:00",
        "E10": "2026-05-12 11:13:00",
        "SP98": "2026-05-12 11:13:00"
      }
    },
    {
      "id": "34500027",
      "lat": 43.332,
      "lon": 3.248,
      "cp": "34500",
      "ville": "BEZIERS",
      "prix": {
        "Gazole": 0.00209,
        "E85": 0.000841,
        "E10": 0.00199
      },
      "maj_gouv": {
        "Gazole": "2026-05-14 00:01:00",
        "E85": "2026-05-14 00:01:00",
        "E10": "2026-05-14 00:01:00"
      }
    },
    {
      "id": "34800005",
      "lat": 43.61,
      "lon": 3.463,
      "cp": "34800",
      "ville": "Clermont-l'Hérault",
      "prix": {
        "Gazole": 0.0021219999999999998,
        "E85": 0.0008179999999999999,
        "GPLc": 0.001049,
        "E10": 0.002059,
        "SP98": 0.002129
      },
      "maj_gouv": {
        "Gazole": "2026-05-12 12:23:06",
        "E85": "2026-05-12 12:23:06",
        "GPLc": "2026-05-12 12:23:06",
        "E10": "2026-05-12 12:23:06",
        "SP98": "2026-05-12 12:23:06"
      }
    },
    {
      "id": "34070016",
      "lat": 43.60413,
      "lon": 3.83911,
      "cp": "34070",
      "ville": "MONTPELLIER",
      "prix": {
        "Gazole": 0.00209,
        "E85": 0.0008489999999999999,
        "E10": 0.00199,
        "SP98": 0.00199
      },
      "maj_gouv": {
        "Gazole": "2026-05-14 00:01:00",
        "E85": "2026-05-14 00:01:00",
        "E10": "2026-05-14 00:01:00",
        "SP98": "2026-05-14 00:01:00"
      }
    },
    {
      "id": "34400018",
      "lat": 43.678753089699995,
      "lon": 4.14329815767,
      "cp": "34400",
      "ville": "LUNEL",
      "prix": {
        "Gazole": 0.00209
      },
      "maj_gouv": {
        "Gazole": "2026-05-14 00:01:00"
      }
    },
    {
      "id": "34430001",
      "lat": 43.578,
      "lon": 3.835,
      "cp": "34430",
      "ville": "SAINT-JEAN-DE-VéDAS",
      "prix": {
        "Gazole": 0.00209,
        "E85": 0.000894,
        "E10": 0.00199,
        "SP98": 0.00199
      },
      "maj_gouv": {
        "Gazole": "2026-05-14 05:44:13",
        "E85": "2026-05-14 05:44:13",
        "E10": "2026-05-14 05:44:13",
        "SP98": "2026-05-14 05:44:13"
      }
    },
    {
      "id": "34110004",
      "lat": 43.471,
      "lon": 3.768,
      "cp": "34110",
      "ville": "Frontignan",
      "prix": {
        "Gazole": 0.0022400000000000002,
        "SP95": 0.00217,
        "E85": 0.00092,
        "E10": 0.00212
      },
      "maj_gouv": {
        "Gazole": "2026-05-13 20:12:31",
        "SP95": "2026-05-13 20:12:31",
        "E85": "2026-05-13 20:12:31",
        "E10": "2026-05-13 20:12:31"
      }
    },
    {
      "id": "34600001",
      "lat": 43.60598,
      "lon": 3.14947,
      "cp": "34600",
      "ville": "Bédarieux",
      "prix": {
        "Gazole": 0.002125,
        "E85": 0.0008179999999999999,
        "GPLc": 0.00128,
        "E10": 0.001998,
        "SP98": 0.002098
      },
      "maj_gouv": {
        "Gazole": "2026-05-12 10:11:08",
        "E85": "2026-05-12 10:11:08",
        "GPLc": "2026-04-29 11:16:44",
        "E10": "2026-05-13 08:26:43",
        "SP98": "2026-05-13 08:26:43"
      }
    },
    {
      "id": "34000011",
      "lat": 43.644,
      "lon": 3.844,
      "cp": "34090",
      "ville": "MONTPELLIER",
      "prix": {
        "Gazole": 0.002199,
        "E10": 0.001999,
        "SP98": 0.002149
      },
      "maj_gouv": {
        "Gazole": "2026-04-29 15:17:42",
        "E10": "2026-05-02 12:37:29",
        "SP98": "2026-05-02 12:37:30"
      }
    },
    {
      "id": "34130003",
      "lat": 43.612,
      "lon": 4.006,
      "cp": "34130",
      "ville": "Mauguio",
      "prix": {
        "Gazole": 0.002028,
        "SP95": 0.002092,
        "E10": 0.0020369999999999997,
        "SP98": 0.002155
      },
      "maj_gouv": {
        "Gazole": "2026-05-13 08:00:00",
        "SP95": "2026-05-13 08:00:00",
        "E10": "2026-05-13 08:00:00",
        "SP98": "2026-05-13 08:00:00"
      }
    },
    {
      "id": "34260001",
      "lat": 43.657,
      "lon": 3.15,
      "cp": "34260",
      "ville": "La Tour-sur-Orb",
      "prix": {
        "Gazole": 0.002149,
        "E10": 0.002019,
        "SP98": 0.002199
      },
      "maj_gouv": {
        "Gazole": "2026-05-09 08:19:31",
        "E10": "2026-05-09 08:19:32",
        "SP98": "2026-05-09 08:19:32"
      }
    },
    {
      "id": "34450001",
      "lat": 43.314,
      "lon": 3.417,
      "cp": "34450",
      "ville": "VIAS",
      "prix": {
        "Gazole": 0.0022240000000000003,
        "E85": 0.000859
      },
      "maj_gouv": {
        "Gazole": "2026-05-13 06:31:49",
        "E85": "2026-04-13 07:45:46"
      }
    },
    {
      "id": "34530001",
      "lat": 43.48,
      "lon": 3.485,
      "cp": "34530",
      "ville": "MONTAGNAC",
      "prix": {
        "Gazole": 0.0023450000000000003,
        "E10": 0.002099,
        "SP98": 0.002219
      },
      "maj_gouv": {
        "Gazole": "2026-04-27 08:36:10",
        "E10": "2026-04-27 08:36:10",
        "SP98": "2026-04-27 08:36:10"
      }
    },
    {
      "id": "34130005",
      "lat": 43.627,
      "lon": 4.01,
      "cp": "34130",
      "ville": "Mauguio",
      "prix": {
        "Gazole": 0.002028,
        "SP95": 0.002092,
        "E85": 0.0008179999999999999
      },
      "maj_gouv": {
        "Gazole": "2026-05-13 08:00:00",
        "SP95": "2026-05-13 08:00:00",
        "E85": "2026-04-20 08:00:00"
      }
    },
    {
      "id": "34540001",
      "lat": 43.461,
      "lon": 3.691,
      "cp": "34540",
      "ville": "BALARUC-LE-VIEUX",
      "prix": {
        "Gazole": 0.002095,
        "SP95": 0.002076,
        "E10": 0.0020299999999999997,
        "SP98": 0.002165
      },
      "maj_gouv": {
        "Gazole": "2026-05-13 00:39:00",
        "SP95": "2026-05-13 00:39:00",
        "E10": "2026-05-13 00:39:00",
        "SP98": "2026-05-13 00:39:00"
      }
    },
    {
      "id": "34800001",
      "lat": 43.623,
      "lon": 3.438,
      "cp": "34800",
      "ville": "Clermont-l'Hérault",
      "prix": {
        "Gazole": 0.002097,
        "E85": 0.000736,
        "GPLc": 0.00111,
        "E10": 0.0020870000000000003,
        "SP98": 0.002124
      },
      "maj_gouv": {
        "Gazole": "2026-05-13 08:13:50",
        "E85": "2026-05-13 08:13:50",
        "GPLc": "2026-05-13 08:13:50",
        "E10": "2026-05-13 08:13:50",
        "SP98": "2026-05-13 08:13:50"
      }
    },
    {
      "id": "34660001",
      "lat": 43.55,
      "lon": 3.715,
      "cp": "34660",
      "ville": "COURNONSEC",
      "prix": {
        "Gazole": 0.002199,
        "E85": 0.000819,
        "E10": 0.002049,
        "SP98": 0.002159
      },
      "maj_gouv": {
        "Gazole": "2026-05-13 11:45:11",
        "E85": "2026-05-13 11:45:11",
        "E10": "2026-05-13 11:45:11",
        "SP98": "2026-05-13 11:45:11"
      }
    },
    {
      "id": "34140004",
      "lat": 43.42552,
      "lon": 3.60195,
      "cp": "34140",
      "ville": "Mèze",
      "prix": {
        "Gazole": 0.002185,
        "E85": 0.000819,
        "E10": 0.002069,
        "SP98": 0.002235
      },
      "maj_gouv": {
        "Gazole": "2026-05-12 14:59:54",
        "E85": "2026-04-19 08:22:02",
        "E10": "2026-05-12 14:59:55",
        "SP98": "2026-05-12 14:59:55"
      }
    },
    {
      "id": "34980002",
      "lat": 43.6795,
      "lon": 3.82064,
      "cp": "34980",
      "ville": "SAINT-GéLY-DU-FESC",
      "prix": {
        "Gazole": 0.002219,
        "E85": 0.000819,
        "GPLc": 0.001085,
        "E10": 0.002059,
        "SP98": 0.002179
      },
      "maj_gouv": {
        "Gazole": "2026-05-04 08:26:23",
        "E85": "2026-04-17 07:30:00",
        "GPLc": "2026-04-14 10:29:15",
        "E10": "2026-05-05 08:26:55",
        "SP98": "2026-05-04 08:26:23"
      }
    },
    {
      "id": "34290003",
      "lat": 43.357,
      "lon": 3.34,
      "cp": "34290",
      "ville": "SERVIAN",
      "prix": {
        "Gazole": 0.0024129999999999998,
        "E10": 0.002432,
        "SP98": 0.0025819999999999997
      },
      "maj_gouv": {
        "Gazole": "2026-05-13 09:30:00",
        "E10": "2026-05-13 09:30:00",
        "SP98": "2026-05-13 09:30:00"
      }
    },
    {
      "id": "34140001",
      "lat": 43.43,
      "lon": 3.609,
      "cp": "34140",
      "ville": "MèZE",
      "prix": {
        "Gazole": 0.002185,
        "SP95": 0.002075,
        "E85": 0.0008489999999999999,
        "SP98": 0.002235
      },
      "maj_gouv": {
        "Gazole": "2026-05-07 08:12:42",
        "SP95": "2026-05-07 08:12:42",
        "E85": "2026-04-30 09:52:54",
        "SP98": "2026-05-07 08:12:42"
      }
    },
    {
      "id": "34500008",
      "lat": 43.347333295735,
      "lon": 3.2449124091117003,
      "cp": "34500",
      "ville": "Béziers",
      "prix": {
        "Gazole": 0.002088,
        "E85": 0.000768,
        "GPLc": 0.00111,
        "E10": 0.002019,
        "SP98": 0.0020659999999999997
      },
      "maj_gouv": {
        "Gazole": "2026-05-12 09:24:57",
        "E85": "2026-04-07 11:16:55",
        "GPLc": "2026-04-28 09:47:31",
        "E10": "2026-05-12 09:24:58",
        "SP98": "2026-05-12 09:24:58"
      }
    },
    {
      "id": "34600003",
      "lat": 43.595,
      "lon": 3.128,
      "cp": "34600",
      "ville": "VILLEMAGNE-L'ARGENTIèRE",
      "prix": {
        "Gazole": 0.002129,
        "SP95": 0.002065,
        "E85": 0.0008179999999999999,
        "E10": 0.001999,
        "SP98": 0.002099
      },
      "maj_gouv": {
        "Gazole": "2026-05-13 07:30:00",
        "SP95": "2026-05-13 07:30:00",
        "E85": "2026-04-30 07:30:00",
        "E10": "2026-05-13 07:30:00",
        "SP98": "2026-05-13 07:30:00"
      }
    },
    {
      "id": "34170004",
      "lat": 43.631,
      "lon": 3.906,
      "cp": "34170",
      "ville": "Castelnau-le-lez",
      "prix": {
        "Gazole": 0.002219,
        "E85": 0.000819,
        "E10": 0.002079,
        "SP98": 0.002199
      },
      "maj_gouv": {
        "Gazole": "2026-05-12 07:03:15",
        "E85": "2026-05-12 07:03:15",
        "E10": "2026-05-12 07:03:15",
        "SP98": "2026-05-12 07:03:15"
      }
    },
    {
      "id": "34700005",
      "lat": 43.688,
      "lon": 3.356,
      "cp": "34700",
      "ville": "Le Bosc",
      "prix": {
        "Gazole": 0.002069,
        "SP95": 0.002089,
        "E85": 0.000714,
        "E10": 0.002029,
        "SP98": 0.002099
      },
      "maj_gouv": {
        "Gazole": "2026-05-14 01:16:00",
        "SP95": "2026-05-14 01:16:00",
        "E85": "2026-03-09 09:59:00",
        "E10": "2026-05-14 01:16:00",
        "SP98": "2026-05-14 01:16:00"
      }
    },
    {
      "id": "34980001",
      "lat": 43.6443,
      "lon": 3.84361,
      "cp": "34980",
      "ville": "SAINT-CLéMENT-DE-RIVIèRE",
      "prix": {
        "Gazole": 0.002068,
        "SP95": 0.002076,
        "E85": 0.0007379999999999999,
        "E10": 0.002022,
        "SP98": 0.002155
      },
      "maj_gouv": {
        "Gazole": "2026-05-13 22:59:00",
        "SP95": "2026-05-13 22:59:00",
        "E85": "2026-05-13 22:59:00",
        "E10": "2026-05-13 22:59:00",
        "SP98": "2026-05-13 22:59:00"
      }
    },
    {
      "id": "34360001",
      "lat": 43.421,
      "lon": 2.95,
      "cp": "34360",
      "ville": "SAINT-CHINIAN",
      "prix": {
        "Gazole": 0.00209,
        "E10": 0.00199,
        "SP98": 0.00199
      },
      "maj_gouv": {
        "Gazole": "2026-05-14 00:01:00",
        "E10": "2026-05-14 00:01:00",
        "SP98": "2026-05-14 00:01:00"
      }
    },
    {
      "id": "34340002",
      "lat": 43.358,
      "lon": 3.513,
      "cp": "34340",
      "ville": "Marseillan",
      "prix": {
        "Gazole": 0.002064,
        "SP95": 0.002068,
        "SP98": 0.002133
      },
      "maj_gouv": {
        "Gazole": "2026-05-13 16:19:07",
        "SP95": "2026-05-13 16:19:07",
        "SP98": "2026-05-13 16:19:07"
      }
    },
    {
      "id": "34370002",
      "lat": 43.359648853961,
      "lon": 3.1694527990723,
      "cp": "34370",
      "ville": "MARAUSSAN",
      "prix": {
        "Gazole": 0.002129,
        "E85": 0.000799,
        "E10": 0.0021190000000000002,
        "SP98": 0.0022789999999999998
      },
      "maj_gouv": {
        "Gazole": "2026-05-13 19:27:40",
        "E85": "2026-05-13 19:27:40",
        "E10": "2026-05-13 19:27:40",
        "SP98": "2026-05-13 19:27:40"
      }
    },
    {
      "id": "34300006",
      "lat": 43.31,
      "lon": 3.485,
      "cp": "34300",
      "ville": "AGDE",
      "prix": {
        "Gazole": 0.002099,
        "E85": 0.000819,
        "GPLc": 0.0010689999999999999,
        "E10": 0.001999,
        "SP98": 0.002125
      },
      "maj_gouv": {
        "Gazole": "2026-05-13 08:25:29",
        "E85": "2026-05-13 08:25:29",
        "GPLc": "2026-05-13 08:25:29",
        "E10": "2026-05-13 08:25:29",
        "SP98": "2026-05-13 08:25:29"
      }
    },
    {
      "id": "34560002",
      "lat": 43.48327389999999,
      "lon": 3.6713791,
      "cp": "34560",
      "ville": "POUSSAN",
      "prix": {
        "Gazole": 0.002189,
        "SP95": 0.002079
      },
      "maj_gouv": {
        "Gazole": "2026-05-13 12:40:00",
        "SP95": "2026-05-13 12:40:00"
      }
    },
    {
      "id": "34160003",
      "lat": 43.675,
      "lon": 3.983,
      "cp": "34160",
      "ville": "Castries",
      "prix": {
        "Gazole": 0.00211,
        "SP95": 0.0021349999999999997
      },
      "maj_gouv": {
        "Gazole": "2026-05-12 12:03:36",
        "SP95": "2026-05-12 12:03:36"
      }
    },
    {
      "id": "34690011",
      "lat": 43.561,
      "lon": 3.797,
      "cp": "34690",
      "ville": "FABREGUES",
      "prix": {
        "Gazole": 0.0021680000000000002,
        "E85": 0.000976,
        "E10": 0.002048,
        "SP98": 0.0021680000000000002
      },
      "maj_gouv": {
        "Gazole": "2026-05-13 10:51:00",
        "E85": "2026-05-13 10:51:00",
        "E10": "2026-05-13 10:51:00",
        "SP98": "2026-05-13 10:51:00"
      }
    },
    {
      "id": "34350003",
      "lat": 43.295950136900004,
      "lon": 3.21755178874,
      "cp": "34350",
      "ville": "Vendres",
      "prix": {
        "Gazole": 0.002129,
        "SP95": 0.002069,
        "GPLc": 0.001095,
        "E10": 0.002029
      },
      "maj_gouv": {
        "Gazole": "2026-05-12 10:18:49",
        "SP95": "2026-05-11 10:10:22",
        "GPLc": "2026-04-16 10:02:40",
        "E10": "2026-05-12 10:19:38"
      }
    },
    {
      "id": "34350005",
      "lat": 43.269388,
      "lon": 3.2379809999999996,
      "cp": "34350",
      "ville": "VENDRES",
      "prix": {
        "Gazole": 0.002108,
        "E85": 0.000838,
        "E10": 0.002029,
        "SP98": 0.002149
      },
      "maj_gouv": {
        "Gazole": "2026-05-12 08:19:10",
        "E85": "2026-04-23 08:12:36",
        "E10": "2026-05-12 08:19:10",
        "SP98": "2026-05-05 10:23:07"
      }
    },
    {
      "id": "34310002",
      "lat": 43.326,
      "lon": 3.051,
      "cp": "34310",
      "ville": "CAPESTANG",
      "prix": {
        "Gazole": 0.002075,
        "E85": 0.0008179999999999999,
        "E10": 0.002022,
        "SP98": 0.002156
      },
      "maj_gouv": {
        "Gazole": "2026-05-13 14:17:35",
        "E85": "2026-05-13 14:17:36",
        "E10": "2026-05-13 14:17:36",
        "SP98": "2026-05-13 14:17:36"
      }
    },
    {
      "id": "34200012",
      "lat": 43.408,
      "lon": 3.67,
      "cp": "34200",
      "ville": "SETE",
      "prix": {
        "Gazole": 0.002189,
        "E85": 0.000999,
        "E10": 0.002039,
        "SP98": 0.0021190000000000002
      },
      "maj_gouv": {
        "Gazole": "2026-05-08 15:50:39",
        "E85": "2026-04-06 10:21:46",
        "E10": "2026-05-08 15:50:40",
        "SP98": "2026-05-08 15:50:40"
      }
    },
    {
      "id": "34190001",
      "lat": 43.93026,
      "lon": 3.70595,
      "cp": "34190",
      "ville": "GANGES",
      "prix": {
        "Gazole": 0.0020670000000000003,
        "E85": 0.000759,
        "E10": 0.002021,
        "SP98": 0.002112
      },
      "maj_gouv": {
        "Gazole": "2026-05-13 08:29:51",
        "E85": "2026-04-18 08:07:41",
        "E10": "2026-05-13 08:29:51",
        "SP98": "2026-05-09 09:32:43"
      }
    },
    {
      "id": "34000009",
      "lat": 43.606,
      "lon": 3.887,
      "cp": "34000",
      "ville": "Montpellier",
      "prix": {
        "Gazole": 0.00211,
        "E10": 0.002024,
        "SP98": 0.002076
      },
      "maj_gouv": {
        "Gazole": "2026-05-13 07:40:00",
        "E10": "2026-05-13 07:40:00",
        "SP98": "2026-05-13 07:40:00"
      }
    },
    {
      "id": "34130002",
      "lat": 43.639,
      "lon": 3.964,
      "cp": "34130",
      "ville": "SAINT-AUNES",
      "prix": {
        "Gazole": 0.002028,
        "E85": 0.0007379999999999999,
        "E10": 0.002018,
        "SP98": 0.002109
      },
      "maj_gouv": {
        "Gazole": "2026-05-14 01:18:00",
        "E85": "2026-05-14 01:18:00",
        "E10": "2026-05-14 01:18:00",
        "SP98": "2026-05-14 01:18:00"
      }
    },
    {
      "id": "34600002",
      "lat": 43.562,
      "lon": 3.181,
      "cp": "34600",
      "ville": "FAUGERES",
      "prix": {
        "Gazole": 0.002149,
        "SP95": 0.00209
      },
      "maj_gouv": {
        "Gazole": "2026-05-13 09:31:58",
        "SP95": "2026-05-13 09:31:58"
      }
    },
    {
      "id": "34790003",
      "lat": 43.648,
      "lon": 3.831,
      "cp": "34790",
      "ville": "GRABELS",
      "prix": {},
      "maj_gouv": {}
    },
    {
      "id": "34430003",
      "lat": 43.571,
      "lon": 3.847,
      "cp": "34430",
      "ville": "SAINT JEAN DE VEDAS",
      "prix": {
        "Gazole": 0.002094,
        "E10": 0.002029,
        "SP98": 0.002164
      },
      "maj_gouv": {
        "Gazole": "2026-05-13 08:47:40",
        "E10": "2026-05-13 08:47:40",
        "SP98": "2026-05-13 08:47:41"
      }
    },
    {
      "id": "34280004",
      "lat": 43.56218,
      "lon": 4.08704,
      "cp": "34280",
      "ville": "LA GRANDE MOTTE",
      "prix": {
        "Gazole": 0.00209,
        "E10": 0.00199,
        "SP98": 0.00199
      },
      "maj_gouv": {
        "Gazole": "2026-05-14 00:01:00",
        "E10": "2026-05-14 00:01:00",
        "SP98": "2026-05-14 00:01:00"
      }
    },
    {
      "id": "34300001",
      "lat": 43.299,
      "lon": 3.473,
      "cp": "34300",
      "ville": "AGDE",
      "prix": {
        "Gazole": 0.002065,
        "SP95": 0.002069,
        "E85": 0.0008489999999999999,
        "E10": 0.002021,
        "SP98": 0.002134
      },
      "maj_gouv": {
        "Gazole": "2026-05-13 08:13:09",
        "SP95": "2026-05-13 08:13:09",
        "E85": "2026-05-13 08:13:09",
        "E10": "2026-05-13 08:13:09",
        "SP98": "2026-05-13 08:13:09"
      }
    },
    {
      "id": "34440005",
      "lat": 43.292078109539005,
      "lon": 3.1193382006736,
      "cp": "34440",
      "ville": "NISSAN LEZ ENSERUNE",
      "prix": {
        "Gazole": 0.002111,
        "E85": 0.0008990000000000001,
        "E10": 0.002055,
        "SP98": 0.002149
      },
      "maj_gouv": {
        "Gazole": "2026-05-12 12:57:07",
        "E85": "2026-05-12 12:57:07",
        "E10": "2026-05-12 12:57:07",
        "SP98": "2026-05-12 12:57:07"
      }
    },
    {
      "id": "34170006",
      "lat": 43.638321,
      "lon": 3.926832,
      "cp": "34170",
      "ville": "CASTELNAU LE LEZ",
      "prix": {
        "Gazole": 0.0021379999999999997,
        "E10": 0.002078,
        "SP98": 0.002179
      },
      "maj_gouv": {
        "Gazole": "2026-05-11 08:54:56",
        "E10": "2026-04-30 08:31:37",
        "SP98": "2026-04-30 09:11:10"
      }
    },
    {
      "id": "34220001",
      "lat": 43.487,
      "lon": 2.771,
      "cp": "34220",
      "ville": "SAINT-PONS-DE-THOMIèRES",
      "prix": {
        "Gazole": 0.002179,
        "SP95": 0.002069,
        "SP98": 0.0021219999999999998
      },
      "maj_gouv": {
        "Gazole": "2026-04-30 17:00:00",
        "SP95": "2026-04-30 17:00:00",
        "SP98": "2026-04-30 17:00:00"
      }
    },
    {
      "id": "34400017",
      "lat": 43.71248,
      "lon": 4.13135,
      "cp": "34400",
      "ville": "VILLETELLE",
      "prix": {
        "Gazole": 0.00209,
        "E85": 0.000998,
        "GPLc": 0.001158,
        "E10": 0.00199,
        "SP98": 0.00199
      },
      "maj_gouv": {
        "Gazole": "2026-05-14 00:01:00",
        "E85": "2026-05-14 00:01:00",
        "GPLc": "2026-05-14 00:01:00",
        "E10": "2026-05-14 00:01:00",
        "SP98": "2026-05-14 00:01:00"
      }
    },
    {
      "id": "34690004",
      "lat": 43.549,
      "lon": 3.782,
      "cp": "34690",
      "ville": "FABREGUES",
      "prix": {
        "Gazole": 0.002159,
        "E85": 0.0008179999999999999,
        "GPLc": 0.001099,
        "E10": 0.002039,
        "SP98": 0.002159
      },
      "maj_gouv": {
        "Gazole": "2026-05-13 07:38:51",
        "E85": "2026-05-13 07:38:51",
        "GPLc": "2026-05-13 07:38:51",
        "E10": "2026-05-13 07:38:51",
        "SP98": "2026-05-13 07:38:51"
      }
    },
    {
      "id": "34600004",
      "lat": 43.611861511738,
      "lon": 3.1708982933764998,
      "cp": "34600",
      "ville": "BEDARIEUX",
      "prix": {
        "Gazole": 0.0021309999999999996,
        "E85": 0.0008179999999999999,
        "E10": 0.001999,
        "SP98": 0.0021030000000000003
      },
      "maj_gouv": {
        "Gazole": "2026-05-11 10:30:21",
        "E85": "2026-04-30 06:47:20",
        "E10": "2026-05-13 13:06:48",
        "SP98": "2026-05-11 10:30:22"
      }
    },
    {
      "id": "34120001",
      "lat": 43.454,
      "lon": 3.421,
      "cp": "34120",
      "ville": "Pézenas",
      "prix": {
        "Gazole": 0.002198,
        "SP95": 0.00199
      },
      "maj_gouv": {
        "Gazole": "2026-05-13 06:50:32",
        "SP95": "2026-05-13 06:50:32"
      }
    },
    {
      "id": "34700001",
      "lat": 43.724,
      "lon": 3.324,
      "cp": "34700",
      "ville": "LODèVE",
      "prix": {
        "Gazole": 0.002079,
        "E85": 0.000739,
        "E10": 0.002019
      },
      "maj_gouv": {
        "Gazole": "2026-05-12 11:47:58",
        "E85": "2026-05-09 11:30:54",
        "E10": "2026-05-09 11:30:54"
      }
    },
    {
      "id": "34440004",
      "lat": 43.308839424172,
      "lon": 3.1681367941724004,
      "cp": "34440",
      "ville": "COLOMBIERS",
      "prix": {
        "Gazole": 0.002113,
        "E10": 0.002056,
        "SP98": 0.002159
      },
      "maj_gouv": {
        "Gazole": "2026-05-12 10:47:08",
        "E10": "2026-05-12 10:47:08",
        "SP98": "2026-05-12 10:47:22"
      }
    },
    {
      "id": "34290001",
      "lat": 43.422,
      "lon": 3.313,
      "cp": "34290",
      "ville": "SERVIAN",
      "prix": {
        "Gazole": 0.002075,
        "SP95": 0.002069,
        "E85": 0.000799,
        "E10": 0.0020299999999999997
      },
      "maj_gouv": {
        "Gazole": "2026-05-11 10:45:32",
        "SP95": "2026-05-13 11:06:09",
        "E85": "2026-04-27 07:22:44",
        "E10": "2026-05-13 08:10:42"
      }
    },
    {
      "id": "34800004",
      "lat": 43.618,
      "lon": 3.452,
      "cp": "34800",
      "ville": "Clermont-l'Hérault",
      "prix": {
        "Gazole": 0.002109,
        "GPLc": 0.001049,
        "E10": 0.002019,
        "SP98": 0.0021190000000000002
      },
      "maj_gouv": {
        "Gazole": "2026-05-13 07:30:00",
        "GPLc": "2026-02-21 19:11:00",
        "E10": "2026-05-13 07:30:00",
        "SP98": "2026-05-13 07:30:00"
      }
    },
    {
      "id": "34000013",
      "lat": 43.608,
      "lon": 3.916,
      "cp": "34000",
      "ville": "MONTPELLIER",
      "prix": {
        "Gazole": 0.00209,
        "E85": 0.000859,
        "E10": 0.00199,
        "SP98": 0.00199
      },
      "maj_gouv": {
        "Gazole": "2026-05-14 00:01:00",
        "E85": "2026-05-14 00:01:00",
        "E10": "2026-05-14 00:01:00",
        "SP98": "2026-05-14 00:01:00"
      }
    },
    {
      "id": "34790004",
      "lat": 43.645885,
      "lon": 3.8109659999999996,
      "cp": "34790",
      "ville": "Grabels",
      "prix": {
        "Gazole": 0.002169,
        "E85": 0.000739,
        "E10": 0.002069,
        "SP98": 0.002129
      },
      "maj_gouv": {
        "Gazole": "2026-05-12 10:36:54",
        "E85": "2026-05-12 10:36:54",
        "E10": "2026-05-12 10:36:54",
        "SP98": "2026-05-02 11:37:33"
      }
    },
    {
      "id": "34150001",
      "lat": 43.687,
      "lon": 3.585,
      "cp": "34150",
      "ville": "ANIANE",
      "prix": {
        "Gazole": 0.002199,
        "E10": 0.002079
      },
      "maj_gouv": {
        "Gazole": "2026-04-30 10:40:15",
        "E10": "2026-05-05 16:54:39"
      }
    },
    {
      "id": "34000018",
      "lat": 43.586188,
      "lon": 3.889156,
      "cp": "34000",
      "ville": "Montpellier",
      "prix": {
        "Gazole": 0.002095,
        "GPLc": 0.001106,
        "E10": 0.0020369999999999997,
        "SP98": 0.002195
      },
      "maj_gouv": {
        "Gazole": "2026-05-13 07:24:22",
        "GPLc": "2026-05-13 07:24:22",
        "E10": "2026-05-13 07:24:22",
        "SP98": "2026-05-13 07:24:22"
      }
    },
    {
      "id": "34510003",
      "lat": 43.385493,
      "lon": 3.4772320000000003,
      "cp": "34510",
      "ville": "FLORENSAC",
      "prix": {
        "Gazole": 0.002195,
        "E10": 0.002079,
        "SP98": 0.002169
      },
      "maj_gouv": {
        "Gazole": "2026-05-08 06:13:34",
        "E10": "2026-05-08 06:13:34",
        "SP98": "2026-05-08 06:13:34"
      }
    },
    {
      "id": "34160004",
      "lat": 43.756975065519,
      "lon": 4.0843305840957,
      "cp": "34160",
      "ville": "BOISSERON",
      "prix": {
        "Gazole": 0.00239,
        "SP95": 0.00216,
        "SP98": 0.00219
      },
      "maj_gouv": {
        "Gazole": "2026-04-22 09:53:31",
        "SP95": "2026-04-22 09:53:32",
        "SP98": "2026-04-22 09:53:32"
      }
    },
    {
      "id": "34920002",
      "lat": 43.639,
      "lon": 3.932,
      "cp": "34920",
      "ville": "Le Crès",
      "prix": {
        "Gazole": 0.002055,
        "E10": 0.001999,
        "SP98": 0.002109
      },
      "maj_gouv": {
        "Gazole": "2026-05-13 11:55:17",
        "E10": "2026-05-13 11:51:41",
        "SP98": "2026-05-13 11:51:41"
      }
    },
    {
      "id": "34420005",
      "lat": 43.298277999999996,
      "lon": 3.3450209999999996,
      "cp": "34420",
      "ville": "Portiragnes",
      "prix": {
        "Gazole": 0.002115,
        "E85": 0.000815,
        "E10": 0.002055,
        "SP98": 0.002165
      },
      "maj_gouv": {
        "Gazole": "2026-05-13 09:03:42",
        "E85": "2026-04-24 08:46:15",
        "E10": "2026-05-13 09:05:17",
        "SP98": "2026-05-13 09:03:42"
      }
    },
    {
      "id": "34402001",
      "lat": 43.681,
      "lon": 4.148,
      "cp": "34400",
      "ville": "LUNEL",
      "prix": {
        "Gazole": 0.001998,
        "E85": 0.0007379999999999999,
        "E10": 0.001983,
        "SP98": 0.0020659999999999997
      },
      "maj_gouv": {
        "Gazole": "2026-05-13 09:01:30",
        "E85": "2026-05-11 13:44:20",
        "E10": "2026-05-13 08:27:27",
        "SP98": "2026-05-11 08:21:54"
      }
    },
    {
      "id": "34400013",
      "lat": 43.683,
      "lon": 4.152,
      "cp": "34400",
      "ville": "Lunel",
      "prix": {
        "Gazole": 0.002089,
        "E85": 0.000819,
        "GPLc": 0.001159,
        "E10": 0.001996,
        "SP98": 0.0021190000000000002
      },
      "maj_gouv": {
        "Gazole": "2026-05-13 07:29:59",
        "E85": "2026-04-17 08:09:45",
        "GPLc": "2026-04-17 08:09:45",
        "E10": "2026-05-13 07:29:59",
        "SP98": "2026-05-13 07:29:59"
      }
    },
    {
      "id": "34730001",
      "lat": 43.69,
      "lon": 3.863,
      "cp": "34730",
      "ville": "PRADES-LE-LEZ",
      "prix": {
        "Gazole": 0.002219,
        "E85": 0.000819,
        "E10": 0.0020819999999999996,
        "SP98": 0.002181
      },
      "maj_gouv": {
        "Gazole": "2026-05-05 09:00:00",
        "E85": "2026-04-17 08:28:52",
        "E10": "2026-05-09 06:30:00",
        "SP98": "2026-05-09 06:30:00"
      }
    },
    {
      "id": "34240001",
      "lat": 43.588046,
      "lon": 3.082975,
      "cp": "34240",
      "ville": "lamalou les bains",
      "prix": {
        "Gazole": 0.00225,
        "SP95": 0.00199
      },
      "maj_gouv": {
        "Gazole": "2026-04-08 08:47:54",
        "SP95": "2026-05-05 16:21:51"
      }
    }
  ]
}