{
  "departement": "37",
  "date": "2026-05-14",
  "stations": [
    {
      "id": "37380004",
      "lat": 47.474,
      "lon": 0.777,
      "cp": "37380",
      "ville": "MONNAIE",
      "prix": {
        "Gazole": 0.00209,
        "E85": 0.000999,
        "GPLc": 0.001139,
        "E10": 0.00199,
        "SP98": 0.00199
      },
      "maj_gouv": {
        "Gazole": "2026-05-14 00:01:00",
        "E85": "2026-05-14 00:01:00",
        "GPLc": "2026-05-14 00:01:00",
        "E10": "2026-05-14 00:01:00",
        "SP98": "2026-05-14 00:01:00"
      }
    },
    {
      "id": "37270007",
      "lat": 47.356138,
      "lon": 0.818614,
      "cp": "37270",
      "ville": "Véretz",
      "prix": {
        "Gazole": 0.00225
      },
      "maj_gouv": {
        "Gazole": "2026-05-12 12:11:11"
      }
    },
    {
      "id": "37500002",
      "lat": 47.154,
      "lon": 0.236,
      "cp": "37500",
      "ville": "CHINON",
      "prix": {
        "Gazole": 0.00225,
        "SP95": 0.00199
      },
      "maj_gouv": {
        "Gazole": "2026-04-09 07:57:53",
        "SP95": "2026-03-23 14:03:24"
      }
    },
    {
      "id": "37270005",
      "lat": 47.355,
      "lon": 0.817,
      "cp": "37270",
      "ville": "VERETZ",
      "prix": {
        "Gazole": 0.002129,
        "E85": 0.0008179999999999999,
        "E10": 0.001999,
        "SP98": 0.002109
      },
      "maj_gouv": {
        "Gazole": "2026-05-12 08:34:27",
        "E85": "2026-05-12 08:34:28",
        "E10": "2026-05-12 08:34:28",
        "SP98": "2026-05-07 10:49:55"
      }
    },
    {
      "id": "37700010",
      "lat": 47.39668,
      "lon": 0.71715,
      "cp": "37700",
      "ville": "ST PIERRE DES CORPS",
      "prix": {
        "Gazole": 0.00209,
        "E85": 0.000859,
        "GPLc": 0.001039,
        "E10": 0.00199,
        "SP98": 0.00199
      },
      "maj_gouv": {
        "Gazole": "2026-05-14 00:01:00",
        "E85": "2026-05-14 00:01:00",
        "GPLc": "2026-05-14 00:01:00",
        "E10": "2026-05-14 00:01:00",
        "SP98": "2026-05-14 00:01:00"
      }
    },
    {
      "id": "37290002",
      "lat": 46.858936662702,
      "lon": 0.9392421249000401,
      "cp": "37290",
      "ville": "Preuilly-sur-Claise",
      "prix": {
        "Gazole": 0.00225,
        "SP95": 0.00199,
        "SP98": 0.00199
      },
      "maj_gouv": {
        "Gazole": "2026-04-17 08:36:36",
        "SP95": "2026-04-08 14:10:57",
        "SP98": "2026-04-08 14:10:57"
      }
    },
    {
      "id": "37510001",
      "lat": 47.344,
      "lon": 0.615,
      "cp": "37510",
      "ville": "Ballan-Miré",
      "prix": {
        "Gazole": 0.002085,
        "E10": 0.002029,
        "SP98": 0.002129
      },
      "maj_gouv": {
        "Gazole": "2026-05-13 10:13:07",
        "E10": "2026-05-13 15:48:20",
        "SP98": "2026-05-13 10:13:07"
      }
    },
    {
      "id": "37800006",
      "lat": 47.16719,
      "lon": 0.6305,
      "cp": "37800",
      "ville": "Saint-Épain",
      "prix": {
        "Gazole": 0.00209,
        "E85": 0.000998,
        "GPLc": 0.001138,
        "E10": 0.00199,
        "SP98": 0.00199
      },
      "maj_gouv": {
        "Gazole": "2026-05-14 00:01:00",
        "E85": "2026-05-14 00:01:00",
        "GPLc": "2026-05-14 00:01:00",
        "E10": "2026-05-14 00:01:00",
        "SP98": "2026-05-14 00:01:00"
      }
    },
    {
      "id": "37390004",
      "lat": 47.442,
      "lon": 0.624,
      "cp": "37390",
      "ville": "La Membrolle-sur-Choisille",
      "prix": {
        "Gazole": 0.00209,
        "E10": 0.00199,
        "SP98": 0.00199
      },
      "maj_gouv": {
        "Gazole": "2026-05-14 00:01:00",
        "E10": "2026-05-05 05:36:39",
        "SP98": "2026-05-11 06:33:49"
      }
    },
    {
      "id": "37190003",
      "lat": 47.307,
      "lon": 0.536,
      "cp": "37190",
      "ville": "Druye",
      "prix": {
        "Gazole": 0.00239,
        "GPLc": 0.00106,
        "E10": 0.00219,
        "SP98": 0.00229
      },
      "maj_gouv": {
        "Gazole": "2026-05-13 09:48:18",
        "GPLc": "2026-03-23 22:00:00",
        "E10": "2026-04-09 22:20:00",
        "SP98": "2026-04-09 22:20:00"
      }
    },
    {
      "id": "37600007",
      "lat": 47.139650599999996,
      "lon": 1.0000621031469001,
      "cp": "37600",
      "ville": "LOCHES",
      "prix": {
        "Gazole": 0.00209,
        "SP95": 0.00199
      },
      "maj_gouv": {
        "Gazole": "2026-05-13 23:59:00",
        "SP95": "2026-05-12 11:07:03"
      }
    },
    {
      "id": "37250005",
      "lat": 47.309,
      "lon": 0.714,
      "cp": "37250",
      "ville": "VEIGNE",
      "prix": {},
      "maj_gouv": {}
    },
    {
      "id": "37380001",
      "lat": 47.501,
      "lon": 0.789,
      "cp": "37380",
      "ville": "Monnaie",
      "prix": {
        "Gazole": 0.0021360000000000003,
        "SP95": 0.002091,
        "E85": 0.000819,
        "SP98": 0.002134
      },
      "maj_gouv": {
        "Gazole": "2026-05-11 19:42:35",
        "SP95": "2026-05-11 19:42:36",
        "E85": "2026-05-11 19:42:36",
        "SP98": "2026-05-11 19:42:36"
      }
    },
    {
      "id": "37320008",
      "lat": 47.23,
      "lon": 0.768,
      "cp": "37320",
      "ville": "SAINT BRANCHS",
      "prix": {
        "Gazole": 0.002225,
        "E10": 0.002034,
        "SP98": 0.002185
      },
      "maj_gouv": {
        "Gazole": "2026-05-06 10:30:30",
        "E10": "2026-05-06 10:30:30",
        "SP98": "2026-05-06 10:30:30"
      }
    },
    {
      "id": "37250006",
      "lat": 47.246553839515,
      "lon": 0.69664144470514,
      "cp": "37250",
      "ville": "Sorigny",
      "prix": {
        "Gazole": 0.002149,
        "E85": 0.000799,
        "E10": 0.001999,
        "SP98": 0.002139
      },
      "maj_gouv": {
        "Gazole": "2026-05-13 10:08:39",
        "E85": "2026-05-02 09:49:52",
        "E10": "2026-05-13 10:08:39",
        "SP98": "2026-05-11 10:58:56"
      }
    },
    {
      "id": "37100001",
      "lat": 47.426,
      "lon": 0.7,
      "cp": "37100",
      "ville": "TOURS",
      "prix": {
        "Gazole": 0.002069,
        "E85": 0.000775,
        "GPLc": 0.000999,
        "E10": 0.002019,
        "SP98": 0.002089
      },
      "maj_gouv": {
        "Gazole": "2026-05-13 09:30:00",
        "E85": "2026-04-29 09:30:00",
        "GPLc": "2026-02-02 09:05:13",
        "E10": "2026-05-13 09:10:19",
        "SP98": "2026-05-13 09:10:19"
      }
    },
    {
      "id": "37390003",
      "lat": 47.47,
      "lon": 0.702,
      "cp": "37390",
      "ville": "CHANCEAUX SUR CHOISILLE",
      "prix": {
        "Gazole": 0.002129,
        "SP95": 0.002059,
        "E10": 0.002029,
        "SP98": 0.0021190000000000002
      },
      "maj_gouv": {
        "Gazole": "2026-05-13 09:52:48",
        "SP95": "2026-05-12 09:43:02",
        "E10": "2026-05-12 09:43:03",
        "SP98": "2026-05-12 09:43:03"
      }
    },
    {
      "id": "37100012",
      "lat": 47.425,
      "lon": 0.682,
      "cp": "37100",
      "ville": "tours",
      "prix": {
        "Gazole": 0.002079,
        "SP95": 0.002029,
        "SP98": 0.002068
      },
      "maj_gouv": {
        "Gazole": "2026-05-13 08:58:55",
        "SP95": "2026-05-09 07:30:00",
        "SP98": "2026-05-09 07:30:00"
      }
    },
    {
      "id": "37420003",
      "lat": 47.206,
      "lon": 0.185,
      "cp": "37420",
      "ville": "AVOINE",
      "prix": {
        "Gazole": 0.002258,
        "SP95": 0.00209,
        "SP98": 0.0021680000000000002
      },
      "maj_gouv": {
        "Gazole": "2026-04-30 11:38:33",
        "SP95": "2026-04-30 11:38:33",
        "SP98": "2026-04-30 11:38:33"
      }
    },
    {
      "id": "37320001",
      "lat": 47.291,
      "lon": 0.79,
      "cp": "37320",
      "ville": "Esvres",
      "prix": {
        "Gazole": 0.002129,
        "E10": 0.001999,
        "SP98": 0.002115
      },
      "maj_gouv": {
        "Gazole": "2026-05-11 14:45:37",
        "E10": "2026-05-11 09:33:21",
        "SP98": "2026-05-11 09:33:21"
      }
    },
    {
      "id": "37290001",
      "lat": 46.783982903738,
      "lon": 0.8802443228125499,
      "cp": "37290",
      "ville": "Yzeures-sur-Creuse",
      "prix": {
        "Gazole": 0.002249,
        "E85": 0.0008179999999999999,
        "E10": 0.002049,
        "SP98": 0.00215
      },
      "maj_gouv": {
        "Gazole": "2026-05-07 09:14:45",
        "E85": "2026-04-17 09:00:00",
        "E10": "2026-05-07 09:14:45",
        "SP98": "2026-05-07 09:14:46"
      }
    },
    {
      "id": "37500001",
      "lat": 47.15,
      "lon": 0.237,
      "cp": "37500",
      "ville": "Chinon",
      "prix": {
        "Gazole": 0.002199,
        "SP95": 0.002109,
        "E10": 0.002079,
        "SP98": 0.002139
      },
      "maj_gouv": {
        "Gazole": "2026-05-09 13:12:56",
        "SP95": "2026-05-09 13:12:56",
        "E10": "2026-05-09 13:12:56",
        "SP98": "2026-05-09 13:12:56"
      }
    },
    {
      "id": "37150004",
      "lat": 47.333,
      "lon": 1.061,
      "cp": "37150",
      "ville": "CIVRAY DE TOURAINE",
      "prix": {
        "Gazole": 0.00209,
        "E10": 0.00199
      },
      "maj_gouv": {
        "Gazole": "2026-05-14 00:01:00",
        "E10": "2026-05-13 19:05:54"
      }
    },
    {
      "id": "37003001",
      "lat": 47.425,
      "lon": 0.674,
      "cp": "37100",
      "ville": "TOURS",
      "prix": {
        "Gazole": 0.002069,
        "SP95": 0.002059,
        "E85": 0.000775,
        "E10": 0.002019,
        "SP98": 0.002089
      },
      "maj_gouv": {
        "Gazole": "2026-05-13 07:00:00",
        "SP95": "2026-05-06 07:00:00",
        "E85": "2026-04-28 06:00:00",
        "E10": "2026-05-13 07:00:00",
        "SP98": "2026-05-13 07:00:00"
      }
    },
    {
      "id": "37600001",
      "lat": 47.13,
      "lon": 0.984,
      "cp": "37600",
      "ville": "LOCHES",
      "prix": {
        "Gazole": 0.002029,
        "SP95": 0.002024,
        "E85": 0.0006879999999999999,
        "E10": 0.002002,
        "SP98": 0.0020710000000000004
      },
      "maj_gouv": {
        "Gazole": "2026-05-13 11:42:22",
        "SP95": "2026-05-13 11:42:22",
        "E85": "2026-05-13 08:31:01",
        "E10": "2026-05-13 11:42:23",
        "SP98": "2026-05-13 11:42:23"
      }
    },
    {
      "id": "37400006",
      "lat": 47.393,
      "lon": 0.982,
      "cp": "37400",
      "ville": "Amboise",
      "prix": {
        "Gazole": 0.002191
      },
      "maj_gouv": {
        "Gazole": "2026-05-13 10:50:46"
      }
    },
    {
      "id": "37230003",
      "lat": 47.4033668855,
      "lon": 0.605448665855,
      "cp": "37230",
      "ville": "FONDETTES",
      "prix": {
        "Gazole": 0.002039,
        "E10": 0.0020169999999999997,
        "SP98": 0.002038
      },
      "maj_gouv": {
        "Gazole": "2026-05-13 08:45:00",
        "E10": "2026-05-13 18:55:57",
        "SP98": "2026-05-13 08:45:00"
      }
    },
    {
      "id": "37120001",
      "lat": 47.02058,
      "lon": 0.33397,
      "cp": "37120",
      "ville": "Chaveignes",
      "prix": {
        "Gazole": 0.002169,
        "SP95": 0.002089,
        "GPLc": 0.000999,
        "SP98": 0.0021190000000000002
      },
      "maj_gouv": {
        "Gazole": "2026-05-12 08:49:48",
        "SP95": "2026-05-05 09:03:12",
        "GPLc": "2026-05-05 09:03:12",
        "SP98": "2026-05-08 08:44:59"
      }
    },
    {
      "id": "37360001",
      "lat": 47.54666,
      "lon": 0.55172,
      "cp": "37360",
      "ville": "Neuillé-Pont-Pierre",
      "prix": {
        "Gazole": 0.002109,
        "SP95": 0.002079,
        "E85": 0.0007790000000000001,
        "SP98": 0.002099
      },
      "maj_gouv": {
        "Gazole": "2026-05-13 11:12:04",
        "SP95": "2026-05-13 11:12:04",
        "E85": "2026-04-29 09:43:41",
        "SP98": "2026-05-11 07:28:56"
      }
    },
    {
      "id": "37400004",
      "lat": 47.409,
      "lon": 0.971,
      "cp": "37400",
      "ville": "Amboise",
      "prix": {
        "Gazole": 0.0021720000000000003
      },
      "maj_gouv": {
        "Gazole": "2026-05-05 12:26:25"
      }
    },
    {
      "id": "37200004",
      "lat": 47.365,
      "lon": 0.711,
      "cp": "37200",
      "ville": "TOURS",
      "prix": {
        "Gazole": 0.00209,
        "E10": 0.00199
      },
      "maj_gouv": {
        "Gazole": "2026-05-14 00:01:00",
        "E10": "2026-05-14 00:01:00"
      }
    },
    {
      "id": "37460001",
      "lat": 47.135,
      "lon": 1.298,
      "cp": "37460",
      "ville": "Nouans-les-Fontaines",
      "prix": {
        "SP95": 0.00199
      },
      "maj_gouv": {
        "SP95": "2026-04-09 14:29:01"
      }
    },
    {
      "id": "37230004",
      "lat": 47.392,
      "lon": 0.539,
      "cp": "37230",
      "ville": "Luynes",
      "prix": {
        "Gazole": 0.0020859999999999997,
        "E10": 0.002052,
        "SP98": 0.0021469999999999996
      },
      "maj_gouv": {
        "Gazole": "2026-05-13 08:20:40",
        "E10": "2026-05-13 08:20:41",
        "SP98": "2026-05-13 08:20:41"
      }
    },
    {
      "id": "37000011",
      "lat": 47.375,
      "lon": 0.709,
      "cp": "37000",
      "ville": "TOURS",
      "prix": {
        "E10": 0.002049,
        "SP98": 0.002199
      },
      "maj_gouv": {
        "E10": "2026-05-13 11:33:41",
        "SP98": "2026-05-13 11:33:41"
      }
    },
    {
      "id": "37100010",
      "lat": 47.40385,
      "lon": 0.72656,
      "cp": "37100",
      "ville": "TOURS",
      "prix": {
        "Gazole": 0.00209,
        "E10": 0.00199
      },
      "maj_gouv": {
        "Gazole": "2026-05-14 00:01:00",
        "E10": "2026-05-14 00:01:00"
      }
    },
    {
      "id": "37270006",
      "lat": 47.302184249999996,
      "lon": 0.8906768700000001,
      "cp": "37270",
      "ville": "Athée-sur-Cher",
      "prix": {
        "Gazole": 0.0024289999999999997,
        "GPLc": 0.001149,
        "E10": 0.002359,
        "SP98": 0.0024289999999999997
      },
      "maj_gouv": {
        "Gazole": "2026-05-13 23:00:00",
        "GPLc": "2026-05-13 23:00:00",
        "E10": "2026-05-13 23:00:00",
        "SP98": "2026-05-13 23:00:00"
      }
    },
    {
      "id": "37500003",
      "lat": 47.174,
      "lon": 0.251,
      "cp": "37500",
      "ville": "Chinon",
      "prix": {
        "Gazole": 0.0021309999999999996,
        "E85": 0.000719,
        "GPLc": 0.001099,
        "E10": 0.002059,
        "SP98": 0.002095
      },
      "maj_gouv": {
        "Gazole": "2026-05-14 01:17:00",
        "E85": "2026-05-14 01:17:00",
        "GPLc": "2026-05-14 01:17:00",
        "E10": "2026-05-14 01:17:00",
        "SP98": "2026-05-14 01:17:00"
      }
    },
    {
      "id": "37160003",
      "lat": 46.981,
      "lon": 0.69,
      "cp": "37160",
      "ville": "Descartes",
      "prix": {
        "Gazole": 0.002199,
        "E85": 0.0008179999999999999,
        "E10": 0.002045,
        "SP98": 0.002154
      },
      "maj_gouv": {
        "Gazole": "2026-05-13 09:18:31",
        "E85": "2026-05-08 09:00:00",
        "E10": "2026-05-08 09:00:00",
        "SP98": "2026-05-11 08:49:07"
      }
    },
    {
      "id": "37340002",
      "lat": 47.451,
      "lon": 0.455,
      "cp": "37340",
      "ville": "Ambillou",
      "prix": {
        "Gazole": 0.0022389999999999997,
        "SP95": 0.002079,
        "SP98": 0.00209
      },
      "maj_gouv": {
        "Gazole": "2026-05-08 10:17:16",
        "SP95": "2026-03-20 10:20:27",
        "SP98": "2026-03-20 10:20:27"
      }
    },
    {
      "id": "37110002",
      "lat": 47.598,
      "lon": 0.914,
      "cp": "37110",
      "ville": "CHâTEAU-RENAULT",
      "prix": {
        "Gazole": 0.002218,
        "SP95": 0.002091,
        "SP98": 0.002099
      },
      "maj_gouv": {
        "Gazole": "2026-04-30 13:24:04",
        "SP95": "2026-04-30 11:01:59",
        "SP98": "2026-04-30 11:01:59"
      }
    },
    {
      "id": "37260001",
      "lat": 47.27673,
      "lon": 0.64244,
      "cp": "37260",
      "ville": "Monts",
      "prix": {
        "Gazole": 0.002149,
        "SP95": 0.002099,
        "E10": 0.002069,
        "SP98": 0.002137
      },
      "maj_gouv": {
        "Gazole": "2026-05-13 08:05:52",
        "SP95": "2026-05-12 10:37:14",
        "E10": "2026-05-06 08:12:49",
        "SP98": "2026-05-06 08:12:49"
      }
    },
    {
      "id": "37110003",
      "lat": 47.591,
      "lon": 0.899,
      "cp": "37110",
      "ville": "Château-Renault",
      "prix": {
        "Gazole": 0.002229,
        "E85": 0.000819,
        "E10": 0.002029,
        "SP98": 0.002129
      },
      "maj_gouv": {
        "Gazole": "2026-04-30 08:49:38",
        "E85": "2026-04-17 08:13:02",
        "E10": "2026-05-04 07:57:01",
        "SP98": "2026-05-04 07:57:01"
      }
    },
    {
      "id": "37380003",
      "lat": 47.476,
      "lon": 0.779,
      "cp": "37380",
      "ville": "Monnaie",
      "prix": {
        "Gazole": 0.002399,
        "GPLc": 0.001339,
        "E10": 0.0022589999999999997,
        "SP98": 0.002439
      },
      "maj_gouv": {
        "Gazole": "2026-05-13 11:26:01",
        "GPLc": "2026-05-13 11:26:01",
        "E10": "2026-05-13 11:26:01",
        "SP98": "2026-05-13 11:26:01"
      }
    },
    {
      "id": "37270002",
      "lat": 47.346,
      "lon": 0.84,
      "cp": "37270",
      "ville": "Azay-sur-Cher",
      "prix": {
        "Gazole": 0.00225
      },
      "maj_gouv": {
        "Gazole": "2026-05-12 06:54:15"
      }
    },
    {
      "id": "37260005",
      "lat": 47.270578774835,
      "lon": 0.59254978394482,
      "cp": "37260",
      "ville": "ARTANNES SUR INDRE",
      "prix": {
        "Gazole": 0.002399,
        "SP95": 0.002099,
        "SP98": 0.002162
      },
      "maj_gouv": {
        "Gazole": "2026-03-24 11:14:36",
        "SP95": "2026-03-24 11:14:36",
        "SP98": "2026-03-24 11:14:37"
      }
    },
    {
      "id": "37000014",
      "lat": 47.381,
      "lon": 0.668,
      "cp": "37000",
      "ville": "TOURS",
      "prix": {
        "Gazole": 0.00209,
        "E85": 0.0008489999999999999
      },
      "maj_gouv": {
        "Gazole": "2026-05-14 00:01:00",
        "E85": "2026-05-14 00:01:00"
      }
    },
    {
      "id": "37800004",
      "lat": 47.109,
      "lon": 0.584,
      "cp": "37800",
      "ville": "Noyant-de-Touraine",
      "prix": {
        "Gazole": 0.00218,
        "E10": 0.00199,
        "SP98": 0.00199
      },
      "maj_gouv": {
        "Gazole": "2026-05-13 08:42:17",
        "E10": "2026-05-13 08:42:17",
        "SP98": "2026-05-13 08:42:17"
      }
    },
    {
      "id": "37100011",
      "lat": 47.426444732494,
      "lon": 0.71075649892812,
      "cp": "37100",
      "ville": "TOURS",
      "prix": {
        "Gazole": 0.00209,
        "E85": 0.000859,
        "E10": 0.00199,
        "SP98": 0.00199
      },
      "maj_gouv": {
        "Gazole": "2026-05-14 00:01:00",
        "E85": "2026-05-14 00:01:00",
        "E10": "2026-05-14 00:01:00",
        "SP98": "2026-05-14 00:01:00"
      }
    },
    {
      "id": "37190002",
      "lat": 47.264154177900004,
      "lon": 0.47375205481099997,
      "cp": "37190",
      "ville": "AZAY-LE-RIDEAU",
      "prix": {
        "Gazole": 0.0022080000000000003,
        "SP95": 0.002099,
        "SP98": 0.002139
      },
      "maj_gouv": {
        "Gazole": "2026-05-11 11:32:55",
        "SP95": "2026-05-04 17:07:05",
        "SP98": "2026-05-11 11:32:56"
      }
    },
    {
      "id": "37110004",
      "lat": 47.5836102961,
      "lon": 0.897356013533,
      "cp": "37110",
      "ville": "VILLEDOMER",
      "prix": {
        "Gazole": 0.00209,
        "E10": 0.00199,
        "SP98": 0.00199
      },
      "maj_gouv": {
        "Gazole": "2026-05-14 00:01:00",
        "E10": "2026-05-14 00:01:00",
        "SP98": "2026-05-14 00:01:00"
      }
    },
    {
      "id": "37000015",
      "lat": 47.391,
      "lon": 0.697,
      "cp": "37000",
      "ville": "TOURS",
      "prix": {
        "Gazole": 0.00209,
        "E10": 0.00199
      },
      "maj_gouv": {
        "Gazole": "2026-05-14 06:00:00",
        "E10": "2026-05-14 06:00:00"
      }
    },
    {
      "id": "37172001",
      "lat": 47.337,
      "lon": 0.698,
      "cp": "37170",
      "ville": "CHAMBRAY-LèS-TOURS",
      "prix": {
        "Gazole": 0.002085,
        "GPLc": 0.0009809999999999999,
        "E10": 0.002009,
        "SP98": 0.00209
      },
      "maj_gouv": {
        "Gazole": "2026-05-12 14:48:15",
        "GPLc": "2026-05-11 10:16:58",
        "E10": "2026-05-13 15:38:26",
        "SP98": "2026-05-11 16:54:22"
      }
    },
    {
      "id": "37300009",
      "lat": 47.321847755774,
      "lon": 0.6631695557563201,
      "cp": "37300",
      "ville": "Joué-lès-Tours",
      "prix": {
        "Gazole": 0.002069,
        "SP95": 0.002059,
        "GPLc": 0.0009809999999999999,
        "E10": 0.002009,
        "SP98": 0.00209
      },
      "maj_gouv": {
        "Gazole": "2026-05-13 08:50:22",
        "SP95": "2026-05-12 08:11:38",
        "GPLc": "2026-04-10 09:59:04",
        "E10": "2026-05-13 08:29:39",
        "SP98": "2026-05-12 08:11:39"
      }
    },
    {
      "id": "37540001",
      "lat": 47.4258570023,
      "lon": 0.6561790748409999,
      "cp": "37540",
      "ville": "SAINT-CYR-SUR-LOIRE",
      "prix": {
        "Gazole": 0.002069,
        "E85": 0.000775,
        "GPLc": 0.000999,
        "E10": 0.002019,
        "SP98": 0.002089
      },
      "maj_gouv": {
        "Gazole": "2026-05-13 07:40:17",
        "E85": "2026-04-28 07:49:16",
        "GPLc": "2026-04-22 08:59:02",
        "E10": "2026-05-13 07:40:17",
        "SP98": "2026-05-13 07:40:18"
      }
    },
    {
      "id": "37530002",
      "lat": 47.423,
      "lon": 0.976,
      "cp": "37530",
      "ville": "Pocé-sur-Cisse",
      "prix": {
        "Gazole": 0.002129,
        "E85": 0.000819,
        "E10": 0.002045,
        "SP98": 0.002125
      },
      "maj_gouv": {
        "Gazole": "2026-05-13 20:27:14",
        "E85": "2026-05-13 20:27:14",
        "E10": "2026-05-13 20:27:14",
        "SP98": "2026-05-13 20:27:15"
      }
    },
    {
      "id": "37130001",
      "lat": 47.328,
      "lon": 0.406,
      "cp": "37130",
      "ville": "LANGEAIS",
      "prix": {
        "Gazole": 0.002109,
        "SP95": 0.002084,
        "SP98": 0.002139
      },
      "maj_gouv": {
        "Gazole": "2026-05-13 17:18:57",
        "SP95": "2026-05-13 17:18:57",
        "SP98": "2026-05-13 17:18:57"
      }
    },
    {
      "id": "37520002",
      "lat": 47.386,
      "lon": 0.658,
      "cp": "37520",
      "ville": "LA RICHE",
      "prix": {
        "Gazole": 0.002139,
        "SP95": 0.002099,
        "SP98": 0.0021190000000000002
      },
      "maj_gouv": {
        "Gazole": "2026-05-12 11:51:05",
        "SP95": "2026-05-05 11:25:58",
        "SP98": "2026-05-05 11:25:58"
      }
    },
    {
      "id": "37100002",
      "lat": 47.412,
      "lon": 0.702,
      "cp": "37100",
      "ville": "TOURS",
      "prix": {
        "Gazole": 0.002095,
        "E10": 0.00199,
        "SP98": 0.002063
      },
      "maj_gouv": {
        "Gazole": "2026-05-13 10:33:54",
        "E10": "2026-05-12 09:06:18",
        "SP98": "2026-05-12 09:06:18"
      }
    },
    {
      "id": "37306001",
      "lat": 47.356571449226,
      "lon": 0.69812877979161,
      "cp": "37300",
      "ville": "Joué-lès-Tours",
      "prix": {
        "Gazole": 0.00209,
        "SP95": 0.00206,
        "SP98": 0.00209
      },
      "maj_gouv": {
        "Gazole": "2026-05-11 08:15:06",
        "SP95": "2026-05-11 08:15:06",
        "SP98": "2026-05-13 08:42:52"
      }
    },
    {
      "id": "37550001",
      "lat": 47.353,
      "lon": 0.733,
      "cp": "37550",
      "ville": "SAINT-AVERTIN",
      "prix": {
        "Gazole": 0.002095,
        "E10": 0.00199,
        "SP98": 0.002063
      },
      "maj_gouv": {
        "Gazole": "2026-05-13 09:19:07",
        "E10": "2026-05-12 09:19:14",
        "SP98": "2026-05-12 13:13:47"
      }
    },
    {
      "id": "37320010",
      "lat": 47.257,
      "lon": 0.842,
      "cp": "37320",
      "ville": "CORMERY",
      "prix": {
        "Gazole": 0.002249,
        "E10": 0.002079,
        "SP98": 0.002199
      },
      "maj_gouv": {
        "Gazole": "2026-05-05 10:44:54",
        "E10": "2026-05-05 10:44:54",
        "SP98": "2026-05-05 10:44:54"
      }
    },
    {
      "id": "37140001",
      "lat": 47.274,
      "lon": 0.167,
      "cp": "37140",
      "ville": "bourgueil",
      "prix": {
        "Gazole": 0.002159,
        "SP95": 0.002089,
        "E85": 0.000719,
        "GPLc": 0.001099,
        "E10": 0.002059,
        "SP98": 0.002109
      },
      "maj_gouv": {
        "Gazole": "2026-05-13 10:46:11",
        "SP95": "2026-05-13 10:46:11",
        "E85": "2026-05-08 10:50:55",
        "GPLc": "2026-05-07 09:50:09",
        "E10": "2026-05-05 10:59:11",
        "SP98": "2026-05-13 10:46:11"
      }
    },
    {
      "id": "37300004",
      "lat": 47.338,
      "lon": 0.657,
      "cp": "37300",
      "ville": "Joué-lès-Tours",
      "prix": {
        "Gazole": 0.002189,
        "E85": 0.0008179999999999999,
        "E10": 0.002039,
        "SP98": 0.002129
      },
      "maj_gouv": {
        "Gazole": "2026-05-13 19:30:00",
        "E85": "2026-04-29 13:52:11",
        "E10": "2026-05-13 19:30:00",
        "SP98": "2026-05-13 19:30:00"
      }
    },
    {
      "id": "37700004",
      "lat": 47.396,
      "lon": 0.788,
      "cp": "37700",
      "ville": "La Ville-aux-Dames",
      "prix": {
        "Gazole": 0.002128,
        "E85": 0.000753,
        "GPLc": 0.001004,
        "E10": 0.002024,
        "SP98": 0.002092
      },
      "maj_gouv": {
        "Gazole": "2026-05-14 01:17:00",
        "E85": "2026-05-14 01:17:00",
        "GPLc": "2026-05-14 01:17:00",
        "E10": "2026-05-14 01:17:00",
        "SP98": "2026-05-14 01:17:00"
      }
    },
    {
      "id": "37340001",
      "lat": 47.44,
      "lon": 0.332,
      "cp": "37340",
      "ville": "SAVIGNé-SUR-LATHAN",
      "prix": {
        "Gazole": 0.002179,
        "E10": 0.0020800000000000003,
        "SP98": 0.002115
      },
      "maj_gouv": {
        "Gazole": "2026-05-11 12:13:42",
        "E10": "2026-05-11 12:13:42",
        "SP98": "2026-05-11 12:13:42"
      }
    },
    {
      "id": "37300007",
      "lat": 47.358,
      "lon": 0.646,
      "cp": "37300",
      "ville": "Joué-lès-Tours",
      "prix": {
        "Gazole": 0.002149,
        "SP95": 0.002099,
        "SP98": 0.002139
      },
      "maj_gouv": {
        "Gazole": "2026-05-11 06:52:10",
        "SP95": "2026-05-11 06:52:10",
        "SP98": "2026-05-11 06:52:10"
      }
    },
    {
      "id": "37240001",
      "lat": 47.041046596600005,
      "lon": 0.8177814413319999,
      "cp": "37240",
      "ville": "LIGUEIL",
      "prix": {
        "Gazole": 0.0021520000000000003,
        "E10": 0.0020150000000000003,
        "SP98": 0.002129
      },
      "maj_gouv": {
        "Gazole": "2026-05-12 09:16:44",
        "E10": "2026-05-12 09:16:44",
        "SP98": "2026-05-12 09:16:44"
      }
    },
    {
      "id": "37170006",
      "lat": 47.317,
      "lon": 0.711,
      "cp": "37170",
      "ville": "CHAMBRAY-LÈS-TOURS",
      "prix": {
        "Gazole": 0.00209,
        "E85": 0.000829,
        "E10": 0.00199
      },
      "maj_gouv": {
        "Gazole": "2026-05-14 00:01:00",
        "E85": "2026-05-14 00:01:00",
        "E10": "2026-05-14 00:01:00"
      }
    },
    {
      "id": "37220001",
      "lat": 47.122,
      "lon": 0.431,
      "cp": "37220",
      "ville": "L'Île-Bouchard",
      "prix": {
        "Gazole": 0.0021309999999999996,
        "E85": 0.000749,
        "SP98": 0.0021190000000000002
      },
      "maj_gouv": {
        "Gazole": "2026-05-13 08:45:00",
        "E85": "2026-04-24 08:27:21",
        "SP98": "2026-05-13 08:45:00"
      }
    },
    {
      "id": "37210002",
      "lat": 47.414,
      "lon": 0.85,
      "cp": "37210",
      "ville": "Vernou-sur-Brenne",
      "prix": {
        "Gazole": 0.002184,
        "SP95": 0.002096,
        "SP98": 0.002137
      },
      "maj_gouv": {
        "Gazole": "2026-05-11 08:12:14",
        "SP95": "2026-05-11 08:12:14",
        "SP98": "2026-05-06 07:34:14"
      }
    },
    {
      "id": "37150002",
      "lat": 47.328,
      "lon": 0.987,
      "cp": "37150",
      "ville": "Bléré",
      "prix": {
        "Gazole": 0.002235,
        "E10": 0.002005,
        "SP98": 0.00214
      },
      "maj_gouv": {
        "Gazole": "2026-05-09 10:33:56",
        "E10": "2026-05-12 08:58:58",
        "SP98": "2026-05-09 10:33:57"
      }
    },
    {
      "id": "37270001",
      "lat": 47.384,
      "lon": 0.843,
      "cp": "37270",
      "ville": "MONTLOUIS-SUR-LOIRE",
      "prix": {
        "Gazole": 0.002129,
        "E85": 0.000754,
        "E10": 0.002029,
        "SP98": 0.002109
      },
      "maj_gouv": {
        "Gazole": "2026-05-12 09:15:27",
        "E85": "2026-05-12 09:15:27",
        "E10": "2026-05-12 09:15:27",
        "SP98": "2026-05-12 09:15:27"
      }
    },
    {
      "id": "37400002",
      "lat": 47.404,
      "lon": 1.018,
      "cp": "37400",
      "ville": "Amboise",
      "prix": {
        "Gazole": 0.002099,
        "SP95": 0.002085,
        "E85": 0.000772,
        "E10": 0.002049,
        "SP98": 0.002125
      },
      "maj_gouv": {
        "Gazole": "2026-05-13 08:21:16",
        "SP95": "2026-05-13 08:21:16",
        "E85": "2026-05-13 08:21:16",
        "E10": "2026-05-13 08:21:16",
        "SP98": "2026-05-13 08:21:16"
      }
    },
    {
      "id": "37000016",
      "lat": 47.39377902,
      "lon": 0.66974657,
      "cp": "37000",
      "ville": "Tours",
      "prix": {
        "Gazole": 0.002221,
        "SP95": 0.002045,
        "SP98": 0.002148
      },
      "maj_gouv": {
        "Gazole": "2026-05-07 08:35:28",
        "SP95": "2026-05-12 09:04:16",
        "SP98": "2026-05-07 08:35:29"
      }
    },
    {
      "id": "37300008",
      "lat": 47.349,
      "lon": 0.661,
      "cp": "37300",
      "ville": "Joué-lès-Tours",
      "prix": {
        "Gazole": 0.00209,
        "E10": 0.00199,
        "SP98": 0.00199
      },
      "maj_gouv": {
        "Gazole": "2026-05-14 00:01:00",
        "E10": "2026-05-14 00:01:00",
        "SP98": "2026-05-14 00:01:00"
      }
    },
    {
      "id": "37000007",
      "lat": 47.38,
      "lon": 0.669,
      "cp": "37000",
      "ville": "Tours",
      "prix": {
        "Gazole": 0.002169,
        "SP95": 0.00204,
        "E10": 0.00204,
        "SP98": 0.002161
      },
      "maj_gouv": {
        "Gazole": "2026-05-12 09:31:00",
        "SP95": "2026-05-12 09:31:00",
        "E10": "2026-05-12 09:31:00",
        "SP98": "2026-05-12 09:31:00"
      }
    },
    {
      "id": "37390002",
      "lat": 47.439,
      "lon": 0.699,
      "cp": "37390",
      "ville": "NOTRE-DAME-D'Oé",
      "prix": {
        "Gazole": 0.002069,
        "SP95": 0.002079,
        "E85": 0.0008179999999999999,
        "SP98": 0.0021190000000000002
      },
      "maj_gouv": {
        "Gazole": "2026-05-13 17:54:45",
        "SP95": "2026-05-13 17:54:45",
        "E85": "2026-04-25 10:18:56",
        "SP98": "2026-05-13 17:54:45"
      }
    },
    {
      "id": "37250002",
      "lat": 47.293,
      "lon": 0.719,
      "cp": "37250",
      "ville": "VEIGNé",
      "prix": {
        "Gazole": 0.002069,
        "E10": 0.0019790000000000003,
        "SP98": 0.002096
      },
      "maj_gouv": {
        "Gazole": "2026-05-13 08:49:00",
        "E10": "2026-05-13 08:49:00",
        "SP98": "2026-05-13 07:50:20"
      }
    },
    {
      "id": "37150003",
      "lat": 47.325,
      "lon": 1.004,
      "cp": "37150",
      "ville": "BLéRé",
      "prix": {
        "Gazole": 0.002129,
        "E85": 0.0008179999999999999,
        "E10": 0.001999,
        "SP98": 0.0020659999999999997
      },
      "maj_gouv": {
        "Gazole": "2026-05-12 08:34:27",
        "E85": "2026-04-29 08:33:06",
        "E10": "2026-05-12 08:34:28",
        "SP98": "2026-05-12 08:34:28"
      }
    },
    {
      "id": "37800005",
      "lat": 47.104,
      "lon": 0.615,
      "cp": "37800",
      "ville": "SAINTE-MAURE DE TOURAINE",
      "prix": {
        "Gazole": 0.002095,
        "E85": 0.000759,
        "E10": 0.0020150000000000003,
        "SP98": 0.002115
      },
      "maj_gouv": {
        "Gazole": "2026-05-13 06:30:00",
        "E85": "2026-03-17 13:01:31",
        "E10": "2026-05-13 06:30:00",
        "SP98": "2026-05-13 06:30:00"
      }
    },
    {
      "id": "37800008",
      "lat": 47.166,
      "lon": 0.632,
      "cp": "37800",
      "ville": "Saint-Épain",
      "prix": {
        "Gazole": 0.0024590000000000002,
        "GPLc": 0.001259,
        "E10": 0.002269,
        "SP98": 0.002419
      },
      "maj_gouv": {
        "Gazole": "2026-05-13 11:22:59",
        "GPLc": "2026-05-13 11:22:59",
        "E10": "2026-05-13 11:22:59",
        "SP98": "2026-05-13 11:22:59"
      }
    },
    {
      "id": "37300001",
      "lat": 47.346,
      "lon": 0.643,
      "cp": "37300",
      "ville": "JOUé-LèS-TOURS",
      "prix": {
        "SP95": 0.002069,
        "SP98": 0.002129
      },
      "maj_gouv": {
        "SP95": "2026-05-12 07:37:17",
        "SP98": "2026-05-11 06:50:27"
      }
    },
    {
      "id": "37170007",
      "lat": 47.342,
      "lon": 0.704,
      "cp": "37170",
      "ville": "Chambray-lès-Tours",
      "prix": {
        "Gazole": 0.00209,
        "E10": 0.00199,
        "SP98": 0.00199
      },
      "maj_gouv": {
        "Gazole": "2026-05-14 00:01:00",
        "E10": "2026-05-14 00:01:00",
        "SP98": "2026-05-14 00:01:00"
      }
    },
    {
      "id": "37700011",
      "lat": 47.381,
      "lon": 0.73,
      "cp": "37700",
      "ville": "Saint-Pierre-des-Corps",
      "prix": {
        "Gazole": 0.00209,
        "E85": 0.000825,
        "GPLc": 0.000989,
        "E10": 0.00199,
        "SP98": 0.00199
      },
      "maj_gouv": {
        "Gazole": "2026-05-14 00:01:00",
        "E85": "2026-05-14 00:01:00",
        "GPLc": "2026-05-14 00:01:00",
        "E10": "2026-05-14 00:01:00",
        "SP98": "2026-05-14 00:01:00"
      }
    },
    {
      "id": "37600004",
      "lat": 47.111,
      "lon": 1.005,
      "cp": "37600",
      "ville": "LOCHES",
      "prix": {
        "Gazole": 0.002099,
        "SP95": 0.002079,
        "E10": 0.001999,
        "SP98": 0.002129
      },
      "maj_gouv": {
        "Gazole": "2026-05-13 09:06:23",
        "SP95": "2026-05-13 09:06:23",
        "E10": "2026-05-13 09:06:23",
        "SP98": "2026-05-13 09:06:24"
      }
    },
    {
      "id": "37190001",
      "lat": 47.268,
      "lon": 0.476,
      "cp": "37190",
      "ville": "Azay-le-Rideau",
      "prix": {},
      "maj_gouv": {}
    },
    {
      "id": "37540005",
      "lat": 47.418695091768996,
      "lon": 0.66465516532672,
      "cp": "37540",
      "ville": "Saint-Cyr-sur-Loire",
      "prix": {
        "Gazole": 0.002181,
        "E85": 0.000909,
        "E10": 0.00199,
        "SP98": 0.00199
      },
      "maj_gouv": {
        "Gazole": "2026-05-13 07:43:03",
        "E85": "2026-05-13 07:43:03",
        "E10": "2026-05-13 07:43:03",
        "SP98": "2026-05-13 07:43:03"
      }
    },
    {
      "id": "37210005",
      "lat": 47.411707,
      "lon": 0.8034330000000001,
      "cp": "37210",
      "ville": "Vouvray",
      "prix": {
        "Gazole": 0.002173,
        "SP95": 0.002052,
        "SP98": 0.002093
      },
      "maj_gouv": {
        "Gazole": "2026-05-09 12:23:12",
        "SP95": "2026-05-09 12:23:12",
        "SP98": "2026-05-09 12:23:12"
      }
    },
    {
      "id": "37700001",
      "lat": 47.38,
      "lon": 0.715,
      "cp": "37700",
      "ville": "SAINT-PIERRE-DES-CORPS",
      "prix": {
        "Gazole": 0.002133,
        "SP95": 0.0020659999999999997,
        "E10": 0.002025,
        "SP98": 0.002137
      },
      "maj_gouv": {
        "Gazole": "2026-05-12 22:43:00",
        "SP95": "2026-05-12 22:43:00",
        "E10": "2026-05-12 22:43:00",
        "SP98": "2026-05-12 22:43:00"
      }
    },
    {
      "id": "37330001",
      "lat": 47.542,
      "lon": 0.337,
      "cp": "37330",
      "ville": "Château-la-Vallière",
      "prix": {
        "Gazole": 0.002159,
        "SP95": 0.002085,
        "GPLc": 0.001119,
        "E10": 0.0020350000000000004,
        "SP98": 0.002115
      },
      "maj_gouv": {
        "Gazole": "2026-05-11 17:20:06",
        "SP95": "2026-05-11 09:25:45",
        "GPLc": "2026-04-30 16:18:58",
        "E10": "2026-05-13 10:31:38",
        "SP98": "2026-05-11 09:25:45"
      }
    },
    {
      "id": "37420002",
      "lat": 47.214,
      "lon": 0.169,
      "cp": "37420",
      "ville": "AVOINE",
      "prix": {
        "Gazole": 0.002225,
        "E85": 0.000879
      },
      "maj_gouv": {
        "Gazole": "2026-05-13 08:05:19",
        "E85": "2026-05-11 08:28:21"
      }
    }
  ]
}