{
  "departement": "28",
  "date": "2026-05-14",
  "stations": [
    {
      "id": "28330003",
      "lat": 48.194,
      "lon": 0.899,
      "cp": "28330",
      "ville": "Authon-du-Perche",
      "prix": {
        "Gazole": 0.002269,
        "SP95": 0.002139,
        "SP98": 0.002219
      },
      "maj_gouv": {
        "Gazole": "2026-05-07 08:05:19",
        "SP95": "2026-05-07 08:05:20",
        "SP98": "2026-05-07 08:05:20"
      }
    },
    {
      "id": "28700004",
      "lat": 48.478,
      "lon": 1.768,
      "cp": "28700",
      "ville": "AUNEAU",
      "prix": {
        "Gazole": 0.002039,
        "SP95": 0.002039,
        "E85": 0.000739,
        "E10": 0.001991,
        "SP98": 0.002059
      },
      "maj_gouv": {
        "Gazole": "2026-05-13 11:20:00",
        "SP95": "2026-05-13 11:20:00",
        "E85": "2026-05-13 11:20:00",
        "E10": "2026-05-13 11:20:00",
        "SP98": "2026-05-13 11:20:00"
      }
    },
    {
      "id": "28210003",
      "lat": 48.65,
      "lon": 1.538,
      "cp": "28210",
      "ville": "Lormaye",
      "prix": {
        "Gazole": 0.00221,
        "E10": 0.00199,
        "SP98": 0.00199
      },
      "maj_gouv": {
        "Gazole": "2026-05-13 07:31:20",
        "E10": "2026-05-13 07:31:20",
        "SP98": "2026-05-13 07:31:20"
      }
    },
    {
      "id": "28500001",
      "lat": 48.717,
      "lon": 1.369,
      "cp": "28500",
      "ville": "Vernouillet",
      "prix": {
        "Gazole": 0.0020800000000000003,
        "E85": 0.000739,
        "E10": 0.0020009999999999997,
        "SP98": 0.00207
      },
      "maj_gouv": {
        "Gazole": "2026-05-12 10:50:00",
        "E85": "2026-05-12 10:50:00",
        "E10": "2026-05-12 10:50:00",
        "SP98": "2026-05-12 10:50:00"
      }
    },
    {
      "id": "28160004",
      "lat": 48.24,
      "lon": 1.083,
      "cp": "28160",
      "ville": "Dampierre-sous-Brou",
      "prix": {
        "Gazole": 0.002321,
        "E10": 0.002205,
        "SP98": 0.002305
      },
      "maj_gouv": {
        "Gazole": "2026-05-13 16:50:00",
        "E10": "2026-05-13 16:50:00",
        "SP98": "2026-05-13 16:50:00"
      }
    },
    {
      "id": "28220002",
      "lat": 47.99,
      "lon": 1.256,
      "cp": "28220",
      "ville": "Cloyes-sur-le-Loir",
      "prix": {
        "Gazole": 0.002169,
        "SP95": 0.002069,
        "SP98": 0.0021190000000000002
      },
      "maj_gouv": {
        "Gazole": "2026-05-12 06:56:36",
        "SP95": "2026-05-12 06:56:36",
        "SP98": "2026-05-12 06:56:36"
      }
    },
    {
      "id": "28000011",
      "lat": 48.45,
      "lon": 1.506,
      "cp": "28000",
      "ville": "chartres",
      "prix": {
        "Gazole": 0.00209,
        "GPLc": 0.000999
      },
      "maj_gouv": {
        "Gazole": "2026-05-14 00:01:00",
        "GPLc": "2026-05-14 00:01:00"
      }
    },
    {
      "id": "28400004",
      "lat": 48.331,
      "lon": 0.805,
      "cp": "28400",
      "ville": "Nogent-le-Rotrou",
      "prix": {
        "Gazole": 0.002079,
        "E85": 0.000799,
        "GPLc": 0.001055,
        "E10": 0.001988,
        "SP98": 0.002099
      },
      "maj_gouv": {
        "Gazole": "2026-05-12 09:03:12",
        "E85": "2026-05-04 12:33:30",
        "GPLc": "2026-05-04 12:33:30",
        "E10": "2026-05-12 09:03:12",
        "SP98": "2026-05-12 09:03:12"
      }
    },
    {
      "id": "28190003",
      "lat": 48.45,
      "lon": 1.254,
      "cp": "28190",
      "ville": "Courville-sur-Eure",
      "prix": {
        "Gazole": 0.0021739999999999997,
        "E10": 0.002057,
        "SP98": 0.002156
      },
      "maj_gouv": {
        "Gazole": "2026-05-08 08:07:07",
        "E10": "2026-05-05 08:45:00",
        "SP98": "2026-05-08 08:07:08"
      }
    },
    {
      "id": "28500011",
      "lat": 48.677003,
      "lon": 1.331272,
      "cp": "28500",
      "ville": "TREON",
      "prix": {
        "Gazole": 0.00215,
        "E10": 0.00202,
        "SP98": 0.00215
      },
      "maj_gouv": {
        "Gazole": "2026-05-12 08:22:57",
        "E10": "2026-05-12 08:22:57",
        "SP98": "2026-05-12 08:23:13"
      }
    },
    {
      "id": "28700005",
      "lat": 48.452057318886,
      "lon": 1.7537188857641999,
      "cp": "28700",
      "ville": "Roinville",
      "prix": {
        "Gazole": 0.002199,
        "E85": 0.0009649999999999999,
        "E10": 0.002029,
        "SP98": 0.002159
      },
      "maj_gouv": {
        "Gazole": "2026-05-12 23:50:00",
        "E85": "2026-05-12 23:50:00",
        "E10": "2026-05-12 23:50:00",
        "SP98": "2026-05-12 23:50:00"
      }
    },
    {
      "id": "28000010",
      "lat": 48.436,
      "lon": 1.521,
      "cp": "28000",
      "ville": "CHARTRES",
      "prix": {
        "Gazole": 0.00209,
        "E10": 0.00199,
        "SP98": 0.00199
      },
      "maj_gouv": {
        "Gazole": "2026-05-14 00:01:00",
        "E10": "2026-05-14 00:01:00",
        "SP98": "2026-05-14 00:01:00"
      }
    },
    {
      "id": "28320003",
      "lat": 48.532295395999995,
      "lon": 1.68398622791,
      "cp": "28320",
      "ville": "GALLARDON",
      "prix": {
        "Gazole": 0.00229,
        "SP95": 0.00209,
        "SP98": 0.00219
      },
      "maj_gouv": {
        "Gazole": "2026-04-30 10:12:12",
        "SP95": "2026-04-30 10:12:12",
        "SP98": "2026-04-30 10:12:12"
      }
    },
    {
      "id": "28160003",
      "lat": 48.209,
      "lon": 1.178,
      "cp": "28160",
      "ville": "BROU",
      "prix": {
        "Gazole": 0.00209,
        "E10": 0.00199
      },
      "maj_gouv": {
        "Gazole": "2026-05-13 18:13:27",
        "E10": "2026-05-13 18:13:27"
      }
    },
    {
      "id": "28200002",
      "lat": 48.062,
      "lon": 1.335,
      "cp": "28200",
      "ville": "Châteaudun",
      "prix": {
        "Gazole": 0.00219,
        "E10": 0.00199,
        "SP98": 0.00199
      },
      "maj_gouv": {
        "Gazole": "2026-05-13 05:45:20",
        "E10": "2026-05-12 07:12:37",
        "SP98": "2026-05-13 05:45:20"
      }
    },
    {
      "id": "28500012",
      "lat": 48.732046455851,
      "lon": 1.341092847969,
      "cp": "28500",
      "ville": "VERNOUILLET",
      "prix": {
        "Gazole": 0.002099,
        "E85": 0.000959,
        "E10": 0.002039,
        "SP98": 0.002089
      },
      "maj_gouv": {
        "Gazole": "2026-05-12 18:12:46",
        "E85": "2026-05-11 14:04:54",
        "E10": "2026-05-11 14:04:54",
        "SP98": "2026-05-11 14:04:54"
      }
    },
    {
      "id": "28310010",
      "lat": 48.275,
      "lon": 1.856,
      "cp": "28310",
      "ville": "Fresnay-l'Évêque",
      "prix": {
        "Gazole": 0.002433,
        "E10": 0.002424,
        "SP98": 0.002574
      },
      "maj_gouv": {
        "Gazole": "2026-05-13 09:30:00",
        "E10": "2026-05-13 09:30:00",
        "SP98": "2026-05-13 09:30:00"
      }
    },
    {
      "id": "28130001",
      "lat": 48.58726,
      "lon": 1.57307,
      "cp": "28130",
      "ville": "PIERRES",
      "prix": {
        "Gazole": 0.002099,
        "E85": 0.00083,
        "E10": 0.001991,
        "SP98": 0.002118
      },
      "maj_gouv": {
        "Gazole": "2026-05-13 14:22:47",
        "E85": "2026-04-29 18:18:33",
        "E10": "2026-05-13 15:06:49",
        "SP98": "2026-04-24 18:50:50"
      }
    },
    {
      "id": "28120003",
      "lat": 48.364,
      "lon": 1.33,
      "cp": "28120",
      "ville": "BAILLEAU-LE-PIN",
      "prix": {
        "Gazole": 0.002199,
        "E10": 0.002029,
        "SP98": 0.002139
      },
      "maj_gouv": {
        "Gazole": "2026-05-07 16:08:37",
        "E10": "2026-05-07 16:08:37",
        "SP98": "2026-05-07 16:08:38"
      }
    },
    {
      "id": "28300004",
      "lat": 48.454,
      "lon": 1.465,
      "cp": "28300",
      "ville": "MAINVILLIERS",
      "prix": {
        "Gazole": 0.002054,
        "E85": 0.0008179999999999999,
        "E10": 0.001956,
        "SP98": 0.0020659999999999997
      },
      "maj_gouv": {
        "Gazole": "2026-05-12 09:10:03",
        "E85": "2026-05-02 08:48:45",
        "E10": "2026-05-12 09:10:03",
        "SP98": "2026-05-12 09:10:04"
      }
    },
    {
      "id": "28300005",
      "lat": 48.473,
      "lon": 1.508,
      "cp": "28300",
      "ville": "CHAMPHOL",
      "prix": {
        "Gazole": 0.002191,
        "E10": 0.0020459999999999996,
        "SP98": 0.002156
      },
      "maj_gouv": {
        "Gazole": "2026-05-09 09:07:43",
        "E10": "2026-05-09 09:07:43",
        "SP98": "2026-05-09 09:07:43"
      }
    },
    {
      "id": "28500006",
      "lat": 48.743,
      "lon": 1.425,
      "cp": "28500",
      "ville": "Cherisy",
      "prix": {
        "Gazole": 0.002149,
        "SP95": 0.002069,
        "SP98": 0.002099
      },
      "maj_gouv": {
        "Gazole": "2026-05-13 06:43:19",
        "SP95": "2026-05-13 06:43:19",
        "SP98": "2026-05-13 06:43:20"
      }
    },
    {
      "id": "28310011",
      "lat": 48.1962525,
      "lon": 1.9367845626934999,
      "cp": "28310",
      "ville": "Toury",
      "prix": {
        "Gazole": 0.002089,
        "E85": 0.000789,
        "E10": 0.001999,
        "SP98": 0.002099
      },
      "maj_gouv": {
        "Gazole": "2026-05-13 08:39:03",
        "E85": "2026-04-14 10:43:47",
        "E10": "2026-05-04 10:46:33",
        "SP98": "2026-05-11 11:28:12"
      }
    },
    {
      "id": "28480001",
      "lat": 48.313,
      "lon": 0.991,
      "cp": "28480",
      "ville": "Thiron-Gardais",
      "prix": {
        "Gazole": 0.00209,
        "SP95": 0.00196,
        "SP98": 0.00198
      },
      "maj_gouv": {
        "Gazole": "2026-05-14 00:06:20",
        "SP95": "2026-05-14 00:06:20",
        "SP98": "2026-05-14 00:06:20"
      }
    },
    {
      "id": "28300010",
      "lat": 48.468,
      "lon": 1.579,
      "cp": "28300",
      "ville": "Gasville-Oisème",
      "prix": {
        "Gazole": 0.0024300000000000003,
        "E10": 0.002418,
        "SP98": 0.002568
      },
      "maj_gouv": {
        "Gazole": "2026-05-13 09:30:00",
        "E10": "2026-05-13 09:30:00",
        "SP98": "2026-05-13 09:30:00"
      }
    },
    {
      "id": "28000009",
      "lat": 48.436,
      "lon": 1.52,
      "cp": "28000",
      "ville": "CHARTRES",
      "prix": {
        "Gazole": 0.00209,
        "E85": 0.000829,
        "E10": 0.00199
      },
      "maj_gouv": {
        "Gazole": "2026-05-14 00:01:00",
        "E85": "2026-05-14 00:01:00",
        "E10": "2026-05-14 00:01:00"
      }
    },
    {
      "id": "28000007",
      "lat": 48.4324014794,
      "lon": 1.49271484815,
      "cp": "28000",
      "ville": "CHARTRES",
      "prix": {
        "Gazole": 0.002054,
        "SP95": 0.002009,
        "E85": 0.0008179999999999999,
        "E10": 0.001956,
        "SP98": 0.0020659999999999997
      },
      "maj_gouv": {
        "Gazole": "2026-05-12 10:16:57",
        "SP95": "2026-05-12 10:16:57",
        "E85": "2026-05-12 10:16:57",
        "E10": "2026-05-12 10:16:57",
        "SP98": "2026-05-12 10:16:57"
      }
    },
    {
      "id": "28270003",
      "lat": 48.69,
      "lon": 1.079,
      "cp": "28270",
      "ville": "Brezolles",
      "prix": {
        "Gazole": 0.0023090000000000003,
        "SP95": 0.002139,
        "SP98": 0.002199
      },
      "maj_gouv": {
        "Gazole": "2026-05-07 06:51:53",
        "SP95": "2026-05-07 06:51:53",
        "SP98": "2026-05-07 06:51:53"
      }
    },
    {
      "id": "28400005",
      "lat": 48.30636693,
      "lon": 0.80848721,
      "cp": "28400",
      "ville": "Nogent-le-Rotrou",
      "prix": {
        "Gazole": 0.00218,
        "E10": 0.00199
      },
      "maj_gouv": {
        "Gazole": "2026-05-13 10:23:42",
        "E10": "2026-05-13 10:23:42"
      }
    },
    {
      "id": "28500010",
      "lat": 48.730673127189,
      "lon": 1.3374733095697,
      "cp": "28500",
      "ville": "VERNOUILLET",
      "prix": {
        "Gazole": 0.00209,
        "SP95": 0.00206,
        "SP98": 0.0020800000000000003
      },
      "maj_gouv": {
        "Gazole": "2026-05-11 21:43:22",
        "SP95": "2026-05-11 21:43:22",
        "SP98": "2026-05-11 21:43:22"
      }
    },
    {
      "id": "28300008",
      "lat": 48.437,
      "lon": 1.424,
      "cp": "28300",
      "ville": "AMILLY",
      "prix": {
        "Gazole": 0.00209,
        "E85": 0.000825,
        "SP98": 0.00199
      },
      "maj_gouv": {
        "Gazole": "2026-05-14 00:01:00",
        "E85": "2026-05-14 00:01:00",
        "SP98": "2026-05-14 00:01:00"
      }
    },
    {
      "id": "28150001",
      "lat": 48.268,
      "lon": 1.632,
      "cp": "28150",
      "ville": "VOVES",
      "prix": {
        "Gazole": 0.002149,
        "E10": 0.001999,
        "SP98": 0.002099
      },
      "maj_gouv": {
        "Gazole": "2026-05-11 11:58:53",
        "E10": "2026-05-07 09:38:35",
        "SP98": "2026-05-07 09:38:35"
      }
    },
    {
      "id": "28310002",
      "lat": 48.198,
      "lon": 1.889,
      "cp": "28310",
      "ville": "Janville",
      "prix": {
        "Gazole": 0.00209,
        "SP95": 0.00199
      },
      "maj_gouv": {
        "Gazole": "2026-05-14 00:01:00",
        "SP95": "2026-05-13 08:15:03"
      }
    },
    {
      "id": "28000001",
      "lat": 48.451,
      "lon": 1.516,
      "cp": "28000",
      "ville": "CHARTRES",
      "prix": {
        "Gazole": 0.0020510000000000003,
        "SP95": 0.002072,
        "E85": 0.0008179999999999999,
        "GPLc": 0.000989,
        "E10": 0.002009,
        "SP98": 0.0021509999999999997
      },
      "maj_gouv": {
        "Gazole": "2026-05-13 08:43:37",
        "SP95": "2026-05-13 08:43:37",
        "E85": "2026-05-13 08:43:38",
        "GPLc": "2026-05-13 08:43:38",
        "E10": "2026-05-13 08:43:38",
        "SP98": "2026-05-13 08:43:38"
      }
    },
    {
      "id": "28500007",
      "lat": 48.748,
      "lon": 1.271,
      "cp": "28500",
      "ville": "Vert-en-Drouais",
      "prix": {
        "Gazole": 0.00209,
        "E85": 0.0008990000000000001,
        "GPLc": 0.001001,
        "E10": 0.00199
      },
      "maj_gouv": {
        "Gazole": "2026-05-14 00:01:00",
        "E85": "2026-05-14 00:01:00",
        "GPLc": "2026-05-14 00:01:00",
        "E10": "2026-05-14 00:01:00"
      }
    },
    {
      "id": "28120002",
      "lat": 48.305,
      "lon": 1.257,
      "cp": "28120",
      "ville": "ILLIERS-COMBRAY",
      "prix": {
        "Gazole": 0.002069,
        "E85": 0.000819,
        "GPLc": 0.001139,
        "E10": 0.001999,
        "SP98": 0.002089
      },
      "maj_gouv": {
        "Gazole": "2026-05-11 08:00:00",
        "E85": "2026-04-22 07:00:00",
        "GPLc": "2026-05-06 13:05:42",
        "E10": "2026-05-13 18:49:27",
        "SP98": "2026-05-13 18:49:27"
      }
    },
    {
      "id": "28170001",
      "lat": 48.577,
      "lon": 1.239,
      "cp": "28170",
      "ville": "THIMERT-GâTELLES",
      "prix": {
        "Gazole": 0.0021160000000000003,
        "E10": 0.002018,
        "SP98": 0.00214
      },
      "maj_gouv": {
        "Gazole": "2026-05-13 16:55:56",
        "E10": "2026-05-13 16:55:56",
        "SP98": "2026-05-13 16:55:56"
      }
    },
    {
      "id": "28130003",
      "lat": 48.58,
      "lon": 1.57,
      "cp": "28130",
      "ville": "Maintenon",
      "prix": {
        "Gazole": 0.002229,
        "E85": 0.000819,
        "E10": 0.002039,
        "SP98": 0.002169
      },
      "maj_gouv": {
        "Gazole": "2026-05-07 12:40:43",
        "E85": "2026-04-21 15:43:51",
        "E10": "2026-05-07 12:40:43",
        "SP98": "2026-05-07 12:40:43"
      }
    },
    {
      "id": "28350001",
      "lat": 48.767,
      "lon": 1.196,
      "cp": "28350",
      "ville": "SAINT-LUBIN-DES-JONCHERETS",
      "prix": {
        "Gazole": 0.002149,
        "E10": 0.002039,
        "SP98": 0.002099
      },
      "maj_gouv": {
        "Gazole": "2026-05-11 08:04:50",
        "E10": "2026-05-11 08:04:50",
        "SP98": "2026-05-11 08:04:50"
      }
    },
    {
      "id": "28100002",
      "lat": 48.737,
      "lon": 1.351,
      "cp": "28100",
      "ville": "DREUX",
      "prix": {
        "Gazole": 0.00209,
        "E10": 0.002024,
        "SP98": 0.0020800000000000003
      },
      "maj_gouv": {
        "Gazole": "2026-05-13 09:11:01",
        "E10": "2026-05-13 09:11:01",
        "SP98": "2026-05-13 09:11:01"
      }
    },
    {
      "id": "28630001",
      "lat": 48.406,
      "lon": 1.491,
      "cp": "28630",
      "ville": "Morancez",
      "prix": {
        "Gazole": 0.002054,
        "E10": 0.001999,
        "SP98": 0.0021070000000000004
      },
      "maj_gouv": {
        "Gazole": "2026-05-13 19:37:52",
        "E10": "2026-05-13 19:37:52",
        "SP98": "2026-05-13 19:37:52"
      }
    },
    {
      "id": "28310006",
      "lat": 48.197,
      "lon": 1.892,
      "cp": "28310",
      "ville": "Janville",
      "prix": {
        "Gazole": 0.002169,
        "E10": 0.0020150000000000003,
        "SP98": 0.002129
      },
      "maj_gouv": {
        "Gazole": "2026-05-08 14:01:30",
        "E10": "2026-05-08 14:01:31",
        "SP98": "2026-05-08 14:01:31"
      }
    },
    {
      "id": "28100003",
      "lat": 48.748,
      "lon": 1.344,
      "cp": "28100",
      "ville": "DREUX",
      "prix": {
        "Gazole": 0.002091,
        "GPLc": 0.000989,
        "E10": 0.002025,
        "SP98": 0.0021190000000000002
      },
      "maj_gouv": {
        "Gazole": "2026-05-13 09:56:26",
        "GPLc": "2026-05-13 09:56:26",
        "E10": "2026-05-13 09:56:27",
        "SP98": "2026-05-13 09:56:27"
      }
    },
    {
      "id": "28600002",
      "lat": 48.41,
      "lon": 1.463,
      "cp": "28630",
      "ville": "Barjouville",
      "prix": {
        "Gazole": 0.002049,
        "SP95": 0.002065,
        "E10": 0.001999,
        "SP98": 0.002095
      },
      "maj_gouv": {
        "Gazole": "2026-05-13 12:43:50",
        "SP95": "2026-05-13 12:43:50",
        "E10": "2026-05-13 12:43:51",
        "SP98": "2026-05-13 12:43:51"
      }
    },
    {
      "id": "28190002",
      "lat": 48.475,
      "lon": 1.322,
      "cp": "28190",
      "ville": "FONTAINE-LA-GUYON",
      "prix": {
        "Gazole": 0.002199,
        "E85": 0.000819,
        "E10": 0.002049,
        "SP98": 0.002149
      },
      "maj_gouv": {
        "Gazole": "2026-05-07 11:15:29",
        "E85": "2026-05-04 12:30:32",
        "E10": "2026-05-07 11:15:30",
        "SP98": "2026-05-05 09:57:05"
      }
    },
    {
      "id": "28160006",
      "lat": 48.215,
      "lon": 1.18,
      "cp": "28160",
      "ville": "BROU",
      "prix": {
        "Gazole": 0.002109,
        "E85": 0.0008179999999999999,
        "E10": 0.002039,
        "SP98": 0.002159
      },
      "maj_gouv": {
        "Gazole": "2026-05-13 23:06:43",
        "E85": "2026-05-10 21:58:41",
        "E10": "2026-05-13 23:06:44",
        "SP98": "2026-05-13 23:06:44"
      }
    },
    {
      "id": "28800001",
      "lat": 48.187,
      "lon": 1.391,
      "cp": "28800",
      "ville": "BONNEVAL",
      "prix": {
        "Gazole": 0.0021030000000000003,
        "E10": 0.002005,
        "SP98": 0.002127
      },
      "maj_gouv": {
        "Gazole": "2026-05-13 08:30:12",
        "E10": "2026-05-13 08:30:12",
        "SP98": "2026-05-13 08:30:12"
      }
    },
    {
      "id": "28800002",
      "lat": 48.1915025,
      "lon": 1.5789829000000002,
      "cp": "28800",
      "ville": "SANCHEVILLE",
      "prix": {
        "Gazole": 0.0024289999999999997,
        "E10": 0.002199
      },
      "maj_gouv": {
        "Gazole": "2026-03-31 14:01:35",
        "E10": "2026-03-31 14:01:35"
      }
    },
    {
      "id": "28420001",
      "lat": 48.261,
      "lon": 0.913,
      "cp": "28480",
      "ville": "VICHèRES",
      "prix": {
        "Gazole": 0.00209,
        "E10": 0.00199
      },
      "maj_gouv": {
        "Gazole": "2026-05-14 00:01:00",
        "E10": "2026-03-19 07:48:52"
      }
    },
    {
      "id": "28500008",
      "lat": 48.76,
      "lon": 1.24,
      "cp": "28500",
      "ville": "Vert-en-Drouais",
      "prix": {
        "Gazole": 0.00209,
        "E85": 0.000879,
        "E10": 0.00199,
        "SP98": 0.00199
      },
      "maj_gouv": {
        "Gazole": "2026-05-14 01:00:00",
        "E85": "2026-05-14 01:00:00",
        "E10": "2026-05-14 01:00:00",
        "SP98": "2026-05-14 01:00:00"
      }
    },
    {
      "id": "28160005",
      "lat": 48.218,
      "lon": 1.178,
      "cp": "28160",
      "ville": "BROU",
      "prix": {
        "Gazole": 0.002179,
        "E85": 0.0008179999999999999,
        "E10": 0.002029,
        "SP98": 0.002149
      },
      "maj_gouv": {
        "Gazole": "2026-05-11 09:05:23",
        "E85": "2026-05-04 08:22:39",
        "E10": "2026-05-04 08:22:39",
        "SP98": "2026-05-04 08:22:39"
      }
    },
    {
      "id": "28310004",
      "lat": 48.272,
      "lon": 1.858,
      "cp": "28310",
      "ville": "FRESNAY-L'ÉVêQUE",
      "prix": {
        "Gazole": 0.002433,
        "E10": 0.002424,
        "SP98": 0.002574
      },
      "maj_gouv": {
        "Gazole": "2026-05-13 09:30:00",
        "E10": "2026-05-13 09:30:00",
        "SP98": "2026-05-13 09:30:00"
      }
    },
    {
      "id": "28210002",
      "lat": 48.639,
      "lon": 1.515,
      "cp": "28210",
      "ville": "NOGENT-LE-ROI",
      "prix": {
        "Gazole": 0.0021190000000000002,
        "E85": 0.0008179999999999999,
        "E10": 0.001999
      },
      "maj_gouv": {
        "Gazole": "2026-05-12 11:43:33",
        "E85": "2026-05-12 11:43:33",
        "E10": "2026-05-12 11:43:33"
      }
    },
    {
      "id": "28400002",
      "lat": 48.331,
      "lon": 0.833,
      "cp": "28400",
      "ville": "Nogent-le-Rotrou",
      "prix": {
        "Gazole": 0.002065,
        "SP95": 0.002065,
        "E85": 0.000745,
        "GPLc": 0.001055,
        "E10": 0.002045,
        "SP98": 0.002085
      },
      "maj_gouv": {
        "Gazole": "2026-05-13 15:49:09",
        "SP95": "2026-05-12 15:19:20",
        "E85": "2026-04-22 11:01:43",
        "GPLc": "2026-04-23 14:34:16",
        "E10": "2026-05-13 15:49:09",
        "SP98": "2026-05-12 15:19:20"
      }
    },
    {
      "id": "28170002",
      "lat": 48.63119,
      "lon": 1.14832,
      "cp": "28170",
      "ville": "MAILLEBOIS",
      "prix": {
        "Gazole": 0.002099,
        "SP95": 0.002029,
        "SP98": 0.002059
      },
      "maj_gouv": {
        "Gazole": "2026-05-12 10:42:59",
        "SP95": "2026-05-12 10:42:59",
        "SP98": "2026-05-12 10:43:00"
      }
    },
    {
      "id": "28700001",
      "lat": 48.466,
      "lon": 1.758,
      "cp": "28700",
      "ville": "AUNEAU",
      "prix": {
        "Gazole": 0.002216,
        "E10": 0.002025,
        "SP98": 0.0021349999999999997
      },
      "maj_gouv": {
        "Gazole": "2026-04-23 14:23:37",
        "E10": "2026-05-05 09:40:56",
        "SP98": "2026-05-05 09:40:56"
      }
    },
    {
      "id": "28200005",
      "lat": 48.092,
      "lon": 1.339,
      "cp": "28200",
      "ville": "CHATEAUDUN",
      "prix": {
        "Gazole": 0.002149,
        "SP95": 0.002049,
        "E10": 0.002009,
        "SP98": 0.0021190000000000002
      },
      "maj_gouv": {
        "Gazole": "2026-05-12 10:10:00",
        "SP95": "2026-05-12 10:10:00",
        "E10": "2026-05-12 10:10:00",
        "SP98": "2026-05-12 10:10:00"
      }
    },
    {
      "id": "28130002",
      "lat": 48.593,
      "lon": 1.678,
      "cp": "28130",
      "ville": "HANCHES",
      "prix": {
        "Gazole": 0.002039,
        "SP95": 0.0020299999999999997,
        "E85": 0.000739,
        "GPLc": 0.0011690000000000001,
        "E10": 0.001991,
        "SP98": 0.00206
      },
      "maj_gouv": {
        "Gazole": "2026-05-13 11:20:00",
        "SP95": "2026-05-13 11:20:00",
        "E85": "2026-05-13 11:20:00",
        "GPLc": "2026-05-13 11:20:00",
        "E10": "2026-05-13 11:20:00",
        "SP98": "2026-05-13 11:20:00"
      }
    },
    {
      "id": "28260003",
      "lat": 48.85967,
      "lon": 1.42303,
      "cp": "28260",
      "ville": "Saussay",
      "prix": {
        "Gazole": 0.00229,
        "SP95": 0.002105,
        "SP98": 0.002185
      },
      "maj_gouv": {
        "Gazole": "2026-04-15 10:41:31",
        "SP95": "2026-05-10 07:54:16",
        "SP98": "2026-05-05 07:48:48"
      }
    },
    {
      "id": "28300009",
      "lat": 48.467,
      "lon": 1.579,
      "cp": "28300",
      "ville": "Gasville-Oisème",
      "prix": {
        "Gazole": 0.0024300000000000003,
        "E10": 0.002418,
        "SP98": 0.002568
      },
      "maj_gouv": {
        "Gazole": "2026-05-13 09:30:00",
        "E10": "2026-05-13 09:30:00",
        "SP98": "2026-05-13 09:30:00"
      }
    },
    {
      "id": "28000002",
      "lat": 48.463,
      "lon": 1.48,
      "cp": "28000",
      "ville": "Chartres",
      "prix": {
        "Gazole": 0.00209,
        "SP95": 0.00199,
        "E10": 0.00199,
        "SP98": 0.00199
      },
      "maj_gouv": {
        "Gazole": "2026-05-14 02:10:38",
        "SP95": "2026-05-11 08:08:47",
        "E10": "2026-05-14 02:10:38",
        "SP98": "2026-05-14 02:10:38"
      }
    },
    {
      "id": "28240006",
      "lat": 48.468,
      "lon": 1.01,
      "cp": "28240",
      "ville": "la loupe",
      "prix": {
        "Gazole": 0.002059,
        "E85": 0.0008179999999999999,
        "E10": 0.001983,
        "SP98": 0.002099
      },
      "maj_gouv": {
        "Gazole": "2026-05-11 09:02:47",
        "E85": "2026-05-09 06:55:10",
        "E10": "2026-05-11 09:02:47",
        "SP98": "2026-05-11 09:02:47"
      }
    },
    {
      "id": "28100006",
      "lat": 48.743,
      "lon": 1.39,
      "cp": "28100",
      "ville": "DREUX",
      "prix": {
        "Gazole": 0.00209,
        "E85": 0.000852,
        "GPLc": 0.000989,
        "E10": 0.00199
      },
      "maj_gouv": {
        "Gazole": "2026-05-14 00:01:00",
        "E85": "2026-05-14 00:01:00",
        "GPLc": "2026-05-14 00:01:00",
        "E10": "2026-05-14 00:01:00"
      }
    },
    {
      "id": "28260005",
      "lat": 48.861,
      "lon": 1.459,
      "cp": "28260",
      "ville": "ANET",
      "prix": {
        "Gazole": 0.002113,
        "SP95": 0.002128,
        "E10": 0.002091,
        "SP98": 0.002165
      },
      "maj_gouv": {
        "Gazole": "2026-05-13 04:40:39",
        "SP95": "2026-05-13 04:40:40",
        "E10": "2026-05-13 04:40:40",
        "SP98": "2026-05-13 04:40:40"
      }
    },
    {
      "id": "28190001",
      "lat": 48.424,
      "lon": 1.361,
      "cp": "28190",
      "ville": "Saint-Georges-sur-Eure",
      "prix": {
        "Gazole": 0.002149,
        "SP95": 0.002069,
        "E10": 0.001999,
        "SP98": 0.0021349999999999997
      },
      "maj_gouv": {
        "Gazole": "2026-05-13 11:04:35",
        "SP95": "2026-05-13 11:04:36",
        "E10": "2026-05-13 11:04:36",
        "SP98": "2026-05-13 11:04:36"
      }
    },
    {
      "id": "28330002",
      "lat": 48.144,
      "lon": 0.972,
      "cp": "28330",
      "ville": "LA BAZOCHE-GOUET",
      "prix": {
        "Gazole": 0.002229,
        "E10": 0.002069,
        "SP98": 0.002139
      },
      "maj_gouv": {
        "Gazole": "2026-05-04 09:15:00",
        "E10": "2026-05-04 09:15:00",
        "SP98": "2026-05-04 09:15:00"
      }
    },
    {
      "id": "28240005",
      "lat": 48.475,
      "lon": 1.026,
      "cp": "28240",
      "ville": "La Loupe",
      "prix": {
        "Gazole": 0.002059,
        "E10": 0.001983,
        "SP98": 0.002099
      },
      "maj_gouv": {
        "Gazole": "2026-05-11 08:51:31",
        "E10": "2026-05-11 08:51:31",
        "SP98": "2026-05-11 08:51:31"
      }
    },
    {
      "id": "28200003",
      "lat": 48.067,
      "lon": 1.302,
      "cp": "28200",
      "ville": "Saint-Denis-les-Ponts",
      "prix": {
        "Gazole": 0.002099,
        "SP95": 0.002069,
        "E85": 0.000799,
        "E10": 0.002029,
        "SP98": 0.002099
      },
      "maj_gouv": {
        "Gazole": "2026-05-11 07:12:53",
        "SP95": "2026-05-11 07:12:53",
        "E85": "2026-04-27 07:52:53",
        "E10": "2026-05-11 07:12:53",
        "SP98": "2026-05-11 07:12:54"
      }
    },
    {
      "id": "28150002",
      "lat": 48.279,
      "lon": 1.623,
      "cp": "28150",
      "ville": "Voves",
      "prix": {
        "Gazole": 0.002089,
        "E85": 0.0008179999999999999,
        "E10": 0.0019890000000000003,
        "SP98": 0.002059
      },
      "maj_gouv": {
        "Gazole": "2026-05-13 09:07:43",
        "E85": "2026-04-17 11:40:07",
        "E10": "2026-05-13 07:53:27",
        "SP98": "2026-05-13 07:53:27"
      }
    },
    {
      "id": "28160008",
      "lat": 48.241,
      "lon": 1.084,
      "cp": "28160",
      "ville": "Frazé",
      "prix": {
        "Gazole": 0.002444,
        "GPLc": 0.0013289999999999999,
        "E10": 0.002404,
        "SP98": 0.002584
      },
      "maj_gouv": {
        "Gazole": "2026-05-13 11:24:22",
        "GPLc": "2026-05-13 11:24:23",
        "E10": "2026-05-13 11:24:22",
        "SP98": "2026-05-13 11:24:23"
      }
    },
    {
      "id": "28600003",
      "lat": 48.417,
      "lon": 1.465,
      "cp": "28600",
      "ville": "Luisant",
      "prix": {
        "Gazole": 0.00209,
        "E10": 0.00199
      },
      "maj_gouv": {
        "Gazole": "2026-05-14 00:01:00",
        "E10": "2026-05-13 06:53:39"
      }
    },
    {
      "id": "28250001",
      "lat": 48.57,
      "lon": 1.024,
      "cp": "28250",
      "ville": "Senonches",
      "prix": {
        "Gazole": 0.002099,
        "E10": 0.001999,
        "SP98": 0.002099
      },
      "maj_gouv": {
        "Gazole": "2026-05-11 11:55:06",
        "E10": "2026-05-11 11:55:06",
        "SP98": "2026-05-11 11:55:06"
      }
    },
    {
      "id": "28290002",
      "lat": 48.103697000000004,
      "lon": 1.11963,
      "cp": "28290",
      "ville": "VAL D'YERRE",
      "prix": {
        "Gazole": 0.0022589999999999997,
        "E10": 0.002049,
        "SP98": 0.002159
      },
      "maj_gouv": {
        "Gazole": "2026-05-05 11:44:14",
        "E10": "2026-05-05 11:44:14",
        "SP98": "2026-05-05 11:44:15"
      }
    },
    {
      "id": "28310012",
      "lat": 48.224837400000006,
      "lon": 1.9511478,
      "cp": "28310",
      "ville": "Oinville-Saint-Liphard",
      "prix": {
        "Gazole": 0.0022299999999999998,
        "SP95": 0.00199
      },
      "maj_gouv": {
        "Gazole": "2026-05-11 07:11:27",
        "SP95": "2026-05-11 07:11:27"
      }
    }
  ]
}