{
  "departement": "57",
  "date": "2026-05-14",
  "stations": [
    {
      "id": "57430004",
      "lat": 48.987,
      "lon": 7.028,
      "cp": "57430",
      "ville": "SARRALBE",
      "prix": {},
      "maj_gouv": {}
    },
    {
      "id": "57600003",
      "lat": 49.174,
      "lon": 6.918,
      "cp": "57600",
      "ville": "Oeting",
      "prix": {
        "Gazole": 0.0022080000000000003,
        "E10": 0.002058,
        "SP98": 0.002113
      },
      "maj_gouv": {
        "Gazole": "2026-05-08 06:31:00",
        "E10": "2026-05-08 06:31:00",
        "SP98": "2026-05-08 06:31:00"
      }
    },
    {
      "id": "57580002",
      "lat": 49.017,
      "lon": 6.384,
      "cp": "57580",
      "ville": "RéMILLY",
      "prix": {
        "Gazole": 0.002159,
        "E85": 0.000799,
        "E10": 0.002049,
        "SP98": 0.002139
      },
      "maj_gouv": {
        "Gazole": "2026-05-13 08:30:00",
        "E85": "2026-04-29 08:17:54",
        "E10": "2026-05-11 11:12:11",
        "SP98": "2026-05-11 09:17:44"
      }
    },
    {
      "id": "57790001",
      "lat": 48.671,
      "lon": 7.0,
      "cp": "57790",
      "ville": "LORQUIN",
      "prix": {
        "Gazole": 0.002099,
        "E85": 0.0008179999999999999,
        "E10": 0.00199,
        "SP98": 0.002088
      },
      "maj_gouv": {
        "Gazole": "2026-05-12 07:30:20",
        "E85": "2026-04-22 07:46:37",
        "E10": "2026-05-12 07:30:20",
        "SP98": "2026-05-12 07:30:20"
      }
    },
    {
      "id": "57100007",
      "lat": 49.352,
      "lon": 6.16,
      "cp": "57100",
      "ville": "THIONVILLE",
      "prix": {
        "Gazole": 0.00209,
        "GPLc": 0.001029,
        "E10": 0.00199,
        "SP98": 0.00199
      },
      "maj_gouv": {
        "Gazole": "2026-05-14 00:01:00",
        "GPLc": "2026-05-14 00:01:00",
        "E10": "2026-05-14 00:01:00",
        "SP98": "2026-05-14 00:01:00"
      }
    },
    {
      "id": "57940001",
      "lat": 49.320210046711,
      "lon": 6.2782854114496,
      "cp": "57940",
      "ville": "Metzervisse",
      "prix": {
        "Gazole": 0.002249,
        "E10": 0.002059,
        "SP98": 0.002189
      },
      "maj_gouv": {
        "Gazole": "2026-05-02 11:14:43",
        "E10": "2026-05-09 09:02:20",
        "SP98": "2026-05-09 09:02:20"
      }
    },
    {
      "id": "57340004",
      "lat": 48.934,
      "lon": 6.652,
      "cp": "57340",
      "ville": "Morhange",
      "prix": {
        "Gazole": 0.002111,
        "E85": 0.000855,
        "E10": 0.00199,
        "SP98": 0.00199
      },
      "maj_gouv": {
        "Gazole": "2026-05-13 06:38:11",
        "E85": "2026-05-13 06:38:12",
        "E10": "2026-05-13 06:38:12",
        "SP98": "2026-05-13 06:38:12"
      }
    },
    {
      "id": "57320004",
      "lat": 49.288,
      "lon": 6.53,
      "cp": "57320",
      "ville": "VAUDRECHING",
      "prix": {
        "Gazole": 0.0021669999999999997,
        "E10": 0.001999
      },
      "maj_gouv": {
        "Gazole": "2026-05-02 13:05:04",
        "E10": "2026-05-02 13:05:04"
      }
    },
    {
      "id": "57740007",
      "lat": 49.109,
      "lon": 6.686,
      "cp": "57740",
      "ville": "Longeville-lès-Saint-Avold",
      "prix": {
        "Gazole": 0.00209,
        "E85": 0.000839,
        "E10": 0.00199
      },
      "maj_gouv": {
        "Gazole": "2026-05-14 00:01:00",
        "E85": "2026-05-14 00:01:00",
        "E10": "2026-05-14 00:01:00"
      }
    },
    {
      "id": "57520001",
      "lat": 49.134,
      "lon": 7.044,
      "cp": "57520",
      "ville": "GROSBLIEDERSTROFF",
      "prix": {
        "Gazole": 0.002199,
        "E10": 0.001999
      },
      "maj_gouv": {
        "Gazole": "2026-05-11 10:28:34",
        "E10": "2026-05-11 10:28:34"
      }
    },
    {
      "id": "57730001",
      "lat": 49.077,
      "lon": 6.693,
      "cp": "57730",
      "ville": "Valmont",
      "prix": {
        "Gazole": 0.002199,
        "SP95": 0.002109,
        "E10": 0.002069,
        "SP98": 0.002229
      },
      "maj_gouv": {
        "Gazole": "2026-05-08 10:35:39",
        "SP95": "2026-05-05 09:07:15",
        "E10": "2026-05-05 09:07:15",
        "SP98": "2026-05-05 09:07:15"
      }
    },
    {
      "id": "57070011",
      "lat": 49.108,
      "lon": 6.206,
      "cp": "57070",
      "ville": "METZ",
      "prix": {
        "Gazole": 0.00209,
        "E10": 0.00199
      },
      "maj_gouv": {
        "Gazole": "2026-05-14 00:01:00",
        "E10": "2026-05-14 00:01:00"
      }
    },
    {
      "id": "57970002",
      "lat": 49.375,
      "lon": 6.229,
      "cp": "57970",
      "ville": "Basse-Ham",
      "prix": {
        "Gazole": 0.002269,
        "E85": 0.000819,
        "E10": 0.002079,
        "SP98": 0.002199
      },
      "maj_gouv": {
        "Gazole": "2026-05-05 14:19:13",
        "E85": "2026-04-20 16:21:29",
        "E10": "2026-05-05 14:19:14",
        "SP98": "2026-05-05 14:19:14"
      }
    },
    {
      "id": "57410001",
      "lat": 49.047,
      "lon": 7.284,
      "cp": "57410",
      "ville": "ROHRBACH-LèS-BITCHE",
      "prix": {
        "Gazole": 0.002149,
        "SP95": 0.0021190000000000002,
        "E85": 0.000799,
        "E10": 0.002049,
        "SP98": 0.002149
      },
      "maj_gouv": {
        "Gazole": "2026-05-13 15:33:57",
        "SP95": "2026-05-13 15:33:57",
        "E85": "2026-05-05 14:20:26",
        "E10": "2026-05-13 15:33:58",
        "SP98": "2026-05-13 15:33:58"
      }
    },
    {
      "id": "57850001",
      "lat": 48.676,
      "lon": 7.202,
      "cp": "57850",
      "ville": "DABO",
      "prix": {
        "Gazole": 0.00228,
        "SP95": 0.00219,
        "SP98": 0.00221
      },
      "maj_gouv": {
        "Gazole": "2026-04-30 07:48:57",
        "SP95": "2026-04-30 07:48:57",
        "SP98": "2026-04-30 07:48:57"
      }
    },
    {
      "id": "57140005",
      "lat": 49.15,
      "lon": 6.185,
      "cp": "57140",
      "ville": "La Maxe",
      "prix": {
        "Gazole": 0.002199,
        "E10": 0.002079,
        "SP98": 0.002149
      },
      "maj_gouv": {
        "Gazole": "2026-05-13 20:00:00",
        "E10": "2026-05-13 20:00:00",
        "SP98": "2026-05-13 20:00:00"
      }
    },
    {
      "id": "57050001",
      "lat": 49.130562697163995,
      "lon": 6.1574706718508,
      "cp": "57050",
      "ville": "METZ",
      "prix": {
        "Gazole": 0.002209,
        "SP95": 0.002089,
        "SP98": 0.002163
      },
      "maj_gouv": {
        "Gazole": "2026-05-07 11:46:10",
        "SP95": "2026-05-07 11:46:10",
        "SP98": "2026-05-07 11:46:10"
      }
    },
    {
      "id": "57855003",
      "lat": 49.179233365615,
      "lon": 6.053616014722301,
      "cp": "57855",
      "ville": "SAINT-PRIVAT-LA-MONTAGNE",
      "prix": {
        "Gazole": 0.002236,
        "E10": 0.002148,
        "SP98": 0.002247
      },
      "maj_gouv": {
        "Gazole": "2026-05-12 09:30:00",
        "E10": "2026-05-12 09:30:00",
        "SP98": "2026-05-12 09:30:00"
      }
    },
    {
      "id": "57930002",
      "lat": 48.843,
      "lon": 7.021,
      "cp": "57930",
      "ville": "Fenétrange",
      "prix": {
        "Gazole": 0.00209,
        "E10": 0.00199,
        "SP98": 0.00199
      },
      "maj_gouv": {
        "Gazole": "2026-05-14 00:01:00",
        "E10": "2026-05-12 08:39:07",
        "SP98": "2026-05-12 08:39:07"
      }
    },
    {
      "id": "57070001",
      "lat": 49.11,
      "lon": 6.209,
      "cp": "57070",
      "ville": "METZ",
      "prix": {
        "Gazole": 0.0021509999999999997,
        "E10": 0.0020099999999999996,
        "SP98": 0.0020870000000000003
      },
      "maj_gouv": {
        "Gazole": "2026-05-12 18:23:33",
        "E10": "2026-05-12 18:23:33",
        "SP98": "2026-05-12 18:23:34"
      }
    },
    {
      "id": "57070003",
      "lat": 49.12009,
      "lon": 6.21832,
      "cp": "57070",
      "ville": "METZ",
      "prix": {
        "Gazole": 0.0022389999999999997,
        "GPLc": 0.001049,
        "E10": 0.002129,
        "SP98": 0.002199
      },
      "maj_gouv": {
        "Gazole": "2026-05-13 21:00:00",
        "GPLc": "2026-05-13 21:00:00",
        "E10": "2026-05-13 21:00:00",
        "SP98": "2026-05-13 17:36:49"
      }
    },
    {
      "id": "57260003",
      "lat": 48.812,
      "lon": 6.715,
      "cp": "57260",
      "ville": "DIEUZE",
      "prix": {
        "Gazole": 0.002249,
        "SP95": 0.002159,
        "SP98": 0.002199
      },
      "maj_gouv": {
        "Gazole": "2026-05-14 00:00:00",
        "SP95": "2026-05-01 00:00:00",
        "SP98": "2026-05-01 00:00:00"
      }
    },
    {
      "id": "57620002",
      "lat": 48.997812058039,
      "lon": 7.3793527493951006,
      "cp": "57620",
      "ville": "LEMBERG",
      "prix": {
        "Gazole": 0.0022589999999999997,
        "E10": 0.002049,
        "SP98": 0.0021190000000000002
      },
      "maj_gouv": {
        "Gazole": "2026-05-04 13:19:33",
        "E10": "2026-05-09 16:26:37",
        "SP98": "2026-05-09 16:26:37"
      }
    },
    {
      "id": "57170001",
      "lat": 48.82386,
      "lon": 6.5071,
      "cp": "57170",
      "ville": "CHâTEAU-SALINS",
      "prix": {
        "Gazole": 0.0022069999999999998,
        "E10": 0.002029,
        "SP98": 0.002159
      },
      "maj_gouv": {
        "Gazole": "2026-05-12 11:04:51",
        "E10": "2026-05-05 11:11:39",
        "SP98": "2026-05-05 11:11:39"
      }
    },
    {
      "id": "57950002",
      "lat": 49.08729,
      "lon": 6.15686,
      "cp": "57950",
      "ville": "Montigny-lès-Metz",
      "prix": {
        "Gazole": 0.002148,
        "E10": 0.002016,
        "SP98": 0.002099
      },
      "maj_gouv": {
        "Gazole": "2026-05-13 08:24:28",
        "E10": "2026-05-13 08:24:28",
        "SP98": "2026-05-13 08:24:28"
      }
    },
    {
      "id": "57000011",
      "lat": 49.07468,
      "lon": 6.18439,
      "cp": "57000",
      "ville": "Metz",
      "prix": {
        "Gazole": 0.002099,
        "SP95": 0.002089,
        "SP98": 0.002129
      },
      "maj_gouv": {
        "Gazole": "2026-05-13 11:52:25",
        "SP95": "2026-05-06 11:07:04",
        "SP98": "2026-05-06 11:07:04"
      }
    },
    {
      "id": "57580001",
      "lat": 49.017,
      "lon": 6.384,
      "cp": "57580",
      "ville": "RéMILLY",
      "prix": {
        "Gazole": 0.00219,
        "E10": 0.00199,
        "SP98": 0.00199
      },
      "maj_gouv": {
        "Gazole": "2026-05-12 07:26:30",
        "E10": "2026-05-12 07:26:30",
        "SP98": "2026-05-12 07:26:30"
      }
    },
    {
      "id": "57525001",
      "lat": 49.241211869693,
      "lon": 6.1720329781475,
      "cp": "57525",
      "ville": "Talange",
      "prix": {
        "Gazole": 0.002075,
        "E10": 0.0020350000000000004,
        "SP98": 0.002109
      },
      "maj_gouv": {
        "Gazole": "2026-05-12 07:07:25",
        "E10": "2026-05-12 07:07:25",
        "SP98": "2026-05-12 07:07:25"
      }
    },
    {
      "id": "57230003",
      "lat": 49.047,
      "lon": 7.426,
      "cp": "57230",
      "ville": "BITCHE",
      "prix": {
        "Gazole": 0.0022589999999999997,
        "E10": 0.001999,
        "SP98": 0.002079
      },
      "maj_gouv": {
        "Gazole": "2026-04-27 06:25:36",
        "E10": "2026-04-27 06:25:36",
        "SP98": "2026-04-27 06:25:36"
      }
    },
    {
      "id": "57260005",
      "lat": 48.81985,
      "lon": 6.72319,
      "cp": "57260",
      "ville": "Dieuze",
      "prix": {
        "Gazole": 0.002099,
        "E10": 0.001993,
        "SP98": 0.002121
      },
      "maj_gouv": {
        "Gazole": "2026-05-13 05:55:00",
        "E10": "2026-05-13 05:55:00",
        "SP98": "2026-05-13 05:55:00"
      }
    },
    {
      "id": "57130001",
      "lat": 49.08457,
      "lon": 6.08798,
      "cp": "57130",
      "ville": "ARS-SUR-MOSELLE",
      "prix": {
        "Gazole": 0.002209,
        "E10": 0.002033,
        "SP98": 0.002161
      },
      "maj_gouv": {
        "Gazole": "2026-05-08 09:30:51",
        "E10": "2026-05-08 09:30:51",
        "SP98": "2026-05-08 09:30:51"
      }
    },
    {
      "id": "57365001",
      "lat": 49.22,
      "lon": 6.213,
      "cp": "57365",
      "ville": "Ennery",
      "prix": {
        "Gazole": 0.002189,
        "E10": 0.002079,
        "SP98": 0.002139
      },
      "maj_gouv": {
        "Gazole": "2026-05-12 10:02:12",
        "E10": "2026-05-12 10:02:12",
        "SP98": "2026-05-12 10:02:12"
      }
    },
    {
      "id": "57100008",
      "lat": 49.337,
      "lon": 6.156,
      "cp": "57100",
      "ville": "THIONVILLE",
      "prix": {
        "Gazole": 0.00209,
        "E85": 0.000873,
        "E10": 0.00199,
        "SP98": 0.00199
      },
      "maj_gouv": {
        "Gazole": "2026-05-14 00:01:00",
        "E85": "2026-05-14 00:01:00",
        "E10": "2026-05-14 00:01:00",
        "SP98": "2026-05-14 00:01:00"
      }
    },
    {
      "id": "57740008",
      "lat": 49.133,
      "lon": 6.661,
      "cp": "57740",
      "ville": "Longeville-lès-Saint-Avold",
      "prix": {
        "Gazole": 0.002241,
        "GPLc": 0.001211,
        "E10": 0.0020819999999999996,
        "SP98": 0.002178
      },
      "maj_gouv": {
        "Gazole": "2026-05-13 11:10:59",
        "GPLc": "2026-05-13 11:10:59",
        "E10": "2026-05-13 11:10:59",
        "SP98": "2026-05-13 11:10:59"
      }
    },
    {
      "id": "57710001",
      "lat": 49.412,
      "lon": 5.95,
      "cp": "57710",
      "ville": "AUMETZ",
      "prix": {
        "Gazole": 0.002245,
        "E10": 0.00206,
        "SP98": 0.002165
      },
      "maj_gouv": {
        "Gazole": "2026-05-06 15:32:01",
        "E10": "2026-05-06 15:32:01",
        "SP98": "2026-05-06 15:32:01"
      }
    },
    {
      "id": "57360001",
      "lat": 49.256367262787,
      "lon": 6.1301746660705,
      "cp": "57360",
      "ville": "Amnéville",
      "prix": {
        "Gazole": 0.002089,
        "SP95": 0.002079,
        "E85": 0.000739,
        "E10": 0.002039
      },
      "maj_gouv": {
        "Gazole": "2026-05-13 06:00:00",
        "SP95": "2026-05-13 06:00:00",
        "E85": "2026-05-02 14:38:10",
        "E10": "2026-05-13 06:00:00"
      }
    },
    {
      "id": "57400003",
      "lat": 48.728418049091,
      "lon": 7.0280894664432,
      "cp": "57400",
      "ville": "Sarrebourg",
      "prix": {
        "Gazole": 0.00209,
        "E10": 0.00199,
        "SP98": 0.00199
      },
      "maj_gouv": {
        "Gazole": "2026-05-14 00:01:00",
        "E10": "2026-05-14 00:01:00",
        "SP98": "2026-05-14 00:01:00"
      }
    },
    {
      "id": "57120005",
      "lat": 49.25,
      "lon": 6.096,
      "cp": "57120",
      "ville": "ROMBAS",
      "prix": {
        "Gazole": 0.002089,
        "SP95": 0.002029,
        "SP98": 0.002089
      },
      "maj_gouv": {
        "Gazole": "2026-05-13 11:02:44",
        "SP95": "2026-05-11 09:31:22",
        "SP98": "2026-05-13 11:02:44"
      }
    },
    {
      "id": "57440002",
      "lat": 49.349652150066,
      "lon": 6.0401983200684,
      "cp": "57440",
      "ville": "Algrange",
      "prix": {
        "Gazole": 0.002199,
        "E85": 0.000799,
        "E10": 0.002109
      },
      "maj_gouv": {
        "Gazole": "2026-05-06 15:26:13",
        "E85": "2026-04-27 13:59:00",
        "E10": "2026-05-06 15:26:13"
      }
    },
    {
      "id": "57000005",
      "lat": 49.11629,
      "lon": 6.15026,
      "cp": "57050",
      "ville": "Longeville-lès-Metz",
      "prix": {
        "Gazole": 0.002214
      },
      "maj_gouv": {
        "Gazole": "2026-05-13 08:15:51"
      }
    },
    {
      "id": "57280003",
      "lat": 49.214,
      "lon": 6.17,
      "cp": "57280",
      "ville": "HAUCONCOURT",
      "prix": {
        "Gazole": 0.002075,
        "SP95": 0.002079,
        "GPLc": 0.000949,
        "E10": 0.0020350000000000004
      },
      "maj_gouv": {
        "Gazole": "2026-05-13 08:52:29",
        "SP95": "2026-05-13 08:52:29",
        "GPLc": "2026-04-21 11:19:18",
        "E10": "2026-05-13 08:52:29"
      }
    },
    {
      "id": "57260001",
      "lat": 48.811,
      "lon": 6.714,
      "cp": "57260",
      "ville": "Dieuze",
      "prix": {
        "Gazole": 0.002099,
        "SP95": 0.002077,
        "E10": 0.002009,
        "SP98": 0.002156
      },
      "maj_gouv": {
        "Gazole": "2026-05-13 10:07:20",
        "SP95": "2026-05-13 10:07:20",
        "E10": "2026-05-13 10:07:20",
        "SP98": "2026-05-13 10:07:20"
      }
    },
    {
      "id": "57150006",
      "lat": 49.188,
      "lon": 6.698,
      "cp": "57150",
      "ville": "Creutzwald",
      "prix": {
        "Gazole": 0.002199,
        "E85": 0.000789,
        "E10": 0.002003,
        "SP98": 0.002069
      },
      "maj_gouv": {
        "Gazole": "2026-05-14 01:15:00",
        "E85": "2026-05-14 01:15:00",
        "E10": "2026-05-14 01:15:00",
        "SP98": "2026-05-14 01:15:00"
      }
    },
    {
      "id": "57100001",
      "lat": 49.379329939099996,
      "lon": 6.1703370379,
      "cp": "57100",
      "ville": "MANOM",
      "prix": {
        "Gazole": 0.0021160000000000003,
        "E10": 0.002052,
        "SP98": 0.002175
      },
      "maj_gouv": {
        "Gazole": "2026-05-13 16:51:00",
        "E10": "2026-05-13 16:51:01",
        "SP98": "2026-05-13 16:51:01"
      }
    },
    {
      "id": "57350001",
      "lat": 49.205,
      "lon": 6.956,
      "cp": "57350",
      "ville": "SPICHEREN",
      "prix": {
        "Gazole": 0.0022069999999999998,
        "E10": 0.002057,
        "SP98": 0.002113
      },
      "maj_gouv": {
        "Gazole": "2026-05-11 11:32:43",
        "E10": "2026-05-11 11:32:44",
        "SP98": "2026-05-11 11:32:44"
      }
    },
    {
      "id": "57160001",
      "lat": 49.083,
      "lon": 6.11,
      "cp": "57160",
      "ville": "MOULINS-LèS-METZ",
      "prix": {
        "Gazole": 0.002132,
        "E85": 0.00086,
        "GPLc": 0.001028,
        "E10": 0.0020099999999999996,
        "SP98": 0.0020870000000000003
      },
      "maj_gouv": {
        "Gazole": "2026-05-13 10:04:05",
        "E85": "2026-05-13 10:04:06",
        "GPLc": "2026-05-13 10:04:06",
        "E10": "2026-05-13 10:04:06",
        "SP98": "2026-05-13 10:04:06"
      }
    },
    {
      "id": "57420002",
      "lat": 48.97,
      "lon": 6.296,
      "cp": "57420",
      "ville": "Solgne",
      "prix": {
        "Gazole": 0.002149,
        "E85": 0.000869,
        "E10": 0.00199,
        "SP98": 0.00199
      },
      "maj_gouv": {
        "Gazole": "2026-05-11 16:55:19",
        "E85": "2026-04-17 00:00:00",
        "E10": "2026-05-11 16:55:20",
        "SP98": "2026-05-11 16:55:20"
      }
    },
    {
      "id": "57500002",
      "lat": 49.108,
      "lon": 6.719,
      "cp": "57500",
      "ville": "Saint-Avold",
      "prix": {
        "Gazole": 0.002209,
        "E10": 0.002069,
        "SP98": 0.002229
      },
      "maj_gouv": {
        "Gazole": "2026-05-06 10:09:35",
        "E10": "2026-05-06 10:09:35",
        "SP98": "2026-05-06 10:09:35"
      }
    },
    {
      "id": "57800001",
      "lat": 49.148084755643,
      "lon": 6.8102671383,
      "cp": "57800",
      "ville": "Freyming-Merlebach",
      "prix": {
        "Gazole": 0.002199,
        "E10": 0.002049,
        "SP98": 0.002089
      },
      "maj_gouv": {
        "Gazole": "2026-05-07 14:39:34",
        "E10": "2026-05-07 14:39:34",
        "SP98": "2026-05-13 09:03:58"
      }
    },
    {
      "id": "57210001",
      "lat": 49.221,
      "lon": 6.163,
      "cp": "57280",
      "ville": "MAIZIèRES-LèS-METZ",
      "prix": {
        "Gazole": 0.002206,
        "E10": 0.00199,
        "SP98": 0.00199
      },
      "maj_gouv": {
        "Gazole": "2026-05-13 08:02:34",
        "E10": "2026-05-13 08:02:34",
        "SP98": "2026-05-13 08:02:34"
      }
    },
    {
      "id": "57290002",
      "lat": 49.308,
      "lon": 6.118,
      "cp": "57290",
      "ville": "Fameck",
      "prix": {
        "Gazole": 0.002089,
        "E85": 0.000732,
        "GPLc": 0.000949,
        "E10": 0.002029,
        "SP98": 0.002089
      },
      "maj_gouv": {
        "Gazole": "2026-05-13 10:23:45",
        "E85": "2026-05-11 09:16:34",
        "GPLc": "2026-05-11 09:16:34",
        "E10": "2026-05-12 16:33:52",
        "SP98": "2026-05-13 10:23:45"
      }
    },
    {
      "id": "57130004",
      "lat": 49.07,
      "lon": 6.086,
      "cp": "57130",
      "ville": "Jouy-aux-Arches",
      "prix": {
        "Gazole": 0.00209,
        "E10": 0.00199
      },
      "maj_gouv": {
        "Gazole": "2026-05-14 00:01:00",
        "E10": "2026-05-14 00:01:00"
      }
    },
    {
      "id": "57270001",
      "lat": 49.2975507615,
      "lon": 6.165216744079999,
      "cp": "57270",
      "ville": "RICHEMONT",
      "prix": {
        "Gazole": 0.0022069999999999998,
        "E85": 0.000865,
        "E10": 0.00199,
        "SP98": 0.00199
      },
      "maj_gouv": {
        "Gazole": "2026-05-13 08:10:06",
        "E85": "2026-05-11 08:21:14",
        "E10": "2026-05-11 08:21:14",
        "SP98": "2026-05-11 08:21:14"
      }
    },
    {
      "id": "57402001",
      "lat": 48.732,
      "lon": 7.046,
      "cp": "57400",
      "ville": "SARREBOURG",
      "prix": {
        "Gazole": 0.002099,
        "E85": 0.000735,
        "E10": 0.00199,
        "SP98": 0.002052
      },
      "maj_gouv": {
        "Gazole": "2026-05-14 01:15:00",
        "E85": "2026-05-14 01:15:00",
        "E10": "2026-05-14 01:15:00",
        "SP98": "2026-05-14 01:15:00"
      }
    },
    {
      "id": "57370008",
      "lat": 48.769,
      "lon": 7.242,
      "cp": "57370",
      "ville": "PHALSBOURG",
      "prix": {
        "Gazole": 0.00209,
        "SP95": 0.00199
      },
      "maj_gouv": {
        "Gazole": "2026-05-14 06:24:52",
        "SP95": "2026-05-14 06:24:53"
      }
    },
    {
      "id": "57200004",
      "lat": 49.117,
      "lon": 7.101,
      "cp": "57200",
      "ville": "SARREGUEMINES",
      "prix": {
        "Gazole": 0.002199,
        "SP95": 0.0021190000000000002,
        "E85": 0.0008179999999999999,
        "GPLc": 0.000999,
        "E10": 0.001999,
        "SP98": 0.002129
      },
      "maj_gouv": {
        "Gazole": "2026-05-05 16:52:18",
        "SP95": "2026-05-13 10:05:49",
        "E85": "2026-05-04 10:09:53",
        "GPLc": "2026-05-04 10:09:53",
        "E10": "2026-05-05 16:52:18",
        "SP98": "2026-05-05 16:52:18"
      }
    },
    {
      "id": "57071001",
      "lat": 49.107,
      "lon": 6.231,
      "cp": "57070",
      "ville": "Metz",
      "prix": {
        "Gazole": 0.002132,
        "GPLc": 0.000999,
        "E10": 0.0020099999999999996,
        "SP98": 0.002104
      },
      "maj_gouv": {
        "Gazole": "2026-05-13 10:45:04",
        "GPLc": "2026-05-06 10:49:27",
        "E10": "2026-05-13 10:45:04",
        "SP98": "2026-05-13 10:45:04"
      }
    },
    {
      "id": "57500001",
      "lat": 49.116,
      "lon": 6.708,
      "cp": "57500",
      "ville": "SAINT-AVOLD",
      "prix": {
        "Gazole": 0.002219,
        "E10": 0.00199
      },
      "maj_gouv": {
        "Gazole": "2026-05-13 06:42:17",
        "E10": "2026-05-13 06:42:18"
      }
    },
    {
      "id": "57420005",
      "lat": 49.012,
      "lon": 6.204,
      "cp": "57420",
      "ville": "VERNY",
      "prix": {
        "Gazole": 0.002229,
        "SP95": 0.0021070000000000004,
        "SP98": 0.002159
      },
      "maj_gouv": {
        "Gazole": "2026-05-07 12:11:50",
        "SP95": "2026-05-12 11:56:35",
        "SP98": "2026-05-12 11:56:35"
      }
    },
    {
      "id": "57910002",
      "lat": 49.083,
      "lon": 7.04,
      "cp": "57910",
      "ville": "HAMBACH",
      "prix": {
        "Gazole": 0.002189,
        "SP95": 0.002129,
        "GPLc": 0.0011,
        "E10": 0.002059,
        "SP98": 0.002159
      },
      "maj_gouv": {
        "Gazole": "2026-05-13 08:00:00",
        "SP95": "2026-05-13 08:00:00",
        "GPLc": "2026-04-20 08:00:00",
        "E10": "2026-05-13 08:00:00",
        "SP98": "2026-05-13 08:00:00"
      }
    },
    {
      "id": "57420006",
      "lat": 48.983757000000004,
      "lon": 6.245418000000001,
      "cp": "57420",
      "ville": "GOIN",
      "prix": {
        "Gazole": 0.00209,
        "E10": 0.00199
      },
      "maj_gouv": {
        "Gazole": "2026-05-14 00:01:00",
        "E10": "2026-05-14 00:01:00"
      }
    },
    {
      "id": "57800003",
      "lat": 49.159,
      "lon": 6.85,
      "cp": "57800",
      "ville": "Rosbruck",
      "prix": {
        "Gazole": 0.00222,
        "SP95": 0.00199
      },
      "maj_gouv": {
        "Gazole": "2026-05-11 12:05:13",
        "SP95": "2026-05-11 12:05:13"
      }
    },
    {
      "id": "57000009",
      "lat": 49.106,
      "lon": 6.179,
      "cp": "57000",
      "ville": "Metz",
      "prix": {
        "Gazole": 0.002179,
        "E10": 0.002056,
        "SP98": 0.0021360000000000003
      },
      "maj_gouv": {
        "Gazole": "2026-05-12 06:31:00",
        "E10": "2026-05-12 06:31:00",
        "SP98": "2026-05-12 06:31:00"
      }
    },
    {
      "id": "57000008",
      "lat": 49.11,
      "lon": 6.171,
      "cp": "57000",
      "ville": "Metz",
      "prix": {
        "Gazole": 0.0022299999999999998,
        "E10": 0.002055,
        "SP98": 0.002129
      },
      "maj_gouv": {
        "Gazole": "2026-05-08 06:31:00",
        "E10": "2026-05-08 06:31:00",
        "SP98": "2026-05-08 06:31:00"
      }
    },
    {
      "id": "57130003",
      "lat": 49.073,
      "lon": 6.074,
      "cp": "57130",
      "ville": "Ars-sur-Moselle",
      "prix": {
        "Gazole": 0.0021379999999999997,
        "E10": 0.002018,
        "SP98": 0.00213
      },
      "maj_gouv": {
        "Gazole": "2026-05-13 16:50:00",
        "E10": "2026-05-13 16:50:00",
        "SP98": "2026-05-13 16:50:00"
      }
    },
    {
      "id": "57157001",
      "lat": 49.087,
      "lon": 6.151,
      "cp": "57155",
      "ville": "Marly",
      "prix": {
        "Gazole": 0.0021379999999999997,
        "E10": 0.002018,
        "SP98": 0.002101
      },
      "maj_gouv": {
        "Gazole": "2026-05-13 16:50:00",
        "E10": "2026-05-13 16:50:00",
        "SP98": "2026-05-13 16:50:00"
      }
    },
    {
      "id": "57170002",
      "lat": 48.824,
      "lon": 6.507,
      "cp": "57170",
      "ville": "Château-Salins",
      "prix": {
        "Gazole": 0.002216,
        "E10": 0.002038,
        "SP98": 0.0021680000000000002
      },
      "maj_gouv": {
        "Gazole": "2026-05-13 07:41:00",
        "E10": "2026-05-13 07:41:00",
        "SP98": "2026-05-13 07:41:00"
      }
    },
    {
      "id": "57200002",
      "lat": 49.114,
      "lon": 7.074,
      "cp": "57200",
      "ville": "Sarreguemines",
      "prix": {
        "Gazole": 0.002213,
        "E10": 0.002008,
        "SP98": 0.0021379999999999997
      },
      "maj_gouv": {
        "Gazole": "2026-05-05 06:41:00",
        "E10": "2026-05-05 06:41:00",
        "SP98": "2026-05-05 06:41:00"
      }
    },
    {
      "id": "57370001",
      "lat": 48.768,
      "lon": 7.248,
      "cp": "57370",
      "ville": "Phalsbourg",
      "prix": {
        "Gazole": 0.002198,
        "E10": 0.002028,
        "SP98": 0.002113
      },
      "maj_gouv": {
        "Gazole": "2026-05-11 06:31:00",
        "E10": "2026-05-11 06:31:00",
        "SP98": "2026-05-11 06:31:00"
      }
    },
    {
      "id": "57600002",
      "lat": 49.182,
      "lon": 6.89,
      "cp": "57600",
      "ville": "Forbach",
      "prix": {
        "Gazole": 0.0022080000000000003,
        "E10": 0.002058,
        "SP98": 0.002108
      },
      "maj_gouv": {
        "Gazole": "2026-05-08 06:31:00",
        "E10": "2026-05-08 06:31:00",
        "SP98": "2026-05-08 06:31:00"
      }
    },
    {
      "id": "57700002",
      "lat": 49.331,
      "lon": 6.057,
      "cp": "57700",
      "ville": "Hayange",
      "prix": {
        "Gazole": 0.00222,
        "E10": 0.002038,
        "SP98": 0.002118
      },
      "maj_gouv": {
        "Gazole": "2026-05-13 07:41:00",
        "E10": "2026-05-13 07:41:00",
        "SP98": "2026-05-13 07:41:00"
      }
    },
    {
      "id": "57600015",
      "lat": 49.19,
      "lon": 6.908,
      "cp": "57600",
      "ville": "FORBACH",
      "prix": {
        "Gazole": 0.00209,
        "E85": 0.000824,
        "E10": 0.00199
      },
      "maj_gouv": {
        "Gazole": "2026-05-14 00:01:00",
        "E85": "2026-05-14 00:01:00",
        "E10": "2026-05-14 00:01:00"
      }
    },
    {
      "id": "57000002",
      "lat": 49.12,
      "lon": 6.221,
      "cp": "57070",
      "ville": "Metz",
      "prix": {
        "Gazole": 0.00221,
        "E10": 0.00199,
        "SP98": 0.00199
      },
      "maj_gouv": {
        "Gazole": "2026-05-13 07:41:39",
        "E10": "2026-05-13 07:41:39",
        "SP98": "2026-05-13 07:41:39"
      }
    },
    {
      "id": "57430001",
      "lat": 48.991,
      "lon": 7.028,
      "cp": "57430",
      "ville": "SARRALBE",
      "prix": {
        "Gazole": 0.002149,
        "E10": 0.002019,
        "SP98": 0.002079
      },
      "maj_gouv": {
        "Gazole": "2026-05-12 09:41:05",
        "E10": "2026-05-12 09:22:13",
        "SP98": "2026-05-12 09:22:13"
      }
    },
    {
      "id": "57600005",
      "lat": 49.175,
      "lon": 6.884,
      "cp": "57600",
      "ville": "FORBACH",
      "prix": {
        "Gazole": 0.0022,
        "SP95": 0.002099,
        "E85": 0.000789,
        "E10": 0.0020499999999999997
      },
      "maj_gouv": {
        "Gazole": "2026-05-12 10:33:43",
        "SP95": "2026-05-05 10:11:36",
        "E85": "2026-05-12 10:33:44",
        "E10": "2026-05-12 10:33:44"
      }
    },
    {
      "id": "57650001",
      "lat": 49.355,
      "lon": 5.995,
      "cp": "57650",
      "ville": "FONTOY",
      "prix": {
        "Gazole": 0.002229,
        "SP95": 0.002139,
        "SP98": 0.002149
      },
      "maj_gouv": {
        "Gazole": "2026-05-07 11:53:15",
        "SP95": "2026-05-07 11:53:15",
        "SP98": "2026-05-07 11:53:15"
      }
    },
    {
      "id": "57600014",
      "lat": 49.177,
      "lon": 6.927,
      "cp": "57600",
      "ville": "OETING",
      "prix": {
        "Gazole": 0.0022069999999999998,
        "SP95": 0.002099,
        "E10": 0.002057,
        "SP98": 0.002113
      },
      "maj_gouv": {
        "Gazole": "2026-05-07 12:10:15",
        "SP95": "2026-05-04 13:06:41",
        "E10": "2026-05-07 12:10:16",
        "SP98": "2026-05-07 10:22:14"
      }
    },
    {
      "id": "57740003",
      "lat": 49.111,
      "lon": 6.679,
      "cp": "57740",
      "ville": "LONGEVILLE-LèS-SAINT-AVOLD",
      "prix": {
        "Gazole": 0.0022400000000000002,
        "SP95": 0.00214
      },
      "maj_gouv": {
        "Gazole": "2026-05-14 00:31:00",
        "SP95": "2026-05-14 00:31:00"
      }
    },
    {
      "id": "57400007",
      "lat": 48.742,
      "lon": 7.078,
      "cp": "57400",
      "ville": "SARREBOURG",
      "prix": {
        "Gazole": 0.002299,
        "GPLc": 0.001099,
        "E10": 0.002129,
        "SP98": 0.002199
      },
      "maj_gouv": {
        "Gazole": "2026-04-24 06:30:00",
        "GPLc": "2026-05-01 07:00:00",
        "E10": "2026-05-01 07:00:00",
        "SP98": "2026-05-01 07:00:00"
      }
    },
    {
      "id": "57100006",
      "lat": 49.363,
      "lon": 6.118,
      "cp": "57100",
      "ville": "THIONVILLE",
      "prix": {
        "Gazole": 0.0021349999999999997,
        "E85": 0.000732,
        "E10": 0.002029,
        "SP98": 0.002098
      },
      "maj_gouv": {
        "Gazole": "2026-05-14 01:15:00",
        "E85": "2026-05-14 01:15:00",
        "E10": "2026-05-14 01:15:00",
        "SP98": "2026-05-14 01:15:00"
      }
    },
    {
      "id": "57800002",
      "lat": 49.139,
      "lon": 6.799,
      "cp": "57800",
      "ville": "Betting",
      "prix": {
        "Gazole": 0.0022080000000000003,
        "E85": 0.0009599999999999999,
        "E10": 0.002058,
        "SP98": 0.0021379999999999997
      },
      "maj_gouv": {
        "Gazole": "2026-05-07 11:20:00",
        "E85": "2026-05-07 11:20:00",
        "E10": "2026-05-07 11:20:00",
        "SP98": "2026-05-07 11:20:00"
      }
    },
    {
      "id": "57310002",
      "lat": 49.29965,
      "lon": 6.2093,
      "cp": "57310",
      "ville": "GUéNANGE",
      "prix": {
        "Gazole": 0.002113,
        "E10": 0.001998,
        "SP98": 0.002111
      },
      "maj_gouv": {
        "Gazole": "2026-05-13 11:23:39",
        "E10": "2026-05-13 11:23:39",
        "SP98": "2026-05-13 11:23:39"
      }
    },
    {
      "id": "57150005",
      "lat": 49.19543,
      "lon": 6.70652,
      "cp": "57150",
      "ville": "Creutzwald",
      "prix": {
        "Gazole": 0.002199,
        "E10": 0.0019950000000000002,
        "SP98": 0.002069
      },
      "maj_gouv": {
        "Gazole": "2026-05-12 11:41:56",
        "E10": "2026-05-12 11:41:56",
        "SP98": "2026-05-12 11:41:56"
      }
    },
    {
      "id": "57530001",
      "lat": 49.11,
      "lon": 6.392,
      "cp": "57530",
      "ville": "COURCELLES-CHAUSSY",
      "prix": {
        "Gazole": 0.002132,
        "E10": 0.0020139999999999997,
        "SP98": 0.0021230000000000003
      },
      "maj_gouv": {
        "Gazole": "2026-05-12 08:38:14",
        "E10": "2026-05-12 08:38:14",
        "SP98": "2026-05-12 08:38:14"
      }
    },
    {
      "id": "57370004",
      "lat": 48.774,
      "lon": 7.244,
      "cp": "57370",
      "ville": "Phalsbourg",
      "prix": {
        "Gazole": 0.002189,
        "E85": 0.000819,
        "E10": 0.002019,
        "SP98": 0.0021190000000000002
      },
      "maj_gouv": {
        "Gazole": "2026-05-07 07:34:40",
        "E85": "2026-04-21 14:29:48",
        "E10": "2026-05-07 07:34:40",
        "SP98": "2026-05-07 07:34:40"
      }
    },
    {
      "id": "57255001",
      "lat": 49.197,
      "lon": 5.995,
      "cp": "57255",
      "ville": "SAINTE-MARIE-AUX-CHêNES",
      "prix": {
        "Gazole": 0.00219,
        "E85": 0.000878,
        "GPLc": 0.001057,
        "E10": 0.002034,
        "SP98": 0.002137
      },
      "maj_gouv": {
        "Gazole": "2026-05-13 09:57:50",
        "E85": "2026-05-13 09:57:50",
        "GPLc": "2026-05-13 09:57:50",
        "E10": "2026-05-13 09:57:50",
        "SP98": "2026-05-13 09:57:50"
      }
    },
    {
      "id": "57140003",
      "lat": 49.181,
      "lon": 6.178,
      "cp": "57140",
      "ville": "Woippy",
      "prix": {
        "Gazole": 0.002282,
        "GPLc": 0.0010329999999999998,
        "E10": 0.002154,
        "SP98": 0.0022429999999999998
      },
      "maj_gouv": {
        "Gazole": "2026-05-12 00:30:00",
        "GPLc": "2026-05-12 00:30:00",
        "E10": "2026-05-12 00:30:00",
        "SP98": "2026-05-12 00:30:00"
      }
    },
    {
      "id": "57000001",
      "lat": 49.10449,
      "lon": 6.17949,
      "cp": "57000",
      "ville": "METZ",
      "prix": {
        "Gazole": 0.002209,
        "SP95": 0.002089
      },
      "maj_gouv": {
        "Gazole": "2026-05-07 10:50:50",
        "SP95": "2026-05-07 10:50:50"
      }
    },
    {
      "id": "57120001",
      "lat": 49.236,
      "lon": 6.109,
      "cp": "57120",
      "ville": "ROMBAS",
      "prix": {
        "Gazole": 0.002142
      },
      "maj_gouv": {
        "Gazole": "2026-05-11 07:15:07"
      }
    },
    {
      "id": "57160002",
      "lat": 49.109,
      "lon": 6.123,
      "cp": "57160",
      "ville": "SCY-CHAZELLES",
      "prix": {
        "Gazole": 0.002159,
        "SP95": 0.002099,
        "SP98": 0.002129
      },
      "maj_gouv": {
        "Gazole": "2026-05-13 10:40:42",
        "SP95": "2026-05-13 10:40:42",
        "SP98": "2026-05-12 10:24:04"
      }
    },
    {
      "id": "57370003",
      "lat": 48.76591,
      "lon": 7.25404,
      "cp": "57370",
      "ville": "PHALSBOURG",
      "prix": {
        "Gazole": 0.002185,
        "SP95": 0.0020459999999999996,
        "SP98": 0.002115
      },
      "maj_gouv": {
        "Gazole": "2026-05-07 11:45:16",
        "SP95": "2026-05-05 09:46:13",
        "SP98": "2026-05-07 11:45:16"
      }
    },
    {
      "id": "57185002",
      "lat": 49.258,
      "lon": 6.084,
      "cp": "57185",
      "ville": "CLOUANGE",
      "prix": {
        "Gazole": 0.002069,
        "SP95": 0.002059,
        "E10": 0.002029,
        "SP98": 0.002089
      },
      "maj_gouv": {
        "Gazole": "2026-05-12 12:00:00",
        "SP95": "2026-05-12 12:00:00",
        "E10": "2026-05-12 12:00:00",
        "SP98": "2026-05-12 12:00:00"
      }
    },
    {
      "id": "57100002",
      "lat": 49.356,
      "lon": 6.14,
      "cp": "57100",
      "ville": "THIONVILLE",
      "prix": {
        "Gazole": 0.00214,
        "SP95": 0.0020299999999999997,
        "E10": 0.00198,
        "SP98": 0.0021000000000000003
      },
      "maj_gouv": {
        "Gazole": "2026-05-12 10:10:46",
        "SP95": "2026-05-12 10:10:46",
        "E10": "2026-05-12 10:10:46",
        "SP98": "2026-05-12 10:10:46"
      }
    },
    {
      "id": "57300005",
      "lat": 49.243,
      "lon": 6.17,
      "cp": "57300",
      "ville": "HAGONDANGE",
      "prix": {
        "Gazole": 0.00209
      },
      "maj_gouv": {
        "Gazole": "2026-05-14 00:01:00"
      }
    },
    {
      "id": "57190001",
      "lat": 49.31759,
      "lon": 6.11436,
      "cp": "57190",
      "ville": "FLORANGE",
      "prix": {
        "Gazole": 0.002249,
        "SP95": 0.00204,
        "SP98": 0.0022010000000000003
      },
      "maj_gouv": {
        "Gazole": "2026-05-09 14:30:19",
        "SP95": "2026-05-09 14:30:19",
        "SP98": "2026-05-09 14:30:19"
      }
    },
    {
      "id": "57050002",
      "lat": 49.134,
      "lon": 6.162,
      "cp": "57050",
      "ville": "METZ",
      "prix": {
        "Gazole": 0.002095,
        "E10": 0.00199,
        "SP98": 0.002084
      },
      "maj_gouv": {
        "Gazole": "2026-05-13 09:44:26",
        "E10": "2026-05-12 09:15:40",
        "SP98": "2026-05-12 09:15:40"
      }
    },
    {
      "id": "57310001",
      "lat": 49.30121,
      "lon": 6.18923,
      "cp": "57310",
      "ville": "GUéNANGE",
      "prix": {
        "Gazole": 0.0022080000000000003,
        "E10": 0.0020299999999999997,
        "SP98": 0.00216
      },
      "maj_gouv": {
        "Gazole": "2026-05-06 10:30:12",
        "E10": "2026-05-05 10:35:42",
        "SP98": "2026-05-05 10:35:43"
      }
    },
    {
      "id": "57220002",
      "lat": 49.178,
      "lon": 6.494,
      "cp": "57220",
      "ville": "Boulay-Moselle",
      "prix": {
        "Gazole": 0.002199,
        "SP95": 0.002089,
        "E10": 0.002049,
        "SP98": 0.0021190000000000002
      },
      "maj_gouv": {
        "Gazole": "2026-05-04 08:56:14",
        "SP95": "2026-05-04 08:56:14",
        "E10": "2026-05-04 08:56:14",
        "SP98": "2026-05-04 08:56:14"
      }
    },
    {
      "id": "57470004",
      "lat": 49.123596,
      "lon": 6.77739,
      "cp": "57470",
      "ville": "HOMBOURG-HAUT",
      "prix": {
        "Gazole": 0.002199,
        "E85": 0.000789,
        "E10": 0.002049,
        "SP98": 0.002069
      },
      "maj_gouv": {
        "Gazole": "2026-05-13 08:08:48",
        "E85": "2026-05-13 08:08:48",
        "E10": "2026-05-13 08:08:48",
        "SP98": "2026-05-13 08:08:48"
      }
    },
    {
      "id": "57450003",
      "lat": 49.11,
      "lon": 6.856,
      "cp": "57450",
      "ville": "Farébersviller",
      "prix": {
        "Gazole": 0.002229,
        "SP95": 0.002149,
        "E10": 0.002099,
        "SP98": 0.002199
      },
      "maj_gouv": {
        "Gazole": "2026-05-09 07:30:40",
        "SP95": "2026-05-09 07:30:40",
        "E10": "2026-05-09 07:30:41",
        "SP98": "2026-05-09 07:30:41"
      }
    },
    {
      "id": "57230001",
      "lat": 49.048,
      "lon": 7.427,
      "cp": "57230",
      "ville": "BITCHE",
      "prix": {
        "Gazole": 0.0022589999999999997,
        "E10": 0.001999,
        "SP98": 0.0021000000000000003
      },
      "maj_gouv": {
        "Gazole": "2026-05-07 11:18:01",
        "E10": "2026-05-13 11:30:32",
        "SP98": "2026-05-13 11:30:32"
      }
    },
    {
      "id": "57200001",
      "lat": 49.10011,
      "lon": 7.05924,
      "cp": "57200",
      "ville": "Sarreguemines",
      "prix": {
        "Gazole": 0.002199,
        "E10": 0.00199,
        "SP98": 0.00199
      },
      "maj_gouv": {
        "Gazole": "2026-05-10 21:09:54",
        "E10": "2026-04-24 07:57:36",
        "SP98": "2026-04-24 07:57:36"
      }
    },
    {
      "id": "57510003",
      "lat": 49.058021,
      "lon": 6.92218,
      "cp": "57510",
      "ville": "PUTTELANGE",
      "prix": {},
      "maj_gouv": {}
    },
    {
      "id": "57300002",
      "lat": 49.241,
      "lon": 6.21,
      "cp": "57300",
      "ville": "Ay-sur-Moselle",
      "prix": {
        "Gazole": 0.00209,
        "SP95": 0.00199,
        "E85": 0.000865
      },
      "maj_gouv": {
        "Gazole": "2026-05-13 23:59:00",
        "SP95": "2026-05-13 11:57:01",
        "E85": "2026-04-22 07:15:48"
      }
    },
    {
      "id": "57400001",
      "lat": 48.74,
      "lon": 7.07,
      "cp": "57400",
      "ville": "SARREBOURG",
      "prix": {
        "Gazole": 0.002092,
        "E85": 0.000735,
        "GPLc": 0.000999,
        "E10": 0.001991
      },
      "maj_gouv": {
        "Gazole": "2026-05-13 11:50:01",
        "E85": "2026-05-04 11:03:41",
        "GPLc": "2026-05-04 11:03:41",
        "E10": "2026-05-12 11:18:18"
      }
    },
    {
      "id": "57340003",
      "lat": 48.932750469605004,
      "lon": 6.6526211167725,
      "cp": "57340",
      "ville": "MORHANGE",
      "prix": {
        "Gazole": 0.002099,
        "E85": 0.000819,
        "E10": 0.0019890000000000003,
        "SP98": 0.002105
      },
      "maj_gouv": {
        "Gazole": "2026-05-13 07:03:58",
        "E85": "2026-04-16 07:34:18",
        "E10": "2026-05-12 07:03:52",
        "SP98": "2026-05-13 07:03:58"
      }
    },
    {
      "id": "57155002",
      "lat": 49.0670536,
      "lon": 6.142560799999999,
      "cp": "57155",
      "ville": "MARLY",
      "prix": {
        "Gazole": 0.002089,
        "E85": 0.0008399999999999999,
        "E10": 0.001999,
        "SP98": 0.0020670000000000003
      },
      "maj_gouv": {
        "Gazole": "2026-05-14 01:15:00",
        "E85": "2026-05-14 01:15:00",
        "E10": "2026-05-14 01:15:00",
        "SP98": "2026-05-14 01:15:00"
      }
    },
    {
      "id": "57160006",
      "lat": 49.12,
      "lon": 6.083,
      "cp": "57160",
      "ville": "Châtel-Saint-Germain",
      "prix": {
        "Gazole": 0.00209,
        "E85": 0.000859,
        "E10": 0.00199
      },
      "maj_gouv": {
        "Gazole": "2026-05-14 00:01:00",
        "E85": "2026-05-14 00:01:00",
        "E10": "2026-05-14 00:01:00"
      }
    },
    {
      "id": "57117001",
      "lat": 49.117,
      "lon": 6.279,
      "cp": "57645",
      "ville": "Montoy-Flanville",
      "prix": {
        "Gazole": 0.0022389999999999997,
        "SP95": 0.002199
      },
      "maj_gouv": {
        "Gazole": "2026-05-13 17:10:45",
        "SP95": "2026-05-13 17:10:45"
      }
    },
    {
      "id": "57150002",
      "lat": 49.202,
      "lon": 6.708,
      "cp": "57150",
      "ville": "Creutzwald",
      "prix": {
        "Gazole": 0.0022080000000000003,
        "E10": 0.002012,
        "SP98": 0.002106
      },
      "maj_gouv": {
        "Gazole": "2026-05-13 16:50:00",
        "E10": "2026-05-13 16:50:00",
        "SP98": "2026-05-13 16:50:00"
      }
    },
    {
      "id": "57400005",
      "lat": 48.735,
      "lon": 7.046,
      "cp": "57400",
      "ville": "Sarrebourg",
      "prix": {
        "Gazole": 0.002197,
        "E10": 0.0020299999999999997,
        "SP98": 0.002111
      },
      "maj_gouv": {
        "Gazole": "2026-05-08 06:31:00",
        "E10": "2026-05-08 06:31:00",
        "SP98": "2026-05-08 06:31:00"
      }
    },
    {
      "id": "57700004",
      "lat": 49.330603191518996,
      "lon": 6.0795406452818,
      "cp": "57700",
      "ville": "HAYANGE",
      "prix": {
        "Gazole": 0.002089,
        "E85": 0.000732,
        "E10": 0.0019950000000000002
      },
      "maj_gouv": {
        "Gazole": "2026-05-13 10:27:18",
        "E85": "2026-05-11 09:16:03",
        "E10": "2026-05-13 10:27:19"
      }
    },
    {
      "id": "57280001",
      "lat": 49.199,
      "lon": 6.15,
      "cp": "57280",
      "ville": "SEMéCOURT",
      "prix": {
        "Gazole": 0.002105,
        "E85": 0.000887,
        "GPLc": 0.000949,
        "E10": 0.0019890000000000003,
        "SP98": 0.002139
      },
      "maj_gouv": {
        "Gazole": "2026-05-13 07:28:55",
        "E85": "2026-05-13 07:28:55",
        "GPLc": "2026-04-30 06:53:02",
        "E10": "2026-05-13 07:28:56",
        "SP98": "2026-05-13 07:28:56"
      }
    },
    {
      "id": "57660001",
      "lat": 48.99,
      "lon": 6.784,
      "cp": "57660",
      "ville": "ERSTROFF",
      "prix": {
        "Gazole": 0.002191,
        "E10": 0.00199,
        "SP98": 0.00199
      },
      "maj_gouv": {
        "Gazole": "2026-05-12 13:57:32",
        "E10": "2026-05-12 13:57:32",
        "SP98": "2026-05-12 13:57:32"
      }
    },
    {
      "id": "57590003",
      "lat": 48.888629,
      "lon": 6.389459,
      "cp": "57590",
      "ville": "DELME",
      "prix": {
        "Gazole": 0.0021190000000000002,
        "E10": 0.001999,
        "SP98": 0.002099
      },
      "maj_gouv": {
        "Gazole": "2026-05-11 13:35:13",
        "E10": "2026-05-11 13:35:13",
        "SP98": "2026-05-11 13:35:13"
      }
    },
    {
      "id": "57740004",
      "lat": 49.111,
      "lon": 6.698,
      "cp": "57740",
      "ville": "LONGEVILLE-LES-SAINT-AVOLD",
      "prix": {
        "Gazole": 0.0022,
        "E85": 0.00079,
        "GPLc": 0.001028,
        "E10": 0.0020350000000000004
      },
      "maj_gouv": {
        "Gazole": "2026-05-07 12:35:27",
        "E85": "2026-04-27 10:36:17",
        "GPLc": "2026-05-07 12:35:27",
        "E10": "2026-05-07 12:35:27"
      }
    },
    {
      "id": "57070013",
      "lat": 49.127,
      "lon": 6.189,
      "cp": "57070",
      "ville": "Saint-Julien-lès-Metz",
      "prix": {
        "Gazole": 0.00209,
        "E85": 0.000869,
        "E10": 0.00199,
        "SP98": 0.00199
      },
      "maj_gouv": {
        "Gazole": "2026-05-14 00:01:00",
        "E85": "2026-05-14 00:01:00",
        "E10": "2026-05-14 00:01:00",
        "SP98": "2026-05-14 00:01:00"
      }
    },
    {
      "id": "57380002",
      "lat": 49.048,
      "lon": 6.593,
      "cp": "57380",
      "ville": "FAULQUEMONT",
      "prix": {
        "Gazole": 0.002189,
        "E85": 0.000799,
        "E10": 0.002049,
        "SP98": 0.002139
      },
      "maj_gouv": {
        "Gazole": "2026-05-07 16:02:24",
        "E85": "2026-04-16 08:20:05",
        "E10": "2026-05-07 16:02:24",
        "SP98": "2026-05-07 16:02:24"
      }
    },
    {
      "id": "57000022",
      "lat": 49.13,
      "lon": 6.165,
      "cp": "57050",
      "ville": "METZ",
      "prix": {
        "Gazole": 0.00209,
        "E10": 0.00199
      },
      "maj_gouv": {
        "Gazole": "2026-05-14 00:01:00",
        "E10": "2026-05-14 00:01:00"
      }
    },
    {
      "id": "57070005",
      "lat": 49.106,
      "lon": 6.209,
      "cp": "57070",
      "ville": "Metz",
      "prix": {
        "Gazole": 0.002126,
        "E85": 0.000972,
        "E10": 0.002063,
        "SP98": 0.002143
      },
      "maj_gouv": {
        "Gazole": "2026-05-13 06:31:00",
        "E85": "2026-05-13 06:31:00",
        "E10": "2026-05-13 06:31:00",
        "SP98": "2026-05-13 06:31:00"
      }
    },
    {
      "id": "57200003",
      "lat": 49.10655,
      "lon": 7.07164,
      "cp": "57200",
      "ville": "Sarreguemines",
      "prix": {
        "Gazole": 0.002199,
        "E85": 0.0008179999999999999,
        "E10": 0.001999,
        "SP98": 0.002129
      },
      "maj_gouv": {
        "Gazole": "2026-05-04 10:39:30",
        "E85": "2026-05-04 10:39:30",
        "E10": "2026-05-04 10:39:30",
        "SP98": "2026-05-04 10:39:30"
      }
    },
    {
      "id": "57185006",
      "lat": 49.272650611775,
      "lon": 6.118109587541101,
      "cp": "57185",
      "ville": "VITRY SUR ORNE",
      "prix": {
        "Gazole": 0.0022389999999999997,
        "SP95": 0.002081,
        "SP98": 0.0021709999999999998
      },
      "maj_gouv": {
        "Gazole": "2026-04-30 10:46:58",
        "SP95": "2026-04-30 10:46:59",
        "SP98": "2026-04-30 10:46:59"
      }
    },
    {
      "id": "57804001",
      "lat": 49.137,
      "lon": 6.808,
      "cp": "57800",
      "ville": "Freyming-Merlebach",
      "prix": {
        "Gazole": 0.002199,
        "E85": 0.000789,
        "E10": 0.002049,
        "SP98": 0.002069
      },
      "maj_gouv": {
        "Gazole": "2026-05-13 08:08:10",
        "E85": "2026-05-13 08:08:10",
        "E10": "2026-05-13 08:08:10",
        "SP98": "2026-05-13 08:08:11"
      }
    },
    {
      "id": "57510004",
      "lat": 49.058497027258,
      "lon": 6.920654535928801,
      "cp": "57510",
      "ville": "PUTTELANGE AUX LACS",
      "prix": {
        "Gazole": 0.002199,
        "E10": 0.001999,
        "SP98": 0.002129
      },
      "maj_gouv": {
        "Gazole": "2026-04-20 10:06:31",
        "E10": "2026-04-20 10:06:31",
        "SP98": "2026-05-04 10:40:44"
      }
    },
    {
      "id": "57980003",
      "lat": 49.112405,
      "lon": 6.930695,
      "cp": "57980",
      "ville": "DIEBLING",
      "prix": {
        "Gazole": 0.002199,
        "E10": 0.001999,
        "SP98": 0.002129
      },
      "maj_gouv": {
        "Gazole": "2026-04-20 10:05:18",
        "E10": "2026-04-20 10:05:18",
        "SP98": "2026-05-04 10:41:27"
      }
    },
    {
      "id": "57380004",
      "lat": 49.048132,
      "lon": 6.598129,
      "cp": "57380",
      "ville": "FAULQUEMONT",
      "prix": {
        "Gazole": 0.002199,
        "E10": 0.002059,
        "SP98": 0.002149
      },
      "maj_gouv": {
        "Gazole": "2026-04-30 00:15:00",
        "E10": "2026-04-30 00:15:00",
        "SP98": "2026-04-30 00:15:00"
      }
    },
    {
      "id": "57303001",
      "lat": 49.262,
      "lon": 6.175,
      "cp": "57300",
      "ville": "Mondelange",
      "prix": {
        "Gazole": 0.0021030000000000003,
        "SP95": 0.0020800000000000003,
        "E85": 0.00074,
        "GPLc": 0.00095,
        "E10": 0.00204
      },
      "maj_gouv": {
        "Gazole": "2026-05-11 10:02:23",
        "SP95": "2026-05-13 10:00:02",
        "E85": "2026-05-13 10:00:02",
        "GPLc": "2026-05-07 09:56:43",
        "E10": "2026-05-13 10:00:03"
      }
    },
    {
      "id": "57000025",
      "lat": 49.126,
      "lon": 6.179,
      "cp": "57000",
      "ville": "METZ",
      "prix": {
        "Gazole": 0.002199,
        "GPLc": 0.001029,
        "E10": 0.002129,
        "SP98": 0.002199
      },
      "maj_gouv": {
        "Gazole": "2026-05-13 21:00:00",
        "GPLc": "2026-05-13 21:00:00",
        "E10": "2026-05-13 21:00:00",
        "SP98": "2026-05-13 21:00:00"
      }
    },
    {
      "id": "57740010",
      "lat": 49.1343,
      "lon": 6.65722,
      "cp": "57740",
      "ville": "Longeville-lès-Saint-Avold",
      "prix": {
        "Gazole": 0.002199,
        "E85": 0.000999,
        "E10": 0.002069,
        "SP98": 0.002139
      },
      "maj_gouv": {
        "Gazole": "2026-05-13 20:00:00",
        "E85": "2026-05-13 20:00:00",
        "E10": "2026-05-13 20:00:00",
        "SP98": "2026-05-13 20:00:00"
      }
    }
  ]
}