{
  "departement": "95",
  "date": "2026-06-12",
  "stations": [
    {
      "id": "95350002",
      "lat": 49.00763,
      "lon": 2.35163,
      "cp": "95350",
      "ville": "SAINT-BRICE-SOUS-FORêT",
      "prix": {
        "Gazole": 0.002019,
        "SP95": 0.001738,
        "E85": 0.00075,
        "GPLc": 0.000923,
        "E10": 0.001938,
        "SP98": 0.002076
      },
      "maj_gouv": {
        "Gazole": "2026-06-10 00:42:00",
        "SP95": "2025-12-31 19:37:56",
        "E85": "2026-06-10 00:42:00",
        "GPLc": "2026-06-10 00:42:00",
        "E10": "2026-06-10 00:42:00",
        "SP98": "2026-06-10 00:42:00"
      }
    },
    {
      "id": "95100011",
      "lat": 48.943,
      "lon": 2.253,
      "cp": "95100",
      "ville": "Argenteuil",
      "prix": {
        "Gazole": 0.001998,
        "E85": 0.000934,
        "E10": 0.001966,
        "SP98": 0.0020459999999999996
      },
      "maj_gouv": {
        "Gazole": "2026-06-12 06:31:00",
        "E85": "2026-06-12 06:31:00",
        "E10": "2026-06-12 06:31:00",
        "SP98": "2026-06-12 06:31:00"
      }
    },
    {
      "id": "95440001",
      "lat": 49.027,
      "lon": 2.369,
      "cp": "95440",
      "ville": "Écouen",
      "prix": {
        "Gazole": 0.002038,
        "E85": 0.00082,
        "E10": 0.001972,
        "SP98": 0.00199
      },
      "maj_gouv": {
        "Gazole": "2026-06-05 08:11:40",
        "E85": "2026-06-05 08:11:40",
        "E10": "2026-06-05 08:11:40",
        "SP98": "2026-06-05 08:11:40"
      }
    },
    {
      "id": "95100030",
      "lat": 48.95763,
      "lon": 2.27971,
      "cp": "95100",
      "ville": "ARGENTEUIL",
      "prix": {
        "Gazole": 0.002081,
        "E85": 0.000884,
        "E10": 0.00199,
        "SP98": 0.00199
      },
      "maj_gouv": {
        "Gazole": "2026-06-12 00:01:00",
        "E85": "2026-06-12 00:01:00",
        "E10": "2026-06-12 00:01:00",
        "SP98": "2026-06-12 00:01:00"
      }
    },
    {
      "id": "95130001",
      "lat": 48.986,
      "lon": 2.238,
      "cp": "95130",
      "ville": "Franconville",
      "prix": {
        "Gazole": 0.001966,
        "E10": 0.001928,
        "SP98": 0.0020099999999999996
      },
      "maj_gouv": {
        "Gazole": "2026-06-10 10:50:00",
        "E10": "2026-06-10 10:50:00",
        "SP98": "2026-06-10 10:50:00"
      }
    },
    {
      "id": "95220003",
      "lat": 49.006,
      "lon": 2.172,
      "cp": "95220",
      "ville": "Herblay",
      "prix": {
        "Gazole": 0.002,
        "E10": 0.001965,
        "SP98": 0.002045
      },
      "maj_gouv": {
        "Gazole": "2026-06-12 06:31:00",
        "E10": "2026-06-12 06:31:00",
        "SP98": "2026-06-12 06:31:00"
      }
    },
    {
      "id": "95400003",
      "lat": 48.982,
      "lon": 2.431,
      "cp": "95400",
      "ville": "Arnouville-lès-Gonesse",
      "prix": {
        "Gazole": 0.0019850000000000002,
        "E10": 0.001964,
        "SP98": 0.0020440000000000002
      },
      "maj_gouv": {
        "Gazole": "2026-06-12 06:31:00",
        "E10": "2026-06-12 06:31:00",
        "SP98": "2026-06-12 06:31:00"
      }
    },
    {
      "id": "95600002",
      "lat": 48.994,
      "lon": 2.28,
      "cp": "95600",
      "ville": "Eaubonne",
      "prix": {
        "Gazole": 0.001984,
        "E85": 0.00093,
        "E10": 0.001968,
        "SP98": 0.002048
      },
      "maj_gouv": {
        "Gazole": "2026-06-10 06:31:00",
        "E85": "2026-06-10 06:31:00",
        "E10": "2026-06-10 06:31:00",
        "SP98": "2026-06-10 06:31:00"
      }
    },
    {
      "id": "95570007",
      "lat": 49.041,
      "lon": 2.343,
      "cp": "95570",
      "ville": "Moisselles",
      "prix": {
        "Gazole": 0.002028,
        "E10": 0.0019470000000000002,
        "SP98": 0.002085
      },
      "maj_gouv": {
        "Gazole": "2026-06-10 07:51:00",
        "E10": "2026-06-10 07:51:00",
        "SP98": "2026-06-10 07:51:00"
      }
    },
    {
      "id": "95800003",
      "lat": 49.052993645837,
      "lon": 2.0463281651542,
      "cp": "95800",
      "ville": "Cergy",
      "prix": {
        "Gazole": 0.001984,
        "E10": 0.001944,
        "SP98": 0.0020310000000000003
      },
      "maj_gouv": {
        "Gazole": "2026-06-11 13:30:00",
        "E10": "2026-06-11 13:30:00",
        "SP98": "2026-06-11 13:30:00"
      }
    },
    {
      "id": "95570009",
      "lat": 49.06,
      "lon": 2.348,
      "cp": "95570",
      "ville": "ATTAINVILLE",
      "prix": {
        "Gazole": 0.002049,
        "GPLc": 0.001239,
        "E10": 0.002039,
        "SP98": 0.002209
      },
      "maj_gouv": {
        "Gazole": "2026-06-12 06:26:45",
        "GPLc": "2026-06-12 06:26:45",
        "E10": "2026-06-12 06:26:45",
        "SP98": "2026-06-12 06:26:45"
      }
    },
    {
      "id": "95310010",
      "lat": 49.04,
      "lon": 2.116,
      "cp": "95310",
      "ville": "Saint-Ouen-l'Aumône",
      "prix": {
        "Gazole": 0.002029,
        "E10": 0.0019690000000000003,
        "SP98": 0.002089
      },
      "maj_gouv": {
        "Gazole": "2026-06-12 06:23:23",
        "E10": "2026-06-12 06:23:23",
        "SP98": "2026-06-12 06:23:23"
      }
    },
    {
      "id": "95610007",
      "lat": 49.026,
      "lon": 2.103,
      "cp": "95610",
      "ville": "ERAGNY-SUR-OISE",
      "prix": {
        "Gazole": 0.002049,
        "E10": 0.002019,
        "SP98": 0.002129
      },
      "maj_gouv": {
        "Gazole": "2026-06-08 16:11:26",
        "E10": "2026-06-08 16:11:26",
        "SP98": "2026-06-08 16:11:27"
      }
    },
    {
      "id": "95230010",
      "lat": 48.990753655031,
      "lon": 2.2892381272629,
      "cp": "95230",
      "ville": "SOISY-SOUS-MONTMORENCY",
      "prix": {
        "Gazole": 0.002077,
        "E10": 0.00199,
        "SP98": 0.00199
      },
      "maj_gouv": {
        "Gazole": "2026-06-12 06:47:54",
        "E10": "2026-06-12 06:47:54",
        "SP98": "2026-06-12 06:47:54"
      }
    },
    {
      "id": "95220006",
      "lat": 49.00291,
      "lon": 2.18698,
      "cp": "95220",
      "ville": "HERBLAY",
      "prix": {},
      "maj_gouv": {}
    },
    {
      "id": "95100035",
      "lat": 48.952306479647,
      "lon": 2.2130157579777,
      "cp": "95100",
      "ville": "ARGENTEUIL",
      "prix": {
        "Gazole": 0.001996,
        "E85": 0.000869,
        "E10": 0.001973,
        "SP98": 0.00199
      },
      "maj_gouv": {
        "Gazole": "2026-06-12 00:01:00",
        "E85": "2026-06-12 00:01:00",
        "E10": "2026-06-12 00:01:00",
        "SP98": "2026-06-12 00:01:00"
      }
    },
    {
      "id": "95450007",
      "lat": 49.064195539574,
      "lon": 1.9827089208983002,
      "cp": "95450",
      "ville": "SAGY",
      "prix": {
        "Gazole": 0.001972,
        "E85": 0.0008489999999999999,
        "GPLc": 0.0010249999999999999,
        "E10": 0.001949,
        "SP98": 0.00199
      },
      "maj_gouv": {
        "Gazole": "2026-06-12 00:01:00",
        "E85": "2026-06-12 00:01:00",
        "GPLc": "2026-06-12 00:01:00",
        "E10": "2026-06-12 00:01:00",
        "SP98": "2026-06-12 00:01:00"
      }
    },
    {
      "id": "95420005",
      "lat": 49.13514,
      "lon": 1.78964,
      "cp": "95420",
      "ville": "CHARMONT",
      "prix": {
        "Gazole": 0.001972,
        "E85": 0.000855,
        "E10": 0.001949
      },
      "maj_gouv": {
        "Gazole": "2026-06-12 00:01:00",
        "E85": "2026-06-12 00:01:00",
        "E10": "2026-06-12 00:01:00"
      }
    },
    {
      "id": "95350004",
      "lat": 48.993,
      "lon": 2.359,
      "cp": "95350",
      "ville": "Saint-Brice-sous-Forêt",
      "prix": {
        "Gazole": 0.00207,
        "E85": 0.0008489999999999999,
        "E10": 0.00199,
        "SP98": 0.00199
      },
      "maj_gouv": {
        "Gazole": "2026-06-12 00:01:00",
        "E85": "2026-06-12 00:01:00",
        "E10": "2026-06-12 00:01:00",
        "SP98": "2026-06-12 00:01:00"
      }
    },
    {
      "id": "95230008",
      "lat": 48.9869,
      "lon": 2.29595,
      "cp": "95230",
      "ville": "Soisy-sous-Montmorency",
      "prix": {
        "Gazole": 0.002076
      },
      "maj_gouv": {
        "Gazole": "2026-06-12 00:01:00"
      }
    },
    {
      "id": "95650002",
      "lat": 49.082,
      "lon": 2.069,
      "cp": "95650",
      "ville": "GENICOURT",
      "prix": {
        "Gazole": 0.001968,
        "E85": 0.0008309999999999999,
        "GPLc": 0.001029
      },
      "maj_gouv": {
        "Gazole": "2026-06-12 00:01:00",
        "E85": "2026-06-12 00:01:00",
        "GPLc": "2026-06-12 00:01:00"
      }
    },
    {
      "id": "95160003",
      "lat": 49.01,
      "lon": 2.313,
      "cp": "95160",
      "ville": "MONTMORENCY",
      "prix": {
        "Gazole": 0.0019399999999999999,
        "E10": 0.001883,
        "SP98": 0.001988
      },
      "maj_gouv": {
        "Gazole": "2026-06-09 10:48:14",
        "E10": "2026-06-10 08:34:54",
        "SP98": "2026-06-10 08:34:54"
      }
    },
    {
      "id": "95870009",
      "lat": 48.936,
      "lon": 2.208,
      "cp": "95870",
      "ville": "BEZONS",
      "prix": {
        "Gazole": 0.001996,
        "E10": 0.0019690000000000003,
        "SP98": 0.00199
      },
      "maj_gouv": {
        "Gazole": "2026-06-12 00:01:00",
        "E10": "2026-06-12 00:01:00",
        "SP98": "2026-06-12 00:01:00"
      }
    },
    {
      "id": "95340004",
      "lat": 49.146667120000004,
      "lon": 2.2837288200000003,
      "cp": "95340",
      "ville": "Persan",
      "prix": {
        "Gazole": 0.001999,
        "E85": 0.000929,
        "E10": 0.001949,
        "SP98": 0.002099
      },
      "maj_gouv": {
        "Gazole": "2026-06-11 11:39:08",
        "E85": "2026-06-11 11:39:08",
        "E10": "2026-06-11 11:39:08",
        "SP98": "2026-06-11 11:39:08"
      }
    },
    {
      "id": "95500010",
      "lat": 48.967,
      "lon": 2.465,
      "cp": "95500",
      "ville": "GONESSE",
      "prix": {
        "Gazole": 0.002075,
        "E85": 0.000869,
        "E10": 0.00199,
        "SP98": 0.00199
      },
      "maj_gouv": {
        "Gazole": "2026-06-12 00:01:00",
        "E85": "2026-06-12 00:01:00",
        "E10": "2026-06-12 00:01:00",
        "SP98": "2026-06-12 00:01:00"
      }
    },
    {
      "id": "95500012",
      "lat": 48.99401,
      "lon": 2.42407,
      "cp": "95500",
      "ville": "GONESSE",
      "prix": {
        "Gazole": 0.001976,
        "E85": 0.0008489999999999999,
        "E10": 0.001942,
        "SP98": 0.00199
      },
      "maj_gouv": {
        "Gazole": "2026-06-12 00:01:00",
        "E85": "2026-06-12 00:01:00",
        "E10": "2026-06-12 00:01:00",
        "SP98": "2026-06-12 00:01:00"
      }
    },
    {
      "id": "95520004",
      "lat": 49.068,
      "lon": 2.088,
      "cp": "95520",
      "ville": "Osny",
      "prix": {
        "Gazole": 0.001975,
        "E85": 0.000798,
        "E10": 0.001935,
        "SP98": 0.002022
      },
      "maj_gouv": {
        "Gazole": "2026-06-12 01:16:00",
        "E85": "2026-06-12 01:16:00",
        "E10": "2026-06-12 01:16:00",
        "SP98": "2026-06-12 01:16:00"
      }
    },
    {
      "id": "95470008",
      "lat": 49.071,
      "lon": 2.551,
      "cp": "95470",
      "ville": "VEMARS",
      "prix": {
        "Gazole": 0.0021030000000000003,
        "E10": 0.002077,
        "SP98": 0.002198
      },
      "maj_gouv": {
        "Gazole": "2026-06-09 09:30:00",
        "E10": "2026-06-09 09:30:00",
        "SP98": "2026-06-09 09:30:00"
      }
    },
    {
      "id": "95110007",
      "lat": 48.963,
      "lon": 2.26,
      "cp": "95110",
      "ville": "SANNOIS",
      "prix": {
        "Gazole": 0.00199,
        "E85": 0.000885,
        "E10": 0.001955
      },
      "maj_gouv": {
        "Gazole": "2026-06-12 00:01:00",
        "E85": "2026-06-12 00:01:00",
        "E10": "2026-06-12 00:01:00"
      }
    },
    {
      "id": "95120002",
      "lat": 48.99,
      "lon": 2.257,
      "cp": "95120",
      "ville": "Ermont",
      "prix": {
        "Gazole": 0.002069,
        "E10": 0.002059,
        "SP98": 0.002229
      },
      "maj_gouv": {
        "Gazole": "2026-06-10 11:18:25",
        "E10": "2026-06-10 11:18:25",
        "SP98": "2026-06-10 11:18:24"
      }
    },
    {
      "id": "95190006",
      "lat": 49.038,
      "lon": 2.455,
      "cp": "95190",
      "ville": "GOUSSAINVILLE",
      "prix": {
        "Gazole": 0.001982,
        "E10": 0.0019479999999999999,
        "SP98": 0.00199
      },
      "maj_gouv": {
        "Gazole": "2026-06-12 00:01:00",
        "E10": "2026-06-12 00:01:00",
        "SP98": "2026-06-12 00:01:00"
      }
    },
    {
      "id": "95331002",
      "lat": 49.028,
      "lon": 2.347,
      "cp": "95331",
      "ville": "Domont",
      "prix": {
        "Gazole": 0.002029,
        "GPLc": 0.001239,
        "E10": 0.001949,
        "SP98": 0.0021190000000000002
      },
      "maj_gouv": {
        "Gazole": "2026-06-12 06:26:05",
        "GPLc": "2026-06-12 06:26:05",
        "E10": "2026-06-12 06:26:05",
        "SP98": "2026-06-12 06:26:05"
      }
    },
    {
      "id": "95100034",
      "lat": 48.955,
      "lon": 2.273,
      "cp": "95100",
      "ville": "ARGENTEUIL",
      "prix": {
        "Gazole": 0.001981,
        "E10": 0.001952,
        "SP98": 0.00199
      },
      "maj_gouv": {
        "Gazole": "2026-06-12 00:01:00",
        "E10": "2026-06-12 00:01:00",
        "SP98": "2026-06-12 00:01:00"
      }
    },
    {
      "id": "95640001",
      "lat": 49.147,
      "lon": 1.975,
      "cp": "95640",
      "ville": "MARINES",
      "prix": {},
      "maj_gouv": {}
    },
    {
      "id": "95190005",
      "lat": 49.015625843572,
      "lon": 2.4702620933139,
      "cp": "95190",
      "ville": "GOUSSAINVILLE",
      "prix": {
        "Gazole": 0.002077,
        "E85": 0.000862,
        "E10": 0.00199,
        "SP98": 0.00199
      },
      "maj_gouv": {
        "Gazole": "2026-06-12 00:01:00",
        "E85": "2026-06-12 00:01:00",
        "E10": "2026-06-12 00:01:00",
        "SP98": "2026-06-12 00:01:00"
      }
    },
    {
      "id": "95170001",
      "lat": 48.968,
      "lon": 2.316,
      "cp": "95170",
      "ville": "Deuil-la-Barre",
      "prix": {
        "Gazole": 0.002109,
        "E10": 0.002099,
        "SP98": 0.002269
      },
      "maj_gouv": {
        "Gazole": "2026-06-10 11:21:45",
        "E10": "2026-06-10 11:21:45",
        "SP98": "2026-06-10 11:21:45"
      }
    },
    {
      "id": "95610008",
      "lat": 49.026,
      "lon": 2.104,
      "cp": "95610",
      "ville": "Eragny-sur-Oise",
      "prix": {
        "Gazole": 0.002059,
        "E85": 0.000939,
        "GPLc": 0.0013189999999999999,
        "E10": 0.002029,
        "SP98": 0.002179
      },
      "maj_gouv": {
        "Gazole": "2026-06-12 06:20:05",
        "E85": "2026-06-12 06:20:05",
        "GPLc": "2026-06-12 06:20:05",
        "E10": "2026-06-12 06:20:05",
        "SP98": "2026-06-12 06:20:05"
      }
    },
    {
      "id": "95520002",
      "lat": 49.05,
      "lon": 2.075,
      "cp": "95520",
      "ville": "OSNY",
      "prix": {
        "Gazole": 0.002057,
        "E85": 0.000855,
        "E10": 0.00199
      },
      "maj_gouv": {
        "Gazole": "2026-06-11 09:41:02",
        "E85": "2026-06-11 09:41:02",
        "E10": "2026-06-11 09:41:02"
      }
    },
    {
      "id": "95180001",
      "lat": 49.02938,
      "lon": 1.99173,
      "cp": "95180",
      "ville": "MENUCOURT",
      "prix": {
        "Gazole": 0.0019850000000000002,
        "SP95": 0.00196,
        "SP98": 0.0020350000000000004
      },
      "maj_gouv": {
        "Gazole": "2026-06-09 09:00:46",
        "SP95": "2026-06-09 09:00:47",
        "SP98": "2026-06-09 09:00:47"
      }
    },
    {
      "id": "95370001",
      "lat": 48.993,
      "lon": 2.198,
      "cp": "95370",
      "ville": "MONTIGNY-LèS-CORMEILLES",
      "prix": {
        "Gazole": 0.0019690000000000003,
        "SP95": 0.0019850000000000002,
        "E85": 0.000869,
        "E10": 0.001939,
        "SP98": 0.002009
      },
      "maj_gouv": {
        "Gazole": "2026-06-10 11:58:19",
        "SP95": "2026-06-10 11:58:19",
        "E85": "2026-06-09 09:40:04",
        "E10": "2026-06-10 11:58:19",
        "SP98": "2026-06-10 11:58:19"
      }
    },
    {
      "id": "95100006",
      "lat": 48.957,
      "lon": 2.284,
      "cp": "95100",
      "ville": "Argenteuil",
      "prix": {
        "Gazole": 0.002079,
        "E10": 0.001999,
        "SP98": 0.002169
      },
      "maj_gouv": {
        "Gazole": "2026-06-11 11:37:27",
        "E10": "2026-06-11 11:37:28",
        "SP98": "2026-06-11 11:37:28"
      }
    },
    {
      "id": "95320005",
      "lat": 49.008,
      "lon": 2.242,
      "cp": "95320",
      "ville": "Saint-Leu-la-Forêt",
      "prix": {
        "Gazole": 0.0019790000000000003,
        "E10": 0.001939,
        "SP98": 0.002089
      },
      "maj_gouv": {
        "Gazole": "2026-06-12 06:25:43",
        "E10": "2026-06-12 06:25:43",
        "SP98": "2026-06-12 06:25:43"
      }
    },
    {
      "id": "95370003",
      "lat": 48.992,
      "lon": 2.182,
      "cp": "95370",
      "ville": "MONTIGNY-LES-CORMEILLES",
      "prix": {
        "Gazole": 0.002099,
        "E10": 0.002059,
        "SP98": 0.002209
      },
      "maj_gouv": {
        "Gazole": "2026-06-12 06:23:48",
        "E10": "2026-06-12 06:23:48",
        "SP98": "2026-06-12 06:23:48"
      }
    },
    {
      "id": "95280001",
      "lat": 49.010841476844,
      "lon": 2.0298330278809,
      "cp": "95280",
      "ville": "Jouy-le-Moutier",
      "prix": {
        "Gazole": 0.0019890000000000003,
        "SP95": 0.0019690000000000003,
        "SP98": 0.002049
      },
      "maj_gouv": {
        "Gazole": "2026-06-11 09:22:39",
        "SP95": "2026-06-11 09:22:39",
        "SP98": "2026-06-11 09:22:39"
      }
    },
    {
      "id": "95310011",
      "lat": 49.047756660000005,
      "lon": 2.13195072,
      "cp": "95310",
      "ville": "Saint-Ouen-l'Aumône",
      "prix": {
        "Gazole": 0.002076,
        "E85": 0.000855,
        "SP98": 0.00199
      },
      "maj_gouv": {
        "Gazole": "2026-06-12 00:01:00",
        "E85": "2026-06-12 00:01:00",
        "SP98": "2026-06-12 00:01:00"
      }
    },
    {
      "id": "95400008",
      "lat": 49.00053,
      "lon": 2.39389,
      "cp": "95400",
      "ville": "Villiers-le-Bel",
      "prix": {
        "Gazole": 0.00198,
        "E10": 0.00195,
        "SP98": 0.00199
      },
      "maj_gouv": {
        "Gazole": "2026-06-12 00:01:00",
        "E10": "2026-06-12 00:01:00",
        "SP98": "2026-06-12 00:01:00"
      }
    },
    {
      "id": "95290003",
      "lat": 49.110450964099996,
      "lon": 2.22459192177,
      "cp": "95290",
      "ville": "L'Isle-Adam",
      "prix": {
        "Gazole": 0.002059,
        "E85": 0.000869,
        "E10": 0.00199
      },
      "maj_gouv": {
        "Gazole": "2026-06-12 00:01:00",
        "E85": "2026-06-12 00:01:00",
        "E10": "2026-06-12 00:01:00"
      }
    },
    {
      "id": "95600001",
      "lat": 48.978,
      "lon": 2.291,
      "cp": "95600",
      "ville": "EAUBONNE",
      "prix": {
        "Gazole": 0.002077,
        "E10": 0.00199,
        "SP98": 0.00199
      },
      "maj_gouv": {
        "Gazole": "2026-06-11 13:36:36",
        "E10": "2026-04-07 19:31:09",
        "SP98": "2026-04-07 19:31:09"
      }
    },
    {
      "id": "95100021",
      "lat": 48.94,
      "lon": 2.233,
      "cp": "95100",
      "ville": "Argenteuil",
      "prix": {
        "Gazole": 0.002059,
        "E85": 0.000949,
        "E10": 0.002019,
        "SP98": 0.002189
      },
      "maj_gouv": {
        "Gazole": "2026-06-11 11:44:47",
        "E85": "2026-06-11 11:44:47",
        "E10": "2026-06-11 11:44:46",
        "SP98": "2026-06-11 11:44:47"
      }
    },
    {
      "id": "95870010",
      "lat": 48.936888607759,
      "lon": 2.2069830018219,
      "cp": "95870",
      "ville": "Bezons",
      "prix": {
        "Gazole": 0.0021030000000000003,
        "E10": 0.00199
      },
      "maj_gouv": {
        "Gazole": "2026-06-11 22:30:00",
        "E10": "2026-06-01 19:33:25"
      }
    },
    {
      "id": "95740005",
      "lat": 49.048,
      "lon": 2.201,
      "cp": "95740",
      "ville": "FREPILLON",
      "prix": {
        "Gazole": 0.001974,
        "E85": 0.000839,
        "E10": 0.001943,
        "SP98": 0.00199
      },
      "maj_gouv": {
        "Gazole": "2026-06-12 00:01:00",
        "E85": "2026-06-12 00:01:00",
        "E10": "2026-06-12 00:01:00",
        "SP98": "2026-06-12 00:01:00"
      }
    },
    {
      "id": "95100032",
      "lat": 48.945,
      "lon": 2.207,
      "cp": "95100",
      "ville": "Argenteuil",
      "prix": {
        "Gazole": 0.002002,
        "E85": 0.000869,
        "E10": 0.001975,
        "SP98": 0.00199
      },
      "maj_gouv": {
        "Gazole": "2026-06-12 00:01:00",
        "E85": "2026-06-12 00:01:00",
        "E10": "2026-06-12 00:01:00",
        "SP98": "2026-06-12 00:01:00"
      }
    },
    {
      "id": "95450006",
      "lat": 49.064610342954,
      "lon": 1.9789464314269,
      "cp": "95450",
      "ville": "SAGY",
      "prix": {
        "Gazole": 0.001972,
        "E85": 0.0008489999999999999,
        "E10": 0.001949,
        "SP98": 0.00199
      },
      "maj_gouv": {
        "Gazole": "2026-06-12 00:01:00",
        "E85": "2026-06-12 00:01:00",
        "E10": "2026-06-12 00:01:00",
        "SP98": "2026-06-12 00:01:00"
      }
    },
    {
      "id": "95240003",
      "lat": 48.971,
      "lon": 2.192,
      "cp": "95240",
      "ville": "CORMEILLES-EN-PARISIS",
      "prix": {
        "Gazole": 0.002084,
        "E10": 0.00199
      },
      "maj_gouv": {
        "Gazole": "2026-06-12 06:15:17",
        "E10": "2026-06-12 06:15:17"
      }
    },
    {
      "id": "95800001",
      "lat": 49.056,
      "lon": 2.019,
      "cp": "95650",
      "ville": "PUISEUX-PONTOISE",
      "prix": {
        "Gazole": 0.001999,
        "SP95": 0.00197,
        "E85": 0.0008489999999999999,
        "E10": 0.0019199999999999998,
        "SP98": 0.0020459999999999996
      },
      "maj_gouv": {
        "Gazole": "2026-06-10 09:45:03",
        "SP95": "2026-06-10 09:45:03",
        "E85": "2026-06-09 13:05:00",
        "E10": "2026-06-10 09:45:03",
        "SP98": "2026-06-10 09:45:03"
      }
    },
    {
      "id": "95380002",
      "lat": 49.04806137,
      "lon": 2.50257752,
      "cp": "95380",
      "ville": "LOUVRES",
      "prix": {
        "Gazole": 0.0021739999999999997,
        "E10": 0.002133,
        "SP98": 0.002195
      },
      "maj_gouv": {
        "Gazole": "2026-06-10 09:02:16",
        "E10": "2026-06-10 09:02:16",
        "SP98": "2026-06-10 09:02:17"
      }
    },
    {
      "id": "95540002",
      "lat": 49.061,
      "lon": 2.17,
      "cp": "95540",
      "ville": "MéRY-SUR-OISE",
      "prix": {
        "Gazole": 0.0019950000000000002,
        "E85": 0.000798,
        "E10": 0.0019190000000000001,
        "SP98": 0.002029
      },
      "maj_gouv": {
        "Gazole": "2026-06-10 13:15:04",
        "E85": "2026-06-05 14:00:00",
        "E10": "2026-06-10 13:15:04",
        "SP98": "2026-06-10 13:15:05"
      }
    },
    {
      "id": "95640002",
      "lat": 49.146725,
      "lon": 1.974442,
      "cp": "95640",
      "ville": "Marines",
      "prix": {
        "Gazole": 0.00198,
        "E10": 0.0019199999999999998,
        "SP98": 0.0020350000000000004
      },
      "maj_gouv": {
        "Gazole": "2026-06-11 12:06:12",
        "E10": "2026-06-11 12:06:12",
        "SP98": "2026-06-11 12:06:12"
      }
    },
    {
      "id": "95150001",
      "lat": 49.0146669398,
      "lon": 2.22190168155,
      "cp": "95150",
      "ville": "TAVERNY",
      "prix": {
        "Gazole": 0.0019790000000000003,
        "GPLc": 0.0011790000000000001,
        "E10": 0.001965,
        "SP98": 0.002029
      },
      "maj_gouv": {
        "Gazole": "2026-06-05 09:28:27",
        "GPLc": "2026-06-01 09:13:45",
        "E10": "2026-06-10 08:55:50",
        "SP98": "2026-06-10 08:55:50"
      }
    },
    {
      "id": "95110006",
      "lat": 48.967,
      "lon": 2.262,
      "cp": "95110",
      "ville": "SANNOIS",
      "prix": {
        "Gazole": 0.00199,
        "E10": 0.001955
      },
      "maj_gouv": {
        "Gazole": "2026-06-12 00:01:00",
        "E10": "2026-06-12 00:01:00"
      }
    },
    {
      "id": "95370008",
      "lat": 48.99694,
      "lon": 2.18922,
      "cp": "95370",
      "ville": "Montigny-lès-Cormeilles",
      "prix": {
        "Gazole": 0.001981,
        "GPLc": 0.001024,
        "E10": 0.0019479999999999999
      },
      "maj_gouv": {
        "Gazole": "2026-06-12 00:01:00",
        "GPLc": "2026-06-12 00:01:00",
        "E10": "2026-06-12 00:01:00"
      }
    },
    {
      "id": "95400004",
      "lat": 48.986,
      "lon": 2.413,
      "cp": "95400",
      "ville": "ARNOUVILLE",
      "prix": {
        "Gazole": 0.002,
        "E85": 0.000769,
        "E10": 0.001973,
        "SP98": 0.00207
      },
      "maj_gouv": {
        "Gazole": "2026-06-09 10:24:20",
        "E85": "2026-06-09 10:24:21",
        "E10": "2026-06-09 10:24:21",
        "SP98": "2026-06-09 10:24:21"
      }
    },
    {
      "id": "95290001",
      "lat": 49.124,
      "lon": 2.248,
      "cp": "95290",
      "ville": "L'ISLE-ADAM",
      "prix": {
        "Gazole": 0.00196,
        "E85": 0.000764,
        "GPLc": 0.000923,
        "E10": 0.0019119999999999999,
        "SP98": 0.002064
      },
      "maj_gouv": {
        "Gazole": "2026-06-11 08:31:31",
        "E85": "2026-06-11 08:31:31",
        "GPLc": "2026-06-11 08:31:32",
        "E10": "2026-06-11 08:31:32",
        "SP98": "2026-06-11 08:31:32"
      }
    },
    {
      "id": "95570003",
      "lat": 49.041177467467996,
      "lon": 2.3422049553388,
      "cp": "95570",
      "ville": "MOISSELLES",
      "prix": {
        "Gazole": 0.001949,
        "SP95": 0.001939,
        "E85": 0.000795,
        "E10": 0.001915,
        "SP98": 0.002029
      },
      "maj_gouv": {
        "Gazole": "2026-06-11 10:22:31",
        "SP95": "2026-06-08 09:31:37",
        "E85": "2026-06-10 12:23:15",
        "E10": "2026-06-11 10:22:31",
        "SP98": "2026-06-09 10:24:15"
      }
    },
    {
      "id": "95480003",
      "lat": 49.013,
      "lon": 2.149,
      "cp": "95480",
      "ville": "PIERRELAYE",
      "prix": {
        "Gazole": 0.002074,
        "E10": 0.00199,
        "SP98": 0.00199
      },
      "maj_gouv": {
        "Gazole": "2026-06-12 00:01:00",
        "E10": "2026-06-12 00:01:00",
        "SP98": "2026-06-12 00:01:00"
      }
    },
    {
      "id": "95520001",
      "lat": 49.077,
      "lon": 2.077,
      "cp": "95520",
      "ville": "OSNY",
      "prix": {
        "Gazole": 0.001975,
        "GPLc": 0.001029,
        "E10": 0.001935,
        "SP98": 0.002022
      },
      "maj_gouv": {
        "Gazole": "2026-06-11 11:48:54",
        "GPLc": "2026-05-07 15:40:17",
        "E10": "2026-06-11 11:48:54",
        "SP98": "2026-06-11 11:48:54"
      }
    },
    {
      "id": "95300004",
      "lat": 49.045,
      "lon": 2.096,
      "cp": "95300",
      "ville": "PONTOISE",
      "prix": {
        "Gazole": 0.001974,
        "E10": 0.001941
      },
      "maj_gouv": {
        "Gazole": "2026-06-12 00:01:00",
        "E10": "2026-06-12 00:01:00"
      }
    },
    {
      "id": "95320006",
      "lat": 49.013,
      "lon": 2.249,
      "cp": "95320",
      "ville": "Saint-Leu-la-Forêt",
      "prix": {
        "Gazole": 0.001978,
        "E85": 0.000879,
        "E10": 0.0019470000000000002,
        "SP98": 0.00199
      },
      "maj_gouv": {
        "Gazole": "2026-06-12 00:01:00",
        "E85": "2026-06-12 00:01:00",
        "E10": "2026-06-12 00:01:00",
        "SP98": "2026-06-12 00:01:00"
      }
    },
    {
      "id": "95470009",
      "lat": 49.072,
      "lon": 2.553,
      "cp": "95470",
      "ville": "VEMARS",
      "prix": {
        "Gazole": 0.0021190000000000002,
        "E10": 0.002063,
        "SP98": 0.002154
      },
      "maj_gouv": {
        "Gazole": "2026-06-12 06:31:00",
        "E10": "2026-06-12 06:31:00",
        "SP98": "2026-06-12 06:31:00"
      }
    },
    {
      "id": "95100037",
      "lat": 48.951634109562,
      "lon": 2.2122929705522,
      "cp": "95100",
      "ville": "Argenteuil",
      "prix": {
        "Gazole": 0.001996,
        "E10": 0.001973,
        "SP98": 0.00199
      },
      "maj_gouv": {
        "Gazole": "2026-06-12 00:01:00",
        "E10": "2026-06-12 00:01:00",
        "SP98": "2026-06-12 00:01:00"
      }
    },
    {
      "id": "95270004",
      "lat": 49.085,
      "lon": 2.416,
      "cp": "95270",
      "ville": "ÉPINAY-CHAMPLâTREUX",
      "prix": {
        "Gazole": 0.002099,
        "SP95": 0.002139,
        "SP98": 0.002169
      },
      "maj_gouv": {
        "Gazole": "2026-06-01 11:59:21",
        "SP95": "2026-06-01 11:59:21",
        "SP98": "2026-06-01 11:59:21"
      }
    },
    {
      "id": "95100007",
      "lat": 48.945,
      "lon": 2.263,
      "cp": "95100",
      "ville": "Argenteuil",
      "prix": {
        "Gazole": 0.002099,
        "E10": 0.002069,
        "SP98": 0.002219
      },
      "maj_gouv": {
        "Gazole": "2026-06-11 11:36:04",
        "E10": "2026-06-11 11:36:04",
        "SP98": "2026-06-11 11:36:05"
      }
    },
    {
      "id": "95190003",
      "lat": 49.022,
      "lon": 2.456,
      "cp": "95190",
      "ville": "GOUSSAINVILLE",
      "prix": {
        "Gazole": 0.002016,
        "E10": 0.0019450000000000001,
        "SP98": 0.002057
      },
      "maj_gouv": {
        "Gazole": "2026-06-09 22:43:00",
        "E10": "2026-06-09 22:43:00",
        "SP98": "2026-06-09 22:43:00"
      }
    },
    {
      "id": "95550002",
      "lat": 49.033,
      "lon": 2.205,
      "cp": "95550",
      "ville": "Bessancourt",
      "prix": {
        "Gazole": 0.0019790000000000003,
        "SP95": 0.0019890000000000003,
        "E85": 0.000799,
        "E10": 0.001949,
        "SP98": 0.002029
      },
      "maj_gouv": {
        "Gazole": "2026-06-11 07:43:54",
        "SP95": "2026-06-11 07:43:55",
        "E85": "2026-06-11 07:43:55",
        "E10": "2026-06-11 07:43:55",
        "SP98": "2026-06-11 07:43:55"
      }
    },
    {
      "id": "95480002",
      "lat": 49.015,
      "lon": 2.146,
      "cp": "95480",
      "ville": "Pierrelaye",
      "prix": {
        "Gazole": 0.0021160000000000003,
        "GPLc": 0.001117,
        "E10": 0.002045,
        "SP98": 0.002145
      },
      "maj_gouv": {
        "Gazole": "2026-06-10 07:51:00",
        "GPLc": "2026-06-10 07:51:00",
        "E10": "2026-06-10 07:51:00",
        "SP98": "2026-06-10 07:51:00"
      }
    },
    {
      "id": "95000011",
      "lat": 49.032,
      "lon": 2.069,
      "cp": "95000",
      "ville": "Cergy",
      "prix": {
        "Gazole": 0.002049,
        "E10": 0.0019790000000000003,
        "SP98": 0.002129
      },
      "maj_gouv": {
        "Gazole": "2026-06-12 06:24:53",
        "E10": "2026-06-12 06:24:53",
        "SP98": "2026-06-12 06:24:53"
      }
    },
    {
      "id": "95540005",
      "lat": 49.054,
      "lon": 2.175,
      "cp": "95540",
      "ville": "MERY SUR OISE",
      "prix": {
        "Gazole": 0.002049,
        "GPLc": 0.0011790000000000001,
        "E10": 0.0019790000000000003,
        "SP98": 0.0021190000000000002
      },
      "maj_gouv": {
        "Gazole": "2026-06-12 06:24:51",
        "GPLc": "2026-06-12 06:24:52",
        "E10": "2026-06-12 06:24:51",
        "SP98": "2026-06-12 06:24:51"
      }
    },
    {
      "id": "95520005",
      "lat": 49.061,
      "lon": 2.084,
      "cp": "95520",
      "ville": "OSNY",
      "prix": {
        "Gazole": 0.002019,
        "E10": 0.0019790000000000003,
        "SP98": 0.0021190000000000002
      },
      "maj_gouv": {
        "Gazole": "2026-06-12 06:24:27",
        "E10": "2026-06-12 06:24:27",
        "SP98": "2026-06-12 06:24:26"
      }
    },
    {
      "id": "95100033",
      "lat": 48.933,
      "lon": 2.233,
      "cp": "95100",
      "ville": "ARGENTEUIL",
      "prix": {
        "Gazole": 0.0019950000000000002,
        "E10": 0.001968,
        "SP98": 0.00199
      },
      "maj_gouv": {
        "Gazole": "2026-06-12 00:01:00",
        "E10": "2026-06-12 00:01:00",
        "SP98": "2026-06-12 00:01:00"
      }
    },
    {
      "id": "95150005",
      "lat": 49.018,
      "lon": 2.22,
      "cp": "95150",
      "ville": "TAVERNY",
      "prix": {
        "Gazole": 0.0019890000000000003,
        "E85": 0.000949,
        "GPLc": 0.0011790000000000001,
        "E10": 0.001939,
        "SP98": 0.002039
      },
      "maj_gouv": {
        "Gazole": "2026-06-11 11:39:45",
        "E85": "2026-06-11 11:39:45",
        "GPLc": "2026-06-11 11:39:45",
        "E10": "2026-06-11 11:39:45",
        "SP98": "2026-06-11 11:39:45"
      }
    },
    {
      "id": "95470006",
      "lat": 49.10021,
      "lon": 2.52395,
      "cp": "95470",
      "ville": "FOSSES",
      "prix": {
        "Gazole": 0.002062,
        "E10": 0.00199,
        "SP98": 0.00199
      },
      "maj_gouv": {
        "Gazole": "2026-06-12 00:01:00",
        "E10": "2026-06-12 00:01:00",
        "SP98": "2026-06-12 00:01:00"
      }
    },
    {
      "id": "95460003",
      "lat": 49.028241057696,
      "lon": 2.3655005925033,
      "cp": "95460",
      "ville": "EZANVILLE",
      "prix": {
        "Gazole": 0.002062,
        "E85": 0.0008489999999999999,
        "E10": 0.00199,
        "SP98": 0.00199
      },
      "maj_gouv": {
        "Gazole": "2026-06-12 00:01:00",
        "E85": "2026-06-12 00:01:00",
        "E10": "2026-06-12 00:01:00",
        "SP98": "2026-06-12 00:01:00"
      }
    },
    {
      "id": "95370007",
      "lat": 48.985054207800005,
      "lon": 2.18181283895,
      "cp": "95370",
      "ville": "Montigny-lès-Cormeilles",
      "prix": {
        "Gazole": 0.001976,
        "E10": 0.001946
      },
      "maj_gouv": {
        "Gazole": "2026-06-12 00:01:00",
        "E10": "2026-06-12 00:01:00"
      }
    },
    {
      "id": "95712004",
      "lat": 49.0091,
      "lon": 2.53736,
      "cp": "95700",
      "ville": "Roissy-en-France",
      "prix": {
        "Gazole": 0.0020729999999999998,
        "E85": 0.000862,
        "GPLc": 0.001029,
        "E10": 0.00199,
        "SP98": 0.00199
      },
      "maj_gouv": {
        "Gazole": "2026-06-11 00:01:00",
        "E85": "2026-06-11 00:01:00",
        "GPLc": "2026-06-11 00:01:00",
        "E10": "2026-06-11 00:01:00",
        "SP98": "2026-06-11 00:01:00"
      }
    },
    {
      "id": "95500011",
      "lat": 48.9811274725,
      "lon": 2.4450748025399998,
      "cp": "95500",
      "ville": "GONESSE",
      "prix": {},
      "maj_gouv": {}
    },
    {
      "id": "95440002",
      "lat": 49.03,
      "lon": 2.39,
      "cp": "95440",
      "ville": "ÉCOUEN",
      "prix": {
        "Gazole": 0.00229,
        "E10": 0.00209
      },
      "maj_gouv": {
        "Gazole": "2026-06-01 18:43:00",
        "E10": "2026-03-23 18:45:00"
      }
    },
    {
      "id": "95220005",
      "lat": 49.00469,
      "lon": 2.12666,
      "cp": "95220",
      "ville": "Herblay",
      "prix": {
        "Gazole": 0.002049,
        "E10": 0.0019590000000000002,
        "SP98": 0.002049
      },
      "maj_gouv": {
        "Gazole": "2026-06-06 08:39:09",
        "E10": "2026-06-06 08:39:09",
        "SP98": "2026-06-06 08:39:09"
      }
    },
    {
      "id": "95140001",
      "lat": 48.975,
      "lon": 2.418,
      "cp": "95140",
      "ville": "GARGES-LèS-GONESSE",
      "prix": {
        "Gazole": 0.002,
        "GPLc": 0.0009809999999999999,
        "E10": 0.001971,
        "SP98": 0.002053
      },
      "maj_gouv": {
        "Gazole": "2026-06-11 15:43:16",
        "GPLc": "2026-06-11 10:58:12",
        "E10": "2026-06-11 10:58:12",
        "SP98": "2026-06-11 10:58:12"
      }
    },
    {
      "id": "95380001",
      "lat": 49.049,
      "lon": 2.498,
      "cp": "95380",
      "ville": "LOUVRES",
      "prix": {
        "Gazole": 0.002025,
        "E10": 0.0019690000000000003,
        "SP98": 0.002069
      },
      "maj_gouv": {
        "Gazole": "2026-06-09 09:24:48",
        "E10": "2026-06-09 09:24:49",
        "SP98": "2026-06-09 09:24:49"
      }
    },
    {
      "id": "95360001",
      "lat": 48.963,
      "lon": 2.339,
      "cp": "95360",
      "ville": "Montmagny",
      "prix": {
        "Gazole": 0.001998,
        "SP95": 0.002139,
        "E85": 0.000809,
        "E10": 0.002097,
        "SP98": 0.002169
      },
      "maj_gouv": {
        "Gazole": "2026-06-10 00:05:00",
        "SP95": "2026-05-30 12:09:50",
        "E85": "2026-06-11 10:55:57",
        "E10": "2026-05-30 12:09:50",
        "SP98": "2026-05-30 12:09:50"
      }
    },
    {
      "id": "95100029",
      "lat": 48.983615089971,
      "lon": 2.36997124557,
      "cp": "95200",
      "ville": "SARCELLES",
      "prix": {
        "Gazole": 0.002019,
        "E85": 0.00075,
        "GPLc": 0.0009809999999999999,
        "E10": 0.001938
      },
      "maj_gouv": {
        "Gazole": "2026-06-10 09:59:48",
        "E85": "2026-06-08 10:36:22",
        "GPLc": "2026-05-13 09:34:25",
        "E10": "2026-06-10 09:59:48"
      }
    },
    {
      "id": "95420002",
      "lat": 49.157,
      "lon": 1.784,
      "cp": "95420",
      "ville": "MAGNY-EN-VEXIN",
      "prix": {
        "Gazole": 0.002077,
        "E85": 0.000859,
        "E10": 0.001975,
        "SP98": 0.002112
      },
      "maj_gouv": {
        "Gazole": "2026-06-09 08:53:52",
        "E85": "2026-06-01 08:47:29",
        "E10": "2026-06-01 08:47:29",
        "SP98": "2026-06-01 08:47:29"
      }
    },
    {
      "id": "95137001",
      "lat": 48.989285938081,
      "lon": 2.2065467998684,
      "cp": "95130",
      "ville": "FRANCONVILLE",
      "prix": {
        "Gazole": 0.001949,
        "SP95": 0.001965,
        "E85": 0.0008489999999999999,
        "E10": 0.0019190000000000001,
        "SP98": 0.0019890000000000003
      },
      "maj_gouv": {
        "Gazole": "2026-06-10 07:53:23",
        "SP95": "2026-06-10 07:53:23",
        "E85": "2026-06-10 07:53:24",
        "E10": "2026-06-10 07:53:24",
        "SP98": "2026-06-10 07:53:24"
      }
    },
    {
      "id": "95390001",
      "lat": 49.003352,
      "lon": 2.260898,
      "cp": "95390",
      "ville": "Saint-Prix",
      "prix": {
        "Gazole": 0.001975,
        "E10": 0.0019590000000000002,
        "SP98": 0.0020350000000000004
      },
      "maj_gouv": {
        "Gazole": "2026-06-09 08:03:50",
        "E10": "2026-06-09 08:03:50",
        "SP98": "2026-06-02 08:12:31"
      }
    },
    {
      "id": "95500006",
      "lat": 48.98940867009,
      "lon": 2.433548852432,
      "cp": "95500",
      "ville": "GONESSE",
      "prix": {
        "Gazole": 0.0019790000000000003,
        "SP95": 0.002019,
        "E85": 0.000769,
        "E10": 0.00197,
        "SP98": 0.002052
      },
      "maj_gouv": {
        "Gazole": "2026-06-11 07:51:16",
        "SP95": "2026-06-11 07:51:16",
        "E85": "2026-06-11 07:51:16",
        "E10": "2026-06-11 07:51:16",
        "SP98": "2026-06-11 07:51:17"
      }
    },
    {
      "id": "95340003",
      "lat": 49.146,
      "lon": 2.282,
      "cp": "95340",
      "ville": "PERSAN",
      "prix": {
        "Gazole": 0.001999,
        "E10": 0.001929,
        "SP98": 0.0019890000000000003
      },
      "maj_gouv": {
        "Gazole": "2026-06-06 09:00:00",
        "E10": "2026-06-09 09:00:00",
        "SP98": "2026-06-04 09:00:00"
      }
    },
    {
      "id": "95260003",
      "lat": 49.138,
      "lon": 2.275,
      "cp": "95260",
      "ville": "Beaumont-sur-Oise",
      "prix": {
        "Gazole": 0.0019590000000000002,
        "E85": 0.0008219999999999999,
        "E10": 0.001928,
        "SP98": 0.00199
      },
      "maj_gouv": {
        "Gazole": "2026-06-12 00:01:00",
        "E85": "2026-06-12 00:01:00",
        "E10": "2026-06-12 00:01:00",
        "SP98": "2026-06-12 00:01:00"
      }
    },
    {
      "id": "95420003",
      "lat": 49.147,
      "lon": 1.787,
      "cp": "95420",
      "ville": "Magny-en-Vexin",
      "prix": {
        "Gazole": 0.0019890000000000003,
        "GPLc": 0.001049,
        "E10": 0.001939,
        "SP98": 0.002089
      },
      "maj_gouv": {
        "Gazole": "2026-06-09 08:25:39",
        "GPLc": "2026-05-26 11:08:29",
        "E10": "2026-06-09 08:25:39",
        "SP98": "2026-06-09 08:25:40"
      }
    },
    {
      "id": "95270001",
      "lat": 49.119,
      "lon": 2.427,
      "cp": "95270",
      "ville": "LUZARCHES",
      "prix": {
        "Gazole": 0.00202,
        "SP95": 0.002019,
        "SP98": 0.0020800000000000003
      },
      "maj_gouv": {
        "Gazole": "2026-06-08 15:39:01",
        "SP95": "2026-06-11 16:47:36",
        "SP98": "2026-06-11 16:47:36"
      }
    },
    {
      "id": "95170002",
      "lat": 48.961,
      "lon": 2.326,
      "cp": "95170",
      "ville": "Deuil-la-Barre",
      "prix": {
        "Gazole": 0.002011,
        "E10": 0.001968,
        "SP98": 0.002048
      },
      "maj_gouv": {
        "Gazole": "2026-06-12 06:31:00",
        "E10": "2026-06-12 06:31:00",
        "SP98": "2026-06-12 06:31:00"
      }
    },
    {
      "id": "95310003",
      "lat": 49.057,
      "lon": 2.124,
      "cp": "95310",
      "ville": "SAINT-OUEN-L'AUMONE",
      "prix": {
        "Gazole": 0.001975,
        "E85": 0.0007970000000000001,
        "E10": 0.001918,
        "SP98": 0.002011
      },
      "maj_gouv": {
        "Gazole": "2026-06-12 01:16:00",
        "E85": "2026-06-12 01:16:00",
        "E10": "2026-06-12 01:16:00",
        "SP98": "2026-06-12 01:16:00"
      }
    },
    {
      "id": "95230006",
      "lat": 48.978,
      "lon": 2.292,
      "cp": "95230",
      "ville": "Soisy-sous-Montmorency",
      "prix": {
        "Gazole": 0.002049,
        "E85": 0.000949,
        "E10": 0.0021379999999999997,
        "SP98": 0.0023079999999999997
      },
      "maj_gouv": {
        "Gazole": "2026-06-12 06:25:05",
        "E85": "2026-06-12 06:25:05",
        "E10": "2026-06-12 06:25:05",
        "SP98": "2026-06-12 06:25:05"
      }
    },
    {
      "id": "95712003",
      "lat": 49.0,
      "lon": 2.523,
      "cp": "95700",
      "ville": "Roissy-en-France",
      "prix": {
        "Gazole": 0.002077,
        "E85": 0.000862,
        "E10": 0.00199,
        "SP98": 0.00199
      },
      "maj_gouv": {
        "Gazole": "2026-06-12 00:01:00",
        "E85": "2026-06-12 00:01:00",
        "E10": "2026-06-12 00:01:00",
        "SP98": "2026-06-12 00:01:00"
      }
    },
    {
      "id": "95150002",
      "lat": 49.016,
      "lon": 2.207,
      "cp": "95150",
      "ville": "TAVERNY",
      "prix": {
        "Gazole": 0.00221,
        "SP95": 0.002075,
        "SP98": 0.00215
      },
      "maj_gouv": {
        "Gazole": "2026-06-11 07:29:10",
        "SP95": "2026-06-11 07:29:10",
        "SP98": "2026-06-11 07:29:10"
      }
    },
    {
      "id": "95120001",
      "lat": 48.987,
      "lon": 2.247,
      "cp": "95120",
      "ville": "ERMONT",
      "prix": {
        "Gazole": 0.001976,
        "GPLc": 0.000999,
        "E10": 0.00196,
        "SP98": 0.002036
      },
      "maj_gouv": {
        "Gazole": "2026-06-09 10:32:17",
        "GPLc": "2026-04-20 14:52:18",
        "E10": "2026-06-09 10:32:17",
        "SP98": "2026-06-08 14:46:23"
      }
    },
    {
      "id": "95270006",
      "lat": 49.123,
      "lon": 2.427,
      "cp": "95270",
      "ville": "CHAUMONTEL",
      "prix": {
        "Gazole": 0.001963,
        "GPLc": 0.000989,
        "E10": 0.001931,
        "SP98": 0.00199
      },
      "maj_gouv": {
        "Gazole": "2026-06-12 07:16:34",
        "GPLc": "2026-06-12 07:16:34",
        "E10": "2026-06-12 07:16:34",
        "SP98": "2026-06-12 07:16:34"
      }
    },
    {
      "id": "95330010",
      "lat": 49.028,
      "lon": 2.339,
      "cp": "95330",
      "ville": "Domont",
      "prix": {
        "Gazole": 0.002079,
        "E10": 0.00199,
        "SP98": 0.00199
      },
      "maj_gouv": {
        "Gazole": "2026-06-11 14:20:25",
        "E10": "2026-06-11 14:20:25",
        "SP98": "2026-06-11 14:20:25"
      }
    },
    {
      "id": "95270002",
      "lat": 49.137,
      "lon": 2.373,
      "cp": "95270",
      "ville": "VIARMES",
      "prix": {},
      "maj_gouv": {}
    }
  ]
}