{
  "departement": "36",
  "date": "2026-06-12",
  "stations": [
    {
      "id": "36140003",
      "lat": 46.437,
      "lon": 1.823,
      "cp": "36140",
      "ville": "Aigurande",
      "prix": {
        "Gazole": 0.002047,
        "E85": 0.000844,
        "E10": 0.0019890000000000003,
        "SP98": 0.00199
      },
      "maj_gouv": {
        "Gazole": "2026-06-11 08:49:30",
        "E85": "2026-06-11 08:49:30",
        "E10": "2026-06-11 08:49:31",
        "SP98": "2026-06-11 08:49:31"
      }
    },
    {
      "id": "49460001",
      "lat": 47.080830474100004,
      "lon": 1.34648212627,
      "cp": "36240",
      "ville": "ÉCUEILLé",
      "prix": {
        "Gazole": 0.001999,
        "SP95": 0.001975,
        "E10": 0.002139,
        "SP98": 0.0020350000000000004
      },
      "maj_gouv": {
        "Gazole": "2026-06-02 10:49:51",
        "SP95": "2026-06-11 09:52:58",
        "E10": "2026-05-20 10:33:11",
        "SP98": "2026-06-02 10:49:51"
      }
    },
    {
      "id": "36100003",
      "lat": 46.938,
      "lon": 1.947,
      "cp": "36100",
      "ville": "ISSOUDUN",
      "prix": {
        "Gazole": 0.00215,
        "E85": 0.00098
      },
      "maj_gouv": {
        "Gazole": "2026-06-05 08:43:59",
        "E85": "2026-06-05 08:43:59"
      }
    },
    {
      "id": "36300006",
      "lat": 46.631245939389004,
      "lon": 1.0788597263613,
      "cp": "36300",
      "ville": "LE BLANC",
      "prix": {
        "Gazole": 0.001968,
        "E10": 0.001957,
        "SP98": 0.002012
      },
      "maj_gouv": {
        "Gazole": "2026-06-11 12:02:32",
        "E10": "2026-06-11 12:02:32",
        "SP98": "2026-06-11 12:02:33"
      }
    },
    {
      "id": "36000001",
      "lat": 46.792611092366,
      "lon": 1.73781335853,
      "cp": "36330",
      "ville": "Châteauroux",
      "prix": {
        "Gazole": 0.0019790000000000003,
        "GPLc": 0.000989,
        "E10": 0.001929,
        "SP98": 0.002019
      },
      "maj_gouv": {
        "Gazole": "2026-06-11 09:20:18",
        "GPLc": "2026-06-10 09:32:56",
        "E10": "2026-06-08 09:15:54",
        "SP98": "2026-06-10 09:32:56"
      }
    },
    {
      "id": "36500002",
      "lat": 46.891,
      "lon": 1.427,
      "cp": "36500",
      "ville": "Buzançais",
      "prix": {
        "Gazole": 0.00214,
        "SP95": 0.00199
      },
      "maj_gouv": {
        "Gazole": "2026-06-05 08:48:47",
        "SP95": "2026-06-05 08:48:48"
      }
    },
    {
      "id": "36330001",
      "lat": 46.724,
      "lon": 1.604,
      "cp": "36330",
      "ville": "VELLES",
      "prix": {
        "Gazole": 0.0023250000000000002,
        "GPLc": 0.001108,
        "E10": 0.002333,
        "SP98": 0.002483
      },
      "maj_gouv": {
        "Gazole": "2026-06-11 09:30:00",
        "GPLc": "2026-06-11 09:30:00",
        "E10": "2026-06-11 09:30:00",
        "SP98": "2026-06-11 09:30:00"
      }
    },
    {
      "id": "36260002",
      "lat": 47.082943083663,
      "lon": 2.0456366937681,
      "cp": "36260",
      "ville": "Reuilly",
      "prix": {
        "Gazole": 0.001999,
        "SP95": 0.00198,
        "SP98": 0.002057
      },
      "maj_gouv": {
        "Gazole": "2026-06-11 13:30:59",
        "SP95": "2026-06-11 13:30:59",
        "SP98": "2026-06-11 13:30:59"
      }
    },
    {
      "id": "36400001",
      "lat": 46.582,
      "lon": 2.001,
      "cp": "36400",
      "ville": "LA CHâTRE",
      "prix": {
        "Gazole": 0.001999,
        "SP95": 0.0019850000000000002,
        "E85": 0.0008489999999999999,
        "GPLc": 0.0010860000000000002,
        "E10": 0.001938,
        "SP98": 0.002024
      },
      "maj_gouv": {
        "Gazole": "2026-06-05 07:45:09",
        "SP95": "2026-06-10 08:20:48",
        "E85": "2026-04-22 07:33:04",
        "GPLc": "2026-05-29 08:03:46",
        "E10": "2026-06-11 07:59:06",
        "SP98": "2026-06-10 08:20:49"
      }
    },
    {
      "id": "36200003",
      "lat": 46.604,
      "lon": 1.508,
      "cp": "36200",
      "ville": "Argenton-sur-Creuse",
      "prix": {
        "Gazole": 0.0020299999999999997,
        "E10": 0.0019450000000000001,
        "SP98": 0.002069
      },
      "maj_gouv": {
        "Gazole": "2026-06-10 06:50:07",
        "E10": "2026-06-05 09:36:14",
        "SP98": "2026-06-05 09:36:14"
      }
    },
    {
      "id": "36130001",
      "lat": 46.819,
      "lon": 1.746,
      "cp": "36130",
      "ville": "Déols",
      "prix": {
        "Gazole": 0.0020099999999999996,
        "SP95": 0.002006,
        "E10": 0.0019619999999999998,
        "SP98": 0.002085
      },
      "maj_gouv": {
        "Gazole": "2026-06-11 12:51:57",
        "SP95": "2026-06-11 12:51:57",
        "E10": "2026-06-11 12:51:57",
        "SP98": "2026-06-11 12:51:57"
      }
    },
    {
      "id": "36350002",
      "lat": 46.7135757278,
      "lon": 1.5902597578800002,
      "cp": "36350",
      "ville": "LUANT",
      "prix": {
        "Gazole": 0.002177,
        "E85": 0.000978,
        "GPLc": 0.0010580000000000001,
        "E10": 0.00199,
        "SP98": 0.00199
      },
      "maj_gouv": {
        "Gazole": "2026-06-12 00:01:00",
        "E85": "2026-06-12 00:01:00",
        "GPLc": "2026-06-12 00:01:00",
        "E10": "2026-06-12 00:01:00",
        "SP98": "2026-06-12 00:01:00"
      }
    },
    {
      "id": "36110004",
      "lat": 46.970725956194,
      "lon": 1.6151449236986,
      "cp": "36110",
      "ville": "LEVROUX",
      "prix": {
        "Gazole": 0.00225,
        "SP95": 0.00199
      },
      "maj_gouv": {
        "Gazole": "2026-05-26 07:40:16",
        "SP95": "2026-05-26 07:40:16"
      }
    },
    {
      "id": "36170001",
      "lat": 46.44388,
      "lon": 1.3953,
      "cp": "36170",
      "ville": "Saint-Benoît-du-Sault",
      "prix": {
        "Gazole": 0.001999,
        "SP95": 0.002024,
        "E10": 0.0019590000000000002,
        "SP98": 0.002054
      },
      "maj_gouv": {
        "Gazole": "2026-06-05 07:35:00",
        "SP95": "2026-06-03 09:15:51",
        "E10": "2026-06-05 07:35:00",
        "SP98": "2026-06-03 09:15:51"
      }
    },
    {
      "id": "36000010",
      "lat": 46.79952,
      "lon": 1.73367,
      "cp": "36000",
      "ville": "CHâTEAUROUX",
      "prix": {
        "Gazole": 0.001957,
        "SP95": 0.0019690000000000003,
        "E85": 0.000856,
        "E10": 0.0019219999999999999,
        "SP98": 0.002019
      },
      "maj_gouv": {
        "Gazole": "2026-06-11 19:45:00",
        "SP95": "2026-06-10 19:45:00",
        "E85": "2026-05-04 19:45:00",
        "E10": "2026-06-05 19:45:00",
        "SP98": "2026-06-09 19:45:00"
      }
    },
    {
      "id": "36230002",
      "lat": 46.59909,
      "lon": 1.77655,
      "cp": "36230",
      "ville": "Neuvy-Saint-Sépulchre",
      "prix": {
        "Gazole": 0.002379,
        "SP95": 0.002169,
        "SP98": 0.002219
      },
      "maj_gouv": {
        "Gazole": "2026-05-26 13:24:47",
        "SP95": "2026-05-26 13:24:48",
        "SP98": "2026-05-26 13:24:48"
      }
    },
    {
      "id": "36000014",
      "lat": 46.78833,
      "lon": 1.70326,
      "cp": "36000",
      "ville": "CHATEAUROUX",
      "prix": {
        "Gazole": 0.0019790000000000003,
        "SP95": 0.001981,
        "E10": 0.00191,
        "SP98": 0.0020499999999999997
      },
      "maj_gouv": {
        "Gazole": "2026-06-03 10:14:46",
        "SP95": "2026-06-11 14:10:00",
        "E10": "2026-06-11 14:10:00",
        "SP98": "2026-06-11 14:10:00"
      }
    },
    {
      "id": "36000003",
      "lat": 46.805,
      "lon": 1.674,
      "cp": "36000",
      "ville": "CHâTEAUROUX",
      "prix": {
        "Gazole": 0.002095,
        "SP95": 0.00209,
        "SP98": 0.002165
      },
      "maj_gouv": {
        "Gazole": "2026-06-10 11:22:53",
        "SP95": "2026-06-10 11:22:53",
        "SP98": "2026-06-10 11:22:54"
      }
    },
    {
      "id": "36150004",
      "lat": 47.102,
      "lon": 1.797,
      "cp": "36150",
      "ville": "Meunet-sur-Vatan",
      "prix": {
        "Gazole": 0.002579,
        "E10": 0.0022389999999999997
      },
      "maj_gouv": {
        "Gazole": "2026-04-21 06:27:23",
        "E10": "2026-04-21 06:27:22"
      }
    },
    {
      "id": "36150001",
      "lat": 47.06879,
      "lon": 1.80729,
      "cp": "36150",
      "ville": "VATAN",
      "prix": {
        "Gazole": 0.002059,
        "E10": 0.0019890000000000003,
        "SP98": 0.0021190000000000002
      },
      "maj_gouv": {
        "Gazole": "2026-06-09 15:45:26",
        "E10": "2026-06-09 15:45:26",
        "SP98": "2026-06-09 15:45:26"
      }
    },
    {
      "id": "36700002",
      "lat": 46.987,
      "lon": 1.169,
      "cp": "36700",
      "ville": "Châtillon-sur-Indre",
      "prix": {
        "Gazole": 0.0019890000000000003,
        "E85": 0.000809,
        "E10": 0.0019790000000000003,
        "SP98": 0.002049
      },
      "maj_gouv": {
        "Gazole": "2026-06-11 11:58:00",
        "E85": "2026-06-11 11:58:00",
        "E10": "2026-06-11 11:58:00",
        "SP98": "2026-06-11 11:58:00"
      }
    },
    {
      "id": "36600001",
      "lat": 47.143,
      "lon": 1.573,
      "cp": "36600",
      "ville": "Valençay",
      "prix": {
        "Gazole": 0.00218,
        "SP95": 0.00199
      },
      "maj_gouv": {
        "Gazole": "2026-06-09 12:12:49",
        "SP95": "2026-06-01 11:27:47"
      }
    },
    {
      "id": "36000009",
      "lat": 46.80612,
      "lon": 1.69604,
      "cp": "36000",
      "ville": "CHâTEAUROUX",
      "prix": {
        "Gazole": 0.001958,
        "E10": 0.001907,
        "SP98": 0.00199
      },
      "maj_gouv": {
        "Gazole": "2026-06-11 08:43:32",
        "E10": "2026-06-11 08:43:32",
        "SP98": "2026-06-11 08:43:32"
      }
    },
    {
      "id": "36800001",
      "lat": 46.639,
      "lon": 1.425,
      "cp": "36800",
      "ville": "SAINT-GAULTIER",
      "prix": {
        "Gazole": 0.002019,
        "SP95": 0.001999,
        "SP98": 0.002069
      },
      "maj_gouv": {
        "Gazole": "2026-06-10 08:58:29",
        "SP95": "2026-06-10 09:10:00",
        "SP98": "2026-06-10 09:10:00"
      }
    },
    {
      "id": "36250007",
      "lat": 46.78058,
      "lon": 1.65276,
      "cp": "36250",
      "ville": "Saint-Maur",
      "prix": {
        "Gazole": 0.0019590000000000002
      },
      "maj_gouv": {
        "Gazole": "2026-06-12 00:01:00"
      }
    },
    {
      "id": "36600002",
      "lat": 47.164,
      "lon": 1.559,
      "cp": "36600",
      "ville": "VALENçAY",
      "prix": {
        "Gazole": 0.002006,
        "SP95": 0.0019790000000000003,
        "SP98": 0.002029
      },
      "maj_gouv": {
        "Gazole": "2026-06-06 18:48:13",
        "SP95": "2026-06-05 10:48:21",
        "SP98": "2026-06-09 14:26:46"
      }
    },
    {
      "id": "36300004",
      "lat": 46.63843,
      "lon": 1.0621,
      "cp": "36300",
      "ville": "Le Blanc",
      "prix": {
        "Gazole": 0.001994,
        "E85": 0.0007740000000000001,
        "E10": 0.001944,
        "SP98": 0.002024
      },
      "maj_gouv": {
        "Gazole": "2026-06-04 10:01:20",
        "E85": "2026-06-10 08:36:58",
        "E10": "2026-06-10 08:36:58",
        "SP98": "2026-06-01 12:13:02"
      }
    },
    {
      "id": "36270001",
      "lat": 46.439,
      "lon": 1.582,
      "cp": "36270",
      "ville": "ÉGUZON-CHANTôME",
      "prix": {
        "Gazole": 0.001999,
        "SP95": 0.0019890000000000003,
        "E10": 0.001926,
        "SP98": 0.00202
      },
      "maj_gouv": {
        "Gazole": "2026-05-29 09:49:37",
        "SP95": "2026-05-29 09:49:37",
        "E10": "2026-05-29 09:49:37",
        "SP98": "2026-05-29 09:49:38"
      }
    },
    {
      "id": "36250006",
      "lat": 46.783,
      "lon": 1.651,
      "cp": "36250",
      "ville": "ST MAUR",
      "prix": {
        "Gazole": 0.001942,
        "SP95": 0.00196,
        "E10": 0.00191
      },
      "maj_gouv": {
        "Gazole": "2026-06-11 08:25:31",
        "SP95": "2026-06-11 08:25:31",
        "E10": "2026-06-11 08:25:32"
      }
    },
    {
      "id": "36110001",
      "lat": 46.973,
      "lon": 1.612,
      "cp": "36110",
      "ville": "LEVROUX",
      "prix": {
        "Gazole": 0.001999,
        "E85": 0.000875,
        "E10": 0.0019590000000000002,
        "SP98": 0.002049
      },
      "maj_gouv": {
        "Gazole": "2026-06-08 18:00:51",
        "E85": "2026-06-08 18:00:51",
        "E10": "2026-06-08 18:00:52",
        "SP98": "2026-06-08 18:00:52"
      }
    },
    {
      "id": "36200001",
      "lat": 46.575,
      "lon": 1.535,
      "cp": "36200",
      "ville": "LE PêCHEREAU",
      "prix": {
        "Gazole": 0.002043,
        "E10": 0.001932,
        "SP98": 0.002048
      },
      "maj_gouv": {
        "Gazole": "2026-06-08 16:00:44",
        "E10": "2026-06-08 16:00:45",
        "SP98": "2026-06-08 16:00:45"
      }
    },
    {
      "id": "36400006",
      "lat": 46.576,
      "lon": 1.961,
      "cp": "36400",
      "ville": "Montgivray",
      "prix": {
        "Gazole": 0.001999,
        "E10": 0.0019790000000000003,
        "SP98": 0.002039
      },
      "maj_gouv": {
        "Gazole": "2026-06-04 08:11:07",
        "E10": "2026-06-04 08:11:08",
        "SP98": "2026-06-04 08:11:08"
      }
    },
    {
      "id": "36100001",
      "lat": 46.9421,
      "lon": 1.98786,
      "cp": "36100",
      "ville": "Issoudun",
      "prix": {
        "Gazole": 0.0020299999999999997,
        "SP95": 0.0020099999999999996,
        "SP98": 0.002059
      },
      "maj_gouv": {
        "Gazole": "2026-06-06 09:37:45",
        "SP95": "2026-06-06 09:37:45",
        "SP98": "2026-06-06 09:37:45"
      }
    },
    {
      "id": "36250003",
      "lat": 46.820691597029,
      "lon": 1.6666549190433,
      "cp": "36250",
      "ville": "Saint-Maur",
      "prix": {
        "Gazole": 0.0019590000000000002,
        "E85": 0.0008209999999999999,
        "GPLc": 0.000989,
        "E10": 0.001932,
        "SP98": 0.00202
      },
      "maj_gouv": {
        "Gazole": "2026-06-11 08:45:52",
        "E85": "2026-06-11 08:45:52",
        "GPLc": "2026-06-11 08:45:52",
        "E10": "2026-06-11 08:45:52",
        "SP98": "2026-06-11 08:45:52"
      }
    },
    {
      "id": "36130004",
      "lat": 46.85027308094801,
      "lon": 1.7074160371734999,
      "cp": "36130",
      "ville": "Déols",
      "prix": {
        "Gazole": 0.0019850000000000002,
        "E85": 0.000851,
        "E10": 0.00195,
        "SP98": 0.00199
      },
      "maj_gouv": {
        "Gazole": "2026-06-12 00:01:00",
        "E85": "2026-06-12 00:01:00",
        "E10": "2026-06-12 00:01:00",
        "SP98": "2026-06-12 00:01:00"
      }
    },
    {
      "id": "36200002",
      "lat": 46.57643,
      "lon": 1.51152,
      "cp": "36200",
      "ville": "ARGENTON-SUR-CREUSE",
      "prix": {
        "Gazole": 0.001972,
        "E85": 0.000851,
        "E10": 0.001931,
        "SP98": 0.00199
      },
      "maj_gouv": {
        "Gazole": "2026-06-12 00:00:00",
        "E85": "2026-06-11 00:00:00",
        "E10": "2026-06-12 00:00:00",
        "SP98": "2026-06-12 00:00:00"
      }
    },
    {
      "id": "36210001",
      "lat": 47.248,
      "lon": 1.638,
      "cp": "36210",
      "ville": "CHABRIS",
      "prix": {
        "Gazole": 0.002,
        "SP95": 0.00199,
        "E10": 0.001935,
        "SP98": 0.0020350000000000004
      },
      "maj_gouv": {
        "Gazole": "2026-06-10 09:22:32",
        "SP95": "2026-06-10 09:22:32",
        "E10": "2026-06-10 09:22:32",
        "SP98": "2026-06-10 09:22:32"
      }
    },
    {
      "id": "36500003",
      "lat": 46.889,
      "lon": 1.402,
      "cp": "36500",
      "ville": "BUZANçAIS",
      "prix": {
        "Gazole": 0.001999,
        "E10": 0.001999,
        "SP98": 0.002099
      },
      "maj_gouv": {
        "Gazole": "2026-06-10 09:30:00",
        "E10": "2026-06-10 09:30:00",
        "SP98": "2026-06-10 09:30:00"
      }
    },
    {
      "id": "36500004",
      "lat": 46.89,
      "lon": 1.401,
      "cp": "36500",
      "ville": "BUZANCAIS",
      "prix": {
        "Gazole": 0.0019479999999999999,
        "E10": 0.001999,
        "SP98": 0.002099
      },
      "maj_gouv": {
        "Gazole": "2026-06-09 08:09:01",
        "E10": "2026-06-09 08:09:02",
        "SP98": "2026-06-09 08:09:02"
      }
    },
    {
      "id": "36400005",
      "lat": 46.58282,
      "lon": 1.99916,
      "cp": "36400",
      "ville": "La Châtre",
      "prix": {
        "Gazole": 0.00195,
        "E10": 0.0019,
        "SP98": 0.00199
      },
      "maj_gouv": {
        "Gazole": "2026-06-11 07:58:31",
        "E10": "2026-06-11 07:58:31",
        "SP98": "2026-06-11 07:58:31"
      }
    },
    {
      "id": "36400004",
      "lat": 46.574,
      "lon": 1.977,
      "cp": "36400",
      "ville": "LA CHâTRE",
      "prix": {
        "Gazole": 0.001999,
        "E85": 0.000798,
        "E10": 0.001938,
        "SP98": 0.002024
      },
      "maj_gouv": {
        "Gazole": "2026-06-10 09:10:41",
        "E85": "2026-05-14 08:58:03",
        "E10": "2026-06-11 09:49:41",
        "SP98": "2026-06-10 09:10:42"
      }
    },
    {
      "id": "36120001",
      "lat": 46.746,
      "lon": 1.846,
      "cp": "36120",
      "ville": "ARDENTES",
      "prix": {
        "Gazole": 0.002069,
        "E10": 0.001975,
        "SP98": 0.002105
      },
      "maj_gouv": {
        "Gazole": "2026-06-10 09:10:57",
        "E10": "2026-06-10 09:10:57",
        "SP98": "2026-06-10 09:10:57"
      }
    },
    {
      "id": "36000016",
      "lat": 46.79298,
      "lon": 1.71655,
      "cp": "36000",
      "ville": "CHATEAUROUX",
      "prix": {
        "Gazole": 0.0019619999999999998,
        "E85": 0.000859,
        "GPLc": 0.000984,
        "E10": 0.001923,
        "SP98": 0.00199
      },
      "maj_gouv": {
        "Gazole": "2026-06-12 00:01:00",
        "E85": "2026-06-12 00:01:00",
        "GPLc": "2026-06-12 00:01:00",
        "E10": "2026-06-12 00:01:00",
        "SP98": "2026-06-12 00:01:00"
      }
    },
    {
      "id": "36500005",
      "lat": 46.887979585666,
      "lon": 1.4343291894133,
      "cp": "36500",
      "ville": "buzancais",
      "prix": {
        "Gazole": 0.0020350000000000004,
        "SP95": 0.002045,
        "SP98": 0.0020819999999999996
      },
      "maj_gouv": {
        "Gazole": "2026-06-10 15:51:24",
        "SP95": "2026-06-10 15:51:24",
        "SP98": "2026-06-10 15:51:24"
      }
    },
    {
      "id": "36140002",
      "lat": 46.437,
      "lon": 1.827,
      "cp": "36140",
      "ville": "Aigurande",
      "prix": {
        "Gazole": 0.0019950000000000002,
        "E10": 0.001926,
        "SP98": 0.0020150000000000003
      },
      "maj_gouv": {
        "Gazole": "2026-06-10 09:13:24",
        "E10": "2026-06-03 16:47:21",
        "SP98": "2026-06-09 09:28:38"
      }
    },
    {
      "id": "36290002",
      "lat": 46.851,
      "lon": 1.143,
      "cp": "36290",
      "ville": "Paulnay",
      "prix": {
        "Gazole": 0.00212,
        "SP95": 0.00199
      },
      "maj_gouv": {
        "Gazole": "2026-04-28 16:46:50",
        "SP95": "2026-04-28 16:46:50"
      }
    },
    {
      "id": "36100006",
      "lat": 46.950608335328,
      "lon": 2.0073149682598,
      "cp": "36100",
      "ville": "ISSOUDUN",
      "prix": {
        "Gazole": 0.001999,
        "SP95": 0.001994,
        "E10": 0.001968,
        "SP98": 0.002039
      },
      "maj_gouv": {
        "Gazole": "2026-06-10 08:27:44",
        "SP95": "2026-06-10 08:27:45",
        "E10": "2026-06-10 08:27:45",
        "SP98": "2026-06-10 08:27:45"
      }
    },
    {
      "id": "36100002",
      "lat": 46.957,
      "lon": 2.003,
      "cp": "36100",
      "ville": "Issoudun",
      "prix": {
        "Gazole": 0.001999,
        "SP95": 0.001994,
        "E85": 0.000799,
        "GPLc": 0.001029,
        "E10": 0.001968,
        "SP98": 0.002039
      },
      "maj_gouv": {
        "Gazole": "2026-06-10 08:27:11",
        "SP95": "2026-06-10 08:27:11",
        "E85": "2026-06-02 08:33:58",
        "GPLc": "2026-04-28 14:16:29",
        "E10": "2026-06-10 08:27:11",
        "SP98": "2026-06-10 08:27:11"
      }
    },
    {
      "id": "36700001",
      "lat": 46.991,
      "lon": 1.167,
      "cp": "36700",
      "ville": "Châtillon-sur-Indre",
      "prix": {
        "Gazole": 0.002089,
        "E10": 0.00199,
        "SP98": 0.00199
      },
      "maj_gouv": {
        "Gazole": "2026-06-11 07:58:27",
        "E10": "2026-05-30 07:38:22",
        "SP98": "2026-06-08 07:35:00"
      }
    }
  ]
}