{
  "departement": "45",
  "date": "2026-05-03",
  "stations": [
    {
      "id": "45100008",
      "lat": 47.84264,
      "lon": 1.92524,
      "cp": "45100",
      "ville": "Orléans",
      "prix": {
        "Gazole": 0.00209,
        "E85": 0.000839,
        "E10": 0.00199
      },
      "maj_gouv": {
        "Gazole": "2026-05-03 00:01:00",
        "E85": "2026-05-03 00:01:00",
        "E10": "2026-05-03 00:01:00"
      }
    },
    {
      "id": "45190003",
      "lat": 47.766,
      "lon": 1.612,
      "cp": "45190",
      "ville": "TAVERS",
      "prix": {
        "Gazole": 0.002145,
        "E85": 0.000759,
        "GPLc": 0.001059,
        "E10": 0.0019890000000000003,
        "SP98": 0.002049
      },
      "maj_gouv": {
        "Gazole": "2026-05-02 08:54:45",
        "E85": "2026-05-02 08:54:45",
        "GPLc": "2026-05-02 08:54:45",
        "E10": "2026-05-02 08:54:45",
        "SP98": "2026-05-02 08:54:45"
      }
    },
    {
      "id": "45320005",
      "lat": 48.041,
      "lon": 3.063,
      "cp": "45320",
      "ville": "Courtenay",
      "prix": {
        "Gazole": 0.00235,
        "E85": 0.00109,
        "E10": 0.00218,
        "SP98": 0.00222
      },
      "maj_gouv": {
        "Gazole": "2026-04-28 23:55:00",
        "E85": "2026-04-21 23:55:00",
        "E10": "2026-04-28 23:55:00",
        "SP98": "2026-04-28 23:55:00"
      }
    },
    {
      "id": "45410001",
      "lat": 48.082,
      "lon": 1.867,
      "cp": "45410",
      "ville": "Artenay",
      "prix": {
        "Gazole": 0.002179,
        "E85": 0.0008179999999999999,
        "E10": 0.001965,
        "SP98": 0.002069
      },
      "maj_gouv": {
        "Gazole": "2026-04-29 16:05:45",
        "E85": "2026-04-20 07:44:39",
        "E10": "2026-04-29 16:05:45",
        "SP98": "2026-04-29 16:05:45"
      }
    },
    {
      "id": "45320004",
      "lat": 48.037,
      "lon": 3.047,
      "cp": "45320",
      "ville": "Courtenay",
      "prix": {
        "Gazole": 0.002109,
        "E10": 0.002049,
        "SP98": 0.002159
      },
      "maj_gouv": {
        "Gazole": "2026-04-30 11:34:52",
        "E10": "2026-04-30 11:34:52",
        "SP98": "2026-04-30 11:34:52"
      }
    },
    {
      "id": "45340001",
      "lat": 48.065,
      "lon": 2.421,
      "cp": "45340",
      "ville": "BEAUNE-LA-ROLANDE",
      "prix": {
        "Gazole": 0.002145,
        "E85": 0.0008489999999999999,
        "E10": 0.0019790000000000003,
        "SP98": 0.002062
      },
      "maj_gouv": {
        "Gazole": "2026-04-30 15:21:37",
        "E85": "2026-05-02 07:35:00",
        "E10": "2026-04-30 15:21:37",
        "SP98": "2026-04-30 15:21:37"
      }
    },
    {
      "id": "45750002",
      "lat": 47.8800466,
      "lon": 1.8700648000000002,
      "cp": "45750",
      "ville": "Saint-Pryvé-Saint-Mesmin",
      "prix": {
        "Gazole": 0.002159,
        "SP95": 0.002025,
        "E10": 0.0019890000000000003,
        "SP98": 0.002089
      },
      "maj_gouv": {
        "Gazole": "2026-04-30 09:35:53",
        "SP95": "2026-04-30 09:35:53",
        "E10": "2026-04-30 09:35:54",
        "SP98": "2026-04-30 09:35:54"
      }
    },
    {
      "id": "45290003",
      "lat": 47.852,
      "lon": 2.684,
      "cp": "45290",
      "ville": "VARENNES CHANGY",
      "prix": {
        "Gazole": 0.002399,
        "GPLc": 0.001339,
        "E10": 0.002229,
        "SP98": 0.002379
      },
      "maj_gouv": {
        "Gazole": "2026-05-03 06:27:21",
        "GPLc": "2026-05-03 06:27:21",
        "E10": "2026-05-03 06:27:21",
        "SP98": "2026-05-03 06:27:21"
      }
    },
    {
      "id": "45200008",
      "lat": 47.978,
      "lon": 2.76,
      "cp": "45200",
      "ville": "Amilly",
      "prix": {
        "Gazole": 0.00209,
        "E10": 0.00199
      },
      "maj_gouv": {
        "Gazole": "2026-04-30 19:39:42",
        "E10": "2026-04-30 19:39:42"
      }
    },
    {
      "id": "45330002",
      "lat": 48.296,
      "lon": 2.393,
      "cp": "45330",
      "ville": "MALESHERBES",
      "prix": {
        "Gazole": 0.002169,
        "SP95": 0.002079,
        "SP98": 0.002129
      },
      "maj_gouv": {
        "Gazole": "2026-04-30 10:13:26",
        "SP95": "2026-04-30 10:13:26",
        "SP98": "2026-04-30 10:13:26"
      }
    },
    {
      "id": "45240001",
      "lat": 47.72163454,
      "lon": 1.9443604804399999,
      "cp": "45240",
      "ville": "LA FERTé-SAINT-AUBIN",
      "prix": {
        "Gazole": 0.002139,
        "SP95": 0.002029,
        "SP98": 0.002049
      },
      "maj_gouv": {
        "Gazole": "2026-04-28 16:18:47",
        "SP95": "2026-04-28 16:18:47",
        "SP98": "2026-04-28 16:18:47"
      }
    },
    {
      "id": "45400004",
      "lat": 47.944,
      "lon": 1.916,
      "cp": "45400",
      "ville": "FLEURY-LES-AUBRAIS",
      "prix": {
        "Gazole": 0.00211,
        "E85": 0.000755,
        "GPLc": 0.0009809999999999999,
        "E10": 0.001965,
        "SP98": 0.002029
      },
      "maj_gouv": {
        "Gazole": "2026-05-03 01:17:00",
        "E85": "2026-05-03 01:17:00",
        "GPLc": "2026-05-03 01:17:00",
        "E10": "2026-05-03 01:17:00",
        "SP98": "2026-05-03 01:17:00"
      }
    },
    {
      "id": "45800007",
      "lat": 47.919,
      "lon": 1.982,
      "cp": "45800",
      "ville": "SAINT-JEAN-DE-BRAYE",
      "prix": {
        "Gazole": 0.0022389999999999997,
        "E10": 0.002089,
        "SP98": 0.0022389999999999997
      },
      "maj_gouv": {
        "Gazole": "2026-05-01 18:00:59",
        "E10": "2026-05-01 18:00:59",
        "SP98": "2026-05-01 18:00:59"
      }
    },
    {
      "id": "45770003",
      "lat": 47.948718,
      "lon": 1.8437720000000002,
      "cp": "45770",
      "ville": "SARAN",
      "prix": {
        "Gazole": 0.002458
      },
      "maj_gouv": {
        "Gazole": "2026-05-01 00:00:00"
      }
    },
    {
      "id": "45200001",
      "lat": 47.974,
      "lon": 2.734,
      "cp": "45200",
      "ville": "Amilly",
      "prix": {
        "Gazole": 0.00214,
        "E10": 0.001967,
        "SP98": 0.0021000000000000003
      },
      "maj_gouv": {
        "Gazole": "2026-04-28 08:46:25",
        "E10": "2026-04-28 08:46:25",
        "SP98": "2026-04-28 08:46:25"
      }
    },
    {
      "id": "45120002",
      "lat": 48.007,
      "lon": 2.723,
      "cp": "45120",
      "ville": "CHâLETTE-SUR-LOING",
      "prix": {
        "Gazole": 0.002159,
        "E85": 0.0008179999999999999,
        "E10": 0.001999,
        "SP98": 0.002089
      },
      "maj_gouv": {
        "Gazole": "2026-04-29 06:47:16",
        "E85": "2026-04-28 08:52:32",
        "E10": "2026-05-02 07:45:42",
        "SP98": "2026-05-02 07:45:43"
      }
    },
    {
      "id": "45200006",
      "lat": 47.99,
      "lon": 2.77,
      "cp": "45200",
      "ville": "AMILLY",
      "prix": {
        "Gazole": 0.002139,
        "E85": 0.0008179999999999999,
        "E10": 0.0019690000000000003,
        "SP98": 0.002079
      },
      "maj_gouv": {
        "Gazole": "2026-04-30 18:18:45",
        "E85": "2026-04-16 10:11:04",
        "E10": "2026-04-30 18:18:45",
        "SP98": "2026-04-30 18:18:45"
      }
    },
    {
      "id": "45520003",
      "lat": 47.98,
      "lon": 1.856,
      "cp": "45520",
      "ville": "GIDY",
      "prix": {
        "Gazole": 0.00209,
        "E85": 0.000999,
        "GPLc": 0.001089,
        "E10": 0.00199,
        "SP98": 0.00199
      },
      "maj_gouv": {
        "Gazole": "2026-05-02 09:00:00",
        "E85": "2026-05-02 09:00:00",
        "GPLc": "2026-05-02 09:00:00",
        "E10": "2026-05-02 09:00:00",
        "SP98": "2026-05-02 09:00:00"
      }
    },
    {
      "id": "45140008",
      "lat": 47.965843,
      "lon": 1.7821920000000002,
      "cp": "45140",
      "ville": "ORMES",
      "prix": {
        "Gazole": 0.00209
      },
      "maj_gouv": {
        "Gazole": "2026-04-30 23:59:00"
      }
    },
    {
      "id": "45250001",
      "lat": 47.6247314093,
      "lon": 2.75059473298,
      "cp": "45250",
      "ville": "BRIARE",
      "prix": {
        "Gazole": 0.002199,
        "SP95": 0.002039,
        "SP98": 0.002099
      },
      "maj_gouv": {
        "Gazole": "2026-04-29 08:08:59",
        "SP95": "2026-04-29 08:09:00",
        "SP98": "2026-04-29 08:09:00"
      }
    },
    {
      "id": "45300007",
      "lat": 48.161720599323,
      "lon": 2.2576424704191997,
      "cp": "45300",
      "ville": "Dadonville",
      "prix": {
        "Gazole": 0.002149,
        "E10": 0.0019790000000000003,
        "SP98": 0.002099
      },
      "maj_gouv": {
        "Gazole": "2026-04-27 12:35:53",
        "E10": "2026-04-29 12:37:54",
        "SP98": "2026-04-27 12:35:53"
      }
    },
    {
      "id": "45630001",
      "lat": 47.541,
      "lon": 2.815,
      "cp": "45630",
      "ville": "Beaulieu-sur-Loire",
      "prix": {
        "Gazole": 0.00225,
        "SP95": 0.00199
      },
      "maj_gouv": {
        "Gazole": "2026-04-30 14:36:06",
        "SP95": "2026-04-30 14:36:06"
      }
    },
    {
      "id": "45240003",
      "lat": 47.706857,
      "lon": 1.9442720000000002,
      "cp": "45240",
      "ville": "La Ferté Saint Aubin",
      "prix": {
        "Gazole": 0.002139,
        "E85": 0.0007289999999999999,
        "GPLc": 0.001059,
        "E10": 0.0019590000000000002,
        "SP98": 0.002049
      },
      "maj_gouv": {
        "Gazole": "2026-04-25 07:08:24",
        "E85": "2026-04-10 15:20:50",
        "GPLc": "2026-04-21 06:00:00",
        "E10": "2026-04-30 15:21:25",
        "SP98": "2026-04-30 15:26:39"
      }
    },
    {
      "id": "45220001",
      "lat": 47.932194146739,
      "lon": 2.9237745165718,
      "cp": "45220",
      "ville": "Château-Renard",
      "prix": {
        "Gazole": 0.002189,
        "E10": 0.001999,
        "SP98": 0.00211
      },
      "maj_gouv": {
        "Gazole": "2026-04-29 07:53:50",
        "E10": "2026-04-29 07:53:51",
        "SP98": "2026-04-29 07:53:51"
      }
    },
    {
      "id": "45500010",
      "lat": 47.69135585,
      "lon": 2.6310189276563998,
      "cp": "45500",
      "ville": "Gien",
      "prix": {
        "Gazole": 0.00219,
        "SP95": 0.002053,
        "SP98": 0.002128
      },
      "maj_gouv": {
        "Gazole": "2026-04-30 10:53:49",
        "SP95": "2026-04-30 10:53:49",
        "SP98": "2026-04-30 10:53:49"
      }
    },
    {
      "id": "45500007",
      "lat": 47.707,
      "lon": 2.638,
      "cp": "45500",
      "ville": "GIEN",
      "prix": {
        "Gazole": 0.002159,
        "E10": 0.001999,
        "SP98": 0.002099
      },
      "maj_gouv": {
        "Gazole": "2026-05-02 08:13:02",
        "E10": "2026-05-02 08:13:02",
        "SP98": "2026-05-02 08:13:02"
      }
    },
    {
      "id": "45480002",
      "lat": 48.161124593692996,
      "lon": 2.0518201447943003,
      "cp": "45480",
      "ville": "BAZOCHES LES GALLERANDES",
      "prix": {
        "Gazole": 0.002199,
        "E10": 0.001998,
        "SP98": 0.002132
      },
      "maj_gouv": {
        "Gazole": "2026-04-20 13:25:07",
        "E10": "2026-05-02 15:42:36",
        "SP98": "2026-05-02 15:42:36"
      }
    },
    {
      "id": "45330004",
      "lat": 48.292,
      "lon": 2.398,
      "cp": "45330",
      "ville": "MALESHERBES",
      "prix": {
        "Gazole": 0.002124,
        "E10": 0.00196,
        "SP98": 0.002065
      },
      "maj_gouv": {
        "Gazole": "2026-04-30 06:49:03",
        "E10": "2026-04-30 06:49:03",
        "SP98": "2026-04-30 06:49:03"
      }
    },
    {
      "id": "45330003",
      "lat": 48.2922,
      "lon": 2.39735,
      "cp": "45330",
      "ville": "MALESHERBES",
      "prix": {
        "Gazole": 0.002124,
        "E85": 0.0008179999999999999,
        "E10": 0.00196,
        "SP98": 0.002065
      },
      "maj_gouv": {
        "Gazole": "2026-04-30 08:36:36",
        "E85": "2026-04-24 09:00:48",
        "E10": "2026-04-30 08:36:36",
        "SP98": "2026-04-30 08:36:36"
      }
    },
    {
      "id": "45400005",
      "lat": 47.923,
      "lon": 1.908,
      "cp": "45400",
      "ville": "FLEURY-LES-AUBRAIS",
      "prix": {
        "Gazole": 0.002169,
        "E85": 0.0008179999999999999,
        "E10": 0.0019890000000000003,
        "SP98": 0.002059
      },
      "maj_gouv": {
        "Gazole": "2026-04-30 08:57:26",
        "E85": "2026-04-23 19:33:45",
        "E10": "2026-04-29 11:31:28",
        "SP98": "2026-04-21 10:08:10"
      }
    },
    {
      "id": "45370002",
      "lat": 47.749,
      "lon": 1.813,
      "cp": "45370",
      "ville": "JOUY LE POTIER",
      "prix": {
        "Gazole": 0.002225,
        "E85": 0.000819,
        "E10": 0.001999,
        "SP98": 0.002129
      },
      "maj_gouv": {
        "Gazole": "2026-04-30 19:05:43",
        "E85": "2026-04-30 19:05:43",
        "E10": "2026-04-30 19:05:43",
        "SP98": "2026-04-30 19:05:43"
      }
    },
    {
      "id": "45390002",
      "lat": 48.198,
      "lon": 2.47,
      "cp": "45390",
      "ville": "PUISEAUX",
      "prix": {
        "Gazole": 0.002159,
        "E85": 0.0008179999999999999,
        "E10": 0.001999,
        "SP98": 0.002109
      },
      "maj_gouv": {
        "Gazole": "2026-04-30 15:21:31",
        "E85": "2026-04-27 09:15:08",
        "E10": "2026-04-30 15:21:31",
        "SP98": "2026-04-30 15:21:32"
      }
    },
    {
      "id": "45680003",
      "lat": 48.144,
      "lon": 2.772,
      "cp": "45680",
      "ville": "Dordives",
      "prix": {
        "Gazole": 0.002149,
        "E10": 0.002009,
        "SP98": 0.0021190000000000002
      },
      "maj_gouv": {
        "Gazole": "2026-04-24 07:45:51",
        "E10": "2026-04-24 07:45:52",
        "SP98": "2026-04-24 07:45:52"
      }
    },
    {
      "id": "45170001",
      "lat": 48.071,
      "lon": 2.058,
      "cp": "45170",
      "ville": "NEUVILLE-AUX-BOIS",
      "prix": {
        "Gazole": 0.002179,
        "E85": 0.000789,
        "E10": 0.001965,
        "SP98": 0.002029
      },
      "maj_gouv": {
        "Gazole": "2026-05-02 19:12:11",
        "E85": "2026-04-14 10:42:56",
        "E10": "2026-04-30 06:57:25",
        "SP98": "2026-04-30 06:57:25"
      }
    },
    {
      "id": "45400001",
      "lat": 47.927,
      "lon": 1.92,
      "cp": "45400",
      "ville": "FLEURY-LES-AUBRAIS",
      "prix": {
        "Gazole": 0.002199,
        "SP95": 0.002049,
        "SP98": 0.002069
      },
      "maj_gouv": {
        "Gazole": "2026-04-21 09:29:49",
        "SP95": "2026-04-21 09:29:49",
        "SP98": "2026-04-21 09:29:49"
      }
    },
    {
      "id": "45260001",
      "lat": 47.88493,
      "lon": 2.50202,
      "cp": "45260",
      "ville": "Lorris",
      "prix": {
        "Gazole": 0.002159,
        "SP95": 0.002049,
        "E85": 0.000819,
        "E10": 0.0019890000000000003,
        "SP98": 0.002099
      },
      "maj_gouv": {
        "Gazole": "2026-04-30 06:52:04",
        "SP95": "2026-04-30 06:52:04",
        "E85": "2026-04-30 06:52:04",
        "E10": "2026-04-30 06:52:05",
        "SP98": "2026-04-30 06:52:05"
      }
    },
    {
      "id": "45100004",
      "lat": 47.888,
      "lon": 1.894,
      "cp": "45100",
      "ville": "ORLéANS",
      "prix": {
        "Gazole": 0.002205,
        "SP95": 0.002029,
        "SP98": 0.002125
      },
      "maj_gouv": {
        "Gazole": "2026-04-28 08:35:37",
        "SP95": "2026-04-28 08:35:37",
        "SP98": "2026-04-28 08:35:37"
      }
    },
    {
      "id": "45140001",
      "lat": 47.902,
      "lon": 1.859,
      "cp": "45140",
      "ville": "SAINT-JEAN-DE-LA-RUELLE",
      "prix": {
        "Gazole": 0.00211,
        "E85": 0.000755,
        "GPLc": 0.0009809999999999999,
        "SP98": 0.002065
      },
      "maj_gouv": {
        "Gazole": "2026-05-02 11:47:06",
        "E85": "2026-04-28 13:04:55",
        "GPLc": "2026-04-15 12:45:12",
        "SP98": "2026-04-29 11:59:00"
      }
    },
    {
      "id": "45420002",
      "lat": 47.57234,
      "lon": 2.829798,
      "cp": "45420",
      "ville": "BONNY-SUR-LOIRE",
      "prix": {
        "Gazole": 0.002179,
        "SP95": 0.002049,
        "E85": 0.000755,
        "E10": 0.001999,
        "SP98": 0.002069
      },
      "maj_gouv": {
        "Gazole": "2026-05-02 08:38:27",
        "SP95": "2026-05-02 08:38:27",
        "E85": "2026-04-22 08:35:14",
        "E10": "2026-05-02 08:38:27",
        "SP98": "2026-05-02 08:38:28"
      }
    },
    {
      "id": "45470001",
      "lat": 47.993408042400006,
      "lon": 2.08026935079,
      "cp": "45470",
      "ville": "LOURY",
      "prix": {
        "Gazole": 0.002179,
        "E85": 0.000789,
        "E10": 0.001965,
        "SP98": 0.002029
      },
      "maj_gouv": {
        "Gazole": "2026-05-02 19:13:04",
        "E85": "2026-04-14 10:43:23",
        "E10": "2026-04-28 08:19:38",
        "SP98": "2026-04-24 11:35:59"
      }
    },
    {
      "id": "45300006",
      "lat": 48.171,
      "lon": 2.236,
      "cp": "45300",
      "ville": "Pithiviers-le-Vieil",
      "prix": {
        "Gazole": 0.0021469999999999996,
        "GPLc": 0.001099,
        "E10": 0.0019790000000000003,
        "SP98": 0.0020870000000000003
      },
      "maj_gouv": {
        "Gazole": "2026-04-30 09:08:20",
        "GPLc": "2026-04-30 11:43:27",
        "E10": "2026-04-30 09:08:21",
        "SP98": "2026-04-30 09:08:21"
      }
    },
    {
      "id": "45160006",
      "lat": 47.841,
      "lon": 1.914,
      "cp": "45160",
      "ville": "OLIVET",
      "prix": {
        "Gazole": 0.00209,
        "GPLc": 0.001001
      },
      "maj_gouv": {
        "Gazole": "2026-05-03 00:01:00",
        "GPLc": "2026-05-03 00:01:00"
      }
    },
    {
      "id": "45190014",
      "lat": 47.819107954506,
      "lon": 1.6414407471436,
      "cp": "45190",
      "ville": "Messas",
      "prix": {
        "Gazole": 0.0022400000000000002,
        "GPLc": 0.001054,
        "E10": 0.0020499999999999997,
        "SP98": 0.0021000000000000003
      },
      "maj_gouv": {
        "Gazole": "2026-04-27 09:20:54",
        "GPLc": "2024-11-19 09:23:27",
        "E10": "2026-04-27 16:15:14",
        "SP98": "2026-04-27 16:15:14"
      }
    },
    {
      "id": "45110001",
      "lat": 47.876,
      "lon": 2.23,
      "cp": "45110",
      "ville": "Châteauneuf-sur-Loire",
      "prix": {
        "Gazole": 0.002109,
        "E85": 0.000789,
        "E10": 0.001965,
        "SP98": 0.002029
      },
      "maj_gouv": {
        "Gazole": "2026-04-27 11:00:57",
        "E85": "2026-04-16 10:57:09",
        "E10": "2026-04-27 11:00:57",
        "SP98": "2026-04-27 11:00:57"
      }
    },
    {
      "id": "45200004",
      "lat": 47.978,
      "lon": 2.733,
      "cp": "45200",
      "ville": "Amilly",
      "prix": {
        "Gazole": 0.002137,
        "SP95": 0.002034,
        "E85": 0.000809,
        "E10": 0.001965,
        "SP98": 0.002077
      },
      "maj_gouv": {
        "Gazole": "2026-05-02 10:32:28",
        "SP95": "2026-05-02 10:32:28",
        "E85": "2026-05-02 10:32:28",
        "E10": "2026-05-02 10:32:28",
        "SP98": "2026-05-02 10:32:29"
      }
    },
    {
      "id": "45650001",
      "lat": 47.87568,
      "lon": 1.9348,
      "cp": "45650",
      "ville": "SAINT-JEAN-LE-BLANC",
      "prix": {
        "Gazole": 0.002161,
        "E10": 0.001999,
        "SP98": 0.0021000000000000003
      },
      "maj_gouv": {
        "Gazole": "2026-04-29 15:44:32",
        "E10": "2026-04-28 07:51:26",
        "SP98": "2026-04-29 15:44:32"
      }
    },
    {
      "id": "45800008",
      "lat": 47.91458,
      "lon": 1.96581,
      "cp": "45800",
      "ville": "Saint-Jean-de-Braye",
      "prix": {},
      "maj_gouv": {}
    },
    {
      "id": "45240002",
      "lat": 47.718,
      "lon": 1.941,
      "cp": "45240",
      "ville": "La Ferté-Saint-Aubin",
      "prix": {
        "Gazole": 0.002139,
        "E10": 0.001949,
        "SP98": 0.002049
      },
      "maj_gouv": {
        "Gazole": "2026-04-30 16:48:29",
        "E10": "2026-04-30 16:48:29",
        "SP98": "2026-04-30 16:48:29"
      }
    },
    {
      "id": "45160001",
      "lat": 47.869,
      "lon": 1.911,
      "cp": "45160",
      "ville": "OLIVET",
      "prix": {
        "Gazole": 0.002179,
        "E85": 0.000728,
        "GPLc": 0.0009809999999999999,
        "E10": 0.001999,
        "SP98": 0.0021000000000000003
      },
      "maj_gouv": {
        "Gazole": "2026-05-02 11:23:56",
        "E85": "2026-05-02 11:23:56",
        "GPLc": "2026-05-02 11:23:56",
        "E10": "2026-05-02 11:23:56",
        "SP98": "2026-05-02 11:23:56"
      }
    },
    {
      "id": "45400006",
      "lat": 47.93,
      "lon": 1.897,
      "cp": "45400",
      "ville": "Fleury-les-Aubrais",
      "prix": {
        "Gazole": 0.00209,
        "SP95": 0.00199,
        "E85": 0.000852,
        "GPLc": 0.001029,
        "E10": 0.00199
      },
      "maj_gouv": {
        "Gazole": "2026-05-03 00:01:00",
        "SP95": "2026-04-22 09:20:53",
        "E85": "2026-05-03 00:01:00",
        "GPLc": "2026-05-03 00:01:00",
        "E10": "2026-05-03 00:01:00"
      }
    },
    {
      "id": "45500008",
      "lat": 47.698,
      "lon": 2.632,
      "cp": "45500",
      "ville": "GIEN",
      "prix": {
        "Gazole": 0.00209,
        "E85": 0.000829,
        "E10": 0.00199
      },
      "maj_gouv": {
        "Gazole": "2026-05-03 00:01:00",
        "E85": "2026-05-03 00:01:00",
        "E10": "2026-05-03 00:01:00"
      }
    },
    {
      "id": "45570001",
      "lat": 47.77782,
      "lon": 2.46292,
      "cp": "45570",
      "ville": "Ouzouer-sur-Loire",
      "prix": {
        "Gazole": 0.002159,
        "E85": 0.000819,
        "E10": 0.0019890000000000003,
        "SP98": 0.002099
      },
      "maj_gouv": {
        "Gazole": "2026-04-30 18:33:39",
        "E85": "2026-04-28 09:21:57",
        "E10": "2026-04-30 18:33:40",
        "SP98": "2026-04-28 09:21:58"
      }
    },
    {
      "id": "45420001",
      "lat": 47.557,
      "lon": 2.843,
      "cp": "45420",
      "ville": "Bonny-sur-Loire",
      "prix": {
        "Gazole": 0.0022890000000000002,
        "SP95": 0.002199,
        "SP98": 0.002199
      },
      "maj_gouv": {
        "Gazole": "2026-04-23 00:00:00",
        "SP95": "2026-04-15 00:00:00",
        "SP98": "2026-04-15 00:00:00"
      }
    },
    {
      "id": "45430004",
      "lat": 47.906,
      "lon": 2.036,
      "cp": "45430",
      "ville": "Chécy",
      "prix": {
        "Gazole": 0.002179,
        "E85": 0.000755,
        "GPLc": 0.000989,
        "E10": 0.0019890000000000003,
        "SP98": 0.002029
      },
      "maj_gouv": {
        "Gazole": "2026-05-02 13:32:57",
        "E85": "2026-04-25 09:55:26",
        "GPLc": "2026-04-17 09:35:44",
        "E10": "2026-05-02 13:32:57",
        "SP98": "2026-04-25 09:55:27"
      }
    },
    {
      "id": "45120008",
      "lat": 48.008,
      "lon": 2.74,
      "cp": "45120",
      "ville": "Châlette-sur-Loing",
      "prix": {
        "Gazole": 0.0022949999999999997,
        "E85": 0.000889,
        "E10": 0.0020169999999999997,
        "SP98": 0.002129
      },
      "maj_gouv": {
        "Gazole": "2026-04-28 09:30:37",
        "E85": "2026-04-29 11:17:17",
        "E10": "2026-04-28 08:56:59",
        "SP98": "2026-04-28 08:56:59"
      }
    },
    {
      "id": "45360005",
      "lat": 47.587,
      "lon": 2.758,
      "cp": "45360",
      "ville": "Châtillon-sur-Loire",
      "prix": {
        "Gazole": 0.00219,
        "SP95": 0.0019950000000000002,
        "SP98": 0.002049
      },
      "maj_gouv": {
        "Gazole": "2026-04-21 12:21:33",
        "SP95": "2026-04-21 12:27:20",
        "SP98": "2026-04-21 12:27:20"
      }
    },
    {
      "id": "45150001",
      "lat": 47.865,
      "lon": 2.126,
      "cp": "45150",
      "ville": "Jargeau",
      "prix": {
        "Gazole": 0.002179,
        "E10": 0.001999,
        "SP98": 0.002099
      },
      "maj_gouv": {
        "Gazole": "2026-04-30 14:04:18",
        "E10": "2026-04-30 14:04:18",
        "SP98": "2026-04-30 14:04:18"
      }
    },
    {
      "id": "45290001",
      "lat": 47.845,
      "lon": 2.742,
      "cp": "45290",
      "ville": "Nogent-sur-Vernisson",
      "prix": {
        "Gazole": 0.0022890000000000002,
        "SP95": 0.002099,
        "E10": 0.002079,
        "SP98": 0.002199
      },
      "maj_gouv": {
        "Gazole": "2026-04-23 00:00:00",
        "SP95": "2026-04-15 00:00:00",
        "E10": "2026-04-15 00:00:00",
        "SP98": "2026-04-15 00:00:00"
      }
    },
    {
      "id": "45510002",
      "lat": 47.80104,
      "lon": 2.13956,
      "cp": "45510",
      "ville": "VIENNE-EN-VAL",
      "prix": {
        "Gazole": 0.002182,
        "E10": 0.001956,
        "SP98": 0.0020670000000000003
      },
      "maj_gouv": {
        "Gazole": "2026-04-24 09:52:33",
        "E10": "2026-04-24 09:52:33",
        "SP98": "2026-04-24 09:52:34"
      }
    },
    {
      "id": "45800001",
      "lat": 47.905347653244,
      "lon": 1.9430645140335,
      "cp": "45800",
      "ville": "Saint-Jean-de-Braye",
      "prix": {
        "Gazole": 0.002121,
        "E85": 0.000755,
        "E10": 0.001975,
        "SP98": 0.002063
      },
      "maj_gouv": {
        "Gazole": "2026-04-30 09:13:56",
        "E85": "2026-04-27 09:34:24",
        "E10": "2026-04-27 09:34:24",
        "SP98": "2026-04-30 09:13:57"
      }
    },
    {
      "id": "45210005",
      "lat": 48.093,
      "lon": 2.802,
      "cp": "45210",
      "ville": "FERRIèRES-EN-GâTINAIS",
      "prix": {
        "Gazole": 0.002199,
        "SP95": 0.00209,
        "SP98": 0.00215
      },
      "maj_gouv": {
        "Gazole": "2026-04-27 12:18:24",
        "SP95": "2026-04-30 10:31:36",
        "SP98": "2026-04-27 12:18:25"
      }
    },
    {
      "id": "45210004",
      "lat": 48.018205,
      "lon": 2.88525,
      "cp": "45210",
      "ville": "LA SELLE-EN-HERMOY",
      "prix": {
        "Gazole": 0.00209
      },
      "maj_gouv": {
        "Gazole": "2026-04-30 22:23:39"
      }
    },
    {
      "id": "45120005",
      "lat": 48.021,
      "lon": 2.737,
      "cp": "45120",
      "ville": "Châlette-sur-Loing",
      "prix": {
        "Gazole": 0.002319,
        "E85": 0.001155,
        "E10": 0.002069,
        "SP98": 0.002199
      },
      "maj_gouv": {
        "Gazole": "2026-05-01 23:50:00",
        "E85": "2026-05-01 23:50:00",
        "E10": "2026-05-01 23:50:00",
        "SP98": "2026-05-01 23:50:00"
      }
    },
    {
      "id": "45770002",
      "lat": 47.936,
      "lon": 1.889,
      "cp": "45770",
      "ville": "SARAN",
      "prix": {
        "Gazole": 0.002219,
        "SP95": 0.002089,
        "E10": 0.002099,
        "SP98": 0.002149
      },
      "maj_gouv": {
        "Gazole": "2026-04-29 09:00:00",
        "SP95": "2026-04-30 09:00:00",
        "E10": "2026-04-29 09:00:00",
        "SP98": "2026-04-30 09:00:00"
      }
    },
    {
      "id": "45430003",
      "lat": 47.902,
      "lon": 2.004,
      "cp": "45430",
      "ville": "Chécy",
      "prix": {
        "Gazole": 0.002214,
        "E10": 0.00199
      },
      "maj_gouv": {
        "Gazole": "2026-04-30 08:07:09",
        "E10": "2026-04-30 08:07:09"
      }
    },
    {
      "id": "45250003",
      "lat": 47.6422679,
      "lon": 2.74398339,
      "cp": "45250",
      "ville": "BRIARE",
      "prix": {
        "Gazole": 0.002179,
        "E85": 0.000799,
        "E10": 0.001999
      },
      "maj_gouv": {
        "Gazole": "2026-05-02 08:56:24",
        "E85": "2026-04-23 09:25:14",
        "E10": "2026-05-02 08:56:24"
      }
    },
    {
      "id": "45270001",
      "lat": 47.992,
      "lon": 2.449,
      "cp": "45270",
      "ville": "Bellegarde",
      "prix": {
        "Gazole": 0.002242,
        "E10": 0.002054,
        "SP98": 0.00217
      },
      "maj_gouv": {
        "Gazole": "2026-04-27 17:41:08",
        "E10": "2026-04-27 17:41:08",
        "SP98": "2026-04-27 17:41:08"
      }
    },
    {
      "id": "45130005",
      "lat": 47.82,
      "lon": 1.682,
      "cp": "45130",
      "ville": "BAULE",
      "prix": {
        "Gazole": 0.002145,
        "E85": 0.000759,
        "GPLc": 0.001059,
        "E10": 0.0019890000000000003,
        "SP98": 0.002049
      },
      "maj_gouv": {
        "Gazole": "2026-05-02 09:30:43",
        "E85": "2026-05-02 09:30:43",
        "GPLc": "2026-05-02 09:30:43",
        "E10": "2026-05-02 09:30:43",
        "SP98": "2026-05-02 09:30:44"
      }
    },
    {
      "id": "45770001",
      "lat": 47.96,
      "lon": 1.889,
      "cp": "45770",
      "ville": "Saran",
      "prix": {
        "Gazole": 0.002137,
        "SP95": 0.002089,
        "E10": 0.001987,
        "SP98": 0.002148
      },
      "maj_gouv": {
        "Gazole": "2026-04-30 00:40:00",
        "SP95": "2026-04-30 00:40:00",
        "E10": "2026-04-30 00:40:00",
        "SP98": "2026-04-30 00:40:00"
      }
    },
    {
      "id": "45370001",
      "lat": 47.8141246369,
      "lon": 1.749535676,
      "cp": "45370",
      "ville": "CLéRY-SAINT-ANDRé",
      "prix": {
        "Gazole": 0.0021880000000000003,
        "SP95": 0.0019690000000000003,
        "E10": 0.001951,
        "SP98": 0.0020819999999999996
      },
      "maj_gouv": {
        "Gazole": "2026-04-30 18:35:09",
        "SP95": "2026-04-30 18:35:09",
        "E10": "2026-04-24 11:23:41",
        "SP98": "2026-04-30 18:35:09"
      }
    },
    {
      "id": "45100001",
      "lat": 47.882,
      "lon": 1.903,
      "cp": "45100",
      "ville": "Orléans",
      "prix": {
        "Gazole": 0.002215,
        "E10": 0.002009,
        "SP98": 0.0021349999999999997
      },
      "maj_gouv": {
        "Gazole": "2026-04-30 16:54:23",
        "E10": "2026-04-30 16:54:23",
        "SP98": "2026-04-30 16:54:23"
      }
    },
    {
      "id": "45460002",
      "lat": 47.789,
      "lon": 2.378,
      "cp": "45460",
      "ville": "BONNéE",
      "prix": {
        "Gazole": 0.002159,
        "E10": 0.0019890000000000003,
        "SP98": 0.002089
      },
      "maj_gouv": {
        "Gazole": "2026-04-29 09:35:00",
        "E10": "2026-04-29 09:35:01",
        "SP98": "2026-04-29 09:35:01"
      }
    },
    {
      "id": "45680004",
      "lat": 48.14871,
      "lon": 2.76388,
      "cp": "45680",
      "ville": "Dordives",
      "prix": {
        "Gazole": 0.0022,
        "E10": 0.002029,
        "SP98": 0.00215
      },
      "maj_gouv": {
        "Gazole": "2026-04-30 14:00:00",
        "E10": "2026-04-30 14:00:00",
        "SP98": "2026-04-30 14:00:00"
      }
    },
    {
      "id": "45130003",
      "lat": 47.83014,
      "lon": 1.70166,
      "cp": "45130",
      "ville": "MEUNG-SUR-LOIRE",
      "prix": {
        "Gazole": 0.00209,
        "E10": 0.00199,
        "SP98": 0.00199
      },
      "maj_gouv": {
        "Gazole": "2026-05-02 08:00:05",
        "E10": "2026-05-02 08:00:05",
        "SP98": "2026-05-02 08:00:05"
      }
    },
    {
      "id": "45380001",
      "lat": 47.88628,
      "lon": 1.82822,
      "cp": "45380",
      "ville": "LA CHAPELLE-SAINT-MESMIN",
      "prix": {
        "Gazole": 0.002219,
        "E85": 0.0008179999999999999,
        "E10": 0.002099,
        "SP98": 0.002149
      },
      "maj_gouv": {
        "Gazole": "2026-05-02 09:49:04",
        "E85": "2026-04-28 08:44:02",
        "E10": "2026-04-29 08:40:40",
        "SP98": "2026-05-02 09:49:04"
      }
    },
    {
      "id": "45320001",
      "lat": 48.042,
      "lon": 3.068,
      "cp": "45320",
      "ville": "COURTENAY",
      "prix": {
        "Gazole": 0.0022890000000000002,
        "SP95": 0.002099,
        "SP98": 0.002199
      },
      "maj_gouv": {
        "Gazole": "2026-04-23 00:00:00",
        "SP95": "2026-04-15 00:00:00",
        "SP98": "2026-04-15 00:00:00"
      }
    },
    {
      "id": "45430005",
      "lat": 48.055,
      "lon": 2.528,
      "cp": "45490",
      "ville": "Corbeilles",
      "prix": {
        "Gazole": 0.002099,
        "E85": 0.0008179999999999999,
        "E10": 0.001999,
        "SP98": 0.0021160000000000003
      },
      "maj_gouv": {
        "Gazole": "2026-04-27 09:12:59",
        "E85": "2026-04-27 09:12:59",
        "E10": "2026-05-02 08:14:27",
        "SP98": "2026-05-02 08:14:27"
      }
    },
    {
      "id": "45160005",
      "lat": 47.841,
      "lon": 1.913,
      "cp": "45160",
      "ville": "Olivet",
      "prix": {
        "Gazole": 0.002179,
        "SP95": 0.002099,
        "E10": 0.001999,
        "SP98": 0.0021000000000000003
      },
      "maj_gouv": {
        "Gazole": "2026-05-02 09:27:29",
        "SP95": "2026-05-02 09:27:29",
        "E10": "2026-05-02 09:27:29",
        "SP98": "2026-05-02 09:27:29"
      }
    },
    {
      "id": "45560001",
      "lat": 47.88155,
      "lon": 1.9523,
      "cp": "45560",
      "ville": "Saint-Denis-en-Val",
      "prix": {
        "Gazole": 0.0021739999999999997,
        "E85": 0.000789,
        "E10": 0.001999,
        "SP98": 0.002099
      },
      "maj_gouv": {
        "Gazole": "2026-04-29 06:28:24",
        "E85": "2026-04-29 06:28:24",
        "E10": "2026-04-29 06:28:25",
        "SP98": "2026-04-29 06:28:25"
      }
    },
    {
      "id": "45800003",
      "lat": 47.911,
      "lon": 1.971,
      "cp": "45800",
      "ville": "SAINT-JEAN- DE-BRAYE",
      "prix": {
        "Gazole": 0.002159,
        "E10": 0.0019690000000000003,
        "SP98": 0.002079
      },
      "maj_gouv": {
        "Gazole": "2026-04-28 06:40:48",
        "E10": "2026-04-28 06:40:48",
        "SP98": "2026-04-20 11:06:40"
      }
    },
    {
      "id": "45310001",
      "lat": 48.046,
      "lon": 1.691,
      "cp": "45310",
      "ville": "Patay",
      "prix": {
        "Gazole": 0.002179,
        "SP95": 0.002089,
        "SP98": 0.002149
      },
      "maj_gouv": {
        "Gazole": "2026-04-27 09:34:25",
        "SP95": "2026-04-30 06:32:53",
        "SP98": "2026-04-30 06:32:53"
      }
    },
    {
      "id": "45450003",
      "lat": 47.923961799999994,
      "lon": 2.1357139000000003,
      "cp": "45450",
      "ville": "fay aux loges",
      "prix": {
        "Gazole": 0.002255,
        "SP95": 0.00209,
        "SP98": 0.002169
      },
      "maj_gouv": {
        "Gazole": "2026-04-29 09:05:09",
        "SP95": "2026-04-29 09:05:09",
        "SP98": "2026-04-29 09:05:09"
      }
    },
    {
      "id": "45720002",
      "lat": 47.615,
      "lon": 2.5,
      "cp": "45720",
      "ville": "Coullons",
      "prix": {
        "Gazole": 0.002199,
        "E10": 0.0019890000000000003,
        "SP98": 0.002089
      },
      "maj_gouv": {
        "Gazole": "2026-04-29 08:31:22",
        "E10": "2026-04-29 08:31:22",
        "SP98": "2026-04-29 08:31:22"
      }
    },
    {
      "id": "45190015",
      "lat": 47.820800416871,
      "lon": 1.6413549164550998,
      "cp": "45190",
      "ville": "Messas",
      "prix": {
        "Gazole": 0.00222,
        "GPLc": 0.001054,
        "E10": 0.0020499999999999997,
        "SP98": 0.0021000000000000003
      },
      "maj_gouv": {
        "Gazole": "2026-05-02 09:51:34",
        "GPLc": "2026-03-31 09:24:01",
        "E10": "2026-05-02 09:51:34",
        "SP98": "2026-05-02 09:51:34"
      }
    },
    {
      "id": "45170007",
      "lat": 48.073,
      "lon": 2.136,
      "cp": "45170",
      "ville": "Chilleurs-aux-Bois",
      "prix": {
        "Gazole": 0.00209,
        "SP98": 0.00199
      },
      "maj_gouv": {
        "Gazole": "2026-05-01 12:39:53",
        "SP98": "2026-05-01 12:39:53"
      }
    },
    {
      "id": "45600002",
      "lat": 47.7815546647,
      "lon": 2.37469262458,
      "cp": "45600",
      "ville": "SAINT-PèRE-SUR-LOIRE",
      "prix": {
        "Gazole": 0.0021190000000000002,
        "E85": 0.000756,
        "E10": 0.0019690000000000003,
        "SP98": 0.002049
      },
      "maj_gouv": {
        "Gazole": "2026-04-29 10:04:23",
        "E85": "2026-04-14 10:06:57",
        "E10": "2026-04-29 10:04:23",
        "SP98": "2026-04-29 10:04:23"
      }
    },
    {
      "id": "45190001",
      "lat": 47.769,
      "lon": 1.615,
      "cp": "45190",
      "ville": "Tavers",
      "prix": {
        "Gazole": 0.00209,
        "E10": 0.00199
      },
      "maj_gouv": {
        "Gazole": "2026-05-02 07:59:03",
        "E10": "2026-05-02 07:59:04"
      }
    },
    {
      "id": "45520004",
      "lat": 47.97593295,
      "lon": 1.86012188,
      "cp": "45520",
      "ville": "GIDY",
      "prix": {
        "Gazole": 0.00209,
        "E85": 0.000999,
        "GPLc": 0.001089,
        "E10": 0.00199,
        "SP98": 0.00199
      },
      "maj_gouv": {
        "Gazole": "2026-05-02 09:00:00",
        "E85": "2026-05-02 09:00:00",
        "GPLc": "2026-05-02 09:00:00",
        "E10": "2026-05-02 09:00:00",
        "SP98": "2026-05-02 09:00:00"
      }
    },
    {
      "id": "45140005",
      "lat": 47.924,
      "lon": 1.845,
      "cp": "45140",
      "ville": "INGRé",
      "prix": {
        "Gazole": 0.00218,
        "SP95": 0.0020499999999999997,
        "SP98": 0.00213
      },
      "maj_gouv": {
        "Gazole": "2026-04-30 16:29:07",
        "SP95": "2026-04-30 16:29:07",
        "SP98": "2026-04-30 16:29:07"
      }
    },
    {
      "id": "45550002",
      "lat": 47.871,
      "lon": 2.133,
      "cp": "45550",
      "ville": "Saint-Denis-de-l'Hôtel",
      "prix": {
        "Gazole": 0.002149,
        "SP95": 0.00206,
        "SP98": 0.002094
      },
      "maj_gouv": {
        "Gazole": "2026-04-27 09:23:00",
        "SP95": "2026-04-27 09:23:00",
        "SP98": "2026-04-27 09:23:00"
      }
    },
    {
      "id": "45340002",
      "lat": 48.0303786476,
      "lon": 2.313316077,
      "cp": "45340",
      "ville": "NIBELLE",
      "prix": {
        "Gazole": 0.00209,
        "E10": 0.00199,
        "SP98": 0.00199
      },
      "maj_gouv": {
        "Gazole": "2026-05-01 08:01:33",
        "E10": "2026-05-01 08:01:34",
        "SP98": "2026-04-30 11:55:42"
      }
    },
    {
      "id": "45210006",
      "lat": 48.067,
      "lon": 2.766,
      "cp": "45210",
      "ville": "Fontenay-sur-Loing",
      "prix": {
        "Gazole": 0.00209,
        "E10": 0.00199,
        "SP98": 0.00199
      },
      "maj_gouv": {
        "Gazole": "2026-05-01 09:20:16",
        "E10": "2026-05-01 09:20:16",
        "SP98": "2026-05-01 09:20:16"
      }
    },
    {
      "id": "45500001",
      "lat": 47.688,
      "lon": 2.621,
      "cp": "45500",
      "ville": "GIEN",
      "prix": {
        "Gazole": 0.002133,
        "GPLc": 0.000989,
        "E10": 0.0019790000000000003,
        "SP98": 0.002075
      },
      "maj_gouv": {
        "Gazole": "2026-04-30 09:18:38",
        "GPLc": "2026-04-01 08:15:00",
        "E10": "2026-04-22 10:48:33",
        "SP98": "2026-04-30 08:45:00"
      }
    },
    {
      "id": "45000008",
      "lat": 47.9028,
      "lon": 1.89362,
      "cp": "45000",
      "ville": "ORLEANS",
      "prix": {
        "Gazole": 0.00209,
        "E85": 0.000824,
        "E10": 0.00199
      },
      "maj_gouv": {
        "Gazole": "2026-05-03 00:01:00",
        "E85": "2026-05-03 00:01:00",
        "E10": "2026-05-03 00:01:00"
      }
    },
    {
      "id": "45330001",
      "lat": 48.298,
      "lon": 2.418,
      "cp": "45330",
      "ville": "Malesherbes",
      "prix": {
        "Gazole": 0.00209,
        "E10": 0.00199
      },
      "maj_gouv": {
        "Gazole": "2026-05-02 08:55:46",
        "E10": "2026-05-02 08:55:46"
      }
    },
    {
      "id": "45340005",
      "lat": 48.084,
      "lon": 2.472,
      "cp": "45340",
      "ville": "BEAUNE LA ROLANDE",
      "prix": {
        "Gazole": 0.0023090000000000003,
        "E85": 0.000999,
        "GPLc": 0.001064,
        "E10": 0.002109,
        "SP98": 0.002199
      },
      "maj_gouv": {
        "Gazole": "2026-04-28 23:50:00",
        "E85": "2026-04-28 23:50:00",
        "GPLc": "2026-04-28 23:50:00",
        "E10": "2026-04-28 23:50:00",
        "SP98": "2026-04-28 23:50:00"
      }
    },
    {
      "id": "45300008",
      "lat": 48.179,
      "lon": 2.251,
      "cp": "45300",
      "ville": "PITHIVIERS",
      "prix": {
        "Gazole": 0.00209,
        "E10": 0.00199
      },
      "maj_gouv": {
        "Gazole": "2026-05-01 10:31:31",
        "E10": "2026-05-01 10:31:32"
      }
    },
    {
      "id": "45300009",
      "lat": 48.117,
      "lon": 2.19,
      "cp": "45300",
      "ville": "Mareau aux bois",
      "prix": {
        "Gazole": 0.0023090000000000003,
        "SP98": 0.002199
      },
      "maj_gouv": {
        "Gazole": "2026-04-28 23:50:00",
        "SP98": "2026-04-28 23:50:00"
      }
    },
    {
      "id": "45300003",
      "lat": 48.18391,
      "lon": 2.25072,
      "cp": "45300",
      "ville": "PITHIVIERS",
      "prix": {
        "Gazole": 0.0021469999999999996,
        "SP95": 0.002016,
        "GPLc": 0.000999,
        "E10": 0.0019790000000000003,
        "SP98": 0.0020870000000000003
      },
      "maj_gouv": {
        "Gazole": "2026-04-30 11:30:00",
        "SP95": "2026-04-30 08:45:00",
        "GPLc": "2026-04-11 10:20:00",
        "E10": "2026-04-30 11:30:00",
        "SP98": "2026-04-30 11:30:00"
      }
    },
    {
      "id": "45230002",
      "lat": 47.835,
      "lon": 2.841,
      "cp": "45230",
      "ville": "CHATILLON COLIGNY",
      "prix": {
        "Gazole": 0.0022069999999999998,
        "E85": 0.0006919999999999999,
        "E10": 0.001993,
        "SP98": 0.002057
      },
      "maj_gouv": {
        "Gazole": "2026-05-02 09:00:00",
        "E85": "2026-05-02 09:00:00",
        "E10": "2026-05-02 09:00:00",
        "SP98": "2026-05-02 09:00:00"
      }
    },
    {
      "id": "45430006",
      "lat": 47.9075978017,
      "lon": 2.06066757849,
      "cp": "45430",
      "ville": "MARDIE",
      "prix": {
        "Gazole": 0.00209,
        "E10": 0.00199,
        "SP98": 0.00199
      },
      "maj_gouv": {
        "Gazole": "2026-05-02 09:00:00",
        "E10": "2026-05-02 09:00:00",
        "SP98": "2026-05-02 09:15:35"
      }
    },
    {
      "id": "45700002",
      "lat": 47.972,
      "lon": 2.718,
      "cp": "45700",
      "ville": "VILLEMANDEUR",
      "prix": {
        "Gazole": 0.002159,
        "E85": 0.0008179999999999999,
        "E10": 0.0019890000000000003,
        "SP98": 0.002089
      },
      "maj_gouv": {
        "Gazole": "2026-04-28 17:17:47",
        "E85": "2026-04-23 11:12:10",
        "E10": "2026-04-30 17:38:10",
        "SP98": "2026-04-30 17:38:11"
      }
    },
    {
      "id": "45140007",
      "lat": 47.91,
      "lon": 1.881,
      "cp": "45140",
      "ville": "Saint-Jean-de-la-Ruelle",
      "prix": {
        "Gazole": 0.00209,
        "E85": 0.000824,
        "E10": 0.00199
      },
      "maj_gouv": {
        "Gazole": "2026-05-03 00:01:00",
        "E85": "2026-05-03 00:01:00",
        "E10": "2026-05-03 00:01:00"
      }
    },
    {
      "id": "45200007",
      "lat": 47.918,
      "lon": 2.739,
      "cp": "45700",
      "ville": "SOLTERRE",
      "prix": {
        "Gazole": 0.00209,
        "E85": 0.000832,
        "E10": 0.00199
      },
      "maj_gouv": {
        "Gazole": "2026-05-03 00:01:00",
        "E85": "2026-05-03 00:01:00",
        "E10": "2026-05-03 00:01:00"
      }
    },
    {
      "id": "45160003",
      "lat": 47.843,
      "lon": 1.915,
      "cp": "45160",
      "ville": "OLIVET",
      "prix": {
        "Gazole": 0.002179,
        "SP95": 0.002099,
        "E85": 0.000728,
        "E10": 0.001999,
        "SP98": 0.0021000000000000003
      },
      "maj_gouv": {
        "Gazole": "2026-05-02 09:26:29",
        "SP95": "2026-05-02 09:26:29",
        "E85": "2026-05-02 09:26:29",
        "E10": "2026-05-02 09:26:29",
        "SP98": "2026-05-02 09:26:29"
      }
    },
    {
      "id": "45400007",
      "lat": 47.933273042009,
      "lon": 1.9169528555135,
      "cp": "45400",
      "ville": "Fleury-les-Aubrais",
      "prix": {
        "Gazole": 0.0022890000000000002,
        "SP95": 0.002099,
        "E85": 0.0009350000000000001,
        "E10": 0.002079,
        "SP98": 0.002159
      },
      "maj_gouv": {
        "Gazole": "2026-05-01 23:50:00",
        "SP95": "2026-05-01 23:50:00",
        "E85": "2026-05-01 23:50:00",
        "E10": "2026-05-01 23:50:00",
        "SP98": "2026-05-01 23:50:00"
      }
    },
    {
      "id": "45700006",
      "lat": 47.990684934305996,
      "lon": 2.7060581435744,
      "cp": "45700",
      "ville": "Villemandeur",
      "prix": {
        "Gazole": 0.002199,
        "SP95": 0.0020710000000000004,
        "SP98": 0.002055
      },
      "maj_gouv": {
        "Gazole": "2026-04-30 08:46:18",
        "SP95": "2026-04-30 08:46:18",
        "SP98": "2026-04-11 08:37:37"
      }
    },
    {
      "id": "45640001",
      "lat": 47.848,
      "lon": 2.036,
      "cp": "45640",
      "ville": "SANDILLON",
      "prix": {
        "Gazole": 0.0021190000000000002,
        "E85": 0.000789,
        "E10": 0.001999,
        "SP98": 0.002065
      },
      "maj_gouv": {
        "Gazole": "2026-04-29 13:07:26",
        "E85": "2026-04-21 10:58:47",
        "E10": "2026-04-29 13:07:27",
        "SP98": "2026-04-28 15:09:55"
      }
    },
    {
      "id": "45500006",
      "lat": 47.678,
      "lon": 2.594,
      "cp": "45500",
      "ville": "POILLY-LEZ-GIEN",
      "prix": {
        "Gazole": 0.002125,
        "SP95": 0.002053,
        "SP98": 0.002049
      },
      "maj_gouv": {
        "Gazole": "2026-05-02 07:05:02",
        "SP95": "2026-05-02 07:05:02",
        "SP98": "2026-04-24 09:56:11"
      }
    },
    {
      "id": "45480003",
      "lat": 48.276,
      "lon": 2.102,
      "cp": "45480",
      "ville": "AUTRUY SUR JUINE",
      "prix": {},
      "maj_gouv": {}
    },
    {
      "id": "45190017",
      "lat": 47.791359988248004,
      "lon": 1.6447741171598,
      "cp": "45190",
      "ville": "BEAUGENCY",
      "prix": {
        "Gazole": 0.002145,
        "E10": 0.0019890000000000003,
        "SP98": 0.002049
      },
      "maj_gouv": {
        "Gazole": "2026-05-02 08:52:47",
        "E10": "2026-05-02 08:52:47",
        "SP98": "2026-05-02 08:52:47"
      }
    }
  ]
}