{
  "departement": "62",
  "date": "2026-06-09",
  "stations": [
    {
      "id": "62180002",
      "lat": 50.412,
      "lon": 1.608,
      "cp": "62180",
      "ville": "RANG-DU-FLIERS",
      "prix": {
        "Gazole": 0.001958,
        "GPLc": 0.001145,
        "E10": 0.001867,
        "SP98": 0.001974
      },
      "maj_gouv": {
        "Gazole": "2026-06-08 14:19:11",
        "GPLc": "2026-06-08 14:19:11",
        "E10": "2026-06-08 14:19:11",
        "SP98": "2026-06-08 14:19:11"
      }
    },
    {
      "id": "62560002",
      "lat": 50.59081,
      "lon": 2.1688,
      "cp": "62560",
      "ville": "Coyecques",
      "prix": {
        "Gazole": 0.00216,
        "SP95": 0.00199
      },
      "maj_gouv": {
        "Gazole": "2026-06-08 20:21:56",
        "SP95": "2026-06-08 20:22:40"
      }
    },
    {
      "id": "62218002",
      "lat": 50.448,
      "lon": 2.865,
      "cp": "62218",
      "ville": "Loison-sous-Lens",
      "prix": {
        "Gazole": 0.001984,
        "E10": 0.001918,
        "SP98": 0.00213
      },
      "maj_gouv": {
        "Gazole": "2026-06-06 07:48:38",
        "E10": "2026-06-02 07:46:19",
        "SP98": "2026-06-04 07:48:34"
      }
    },
    {
      "id": "52540001",
      "lat": 50.503,
      "lon": 2.508,
      "cp": "62540",
      "ville": "MARLES-LES-MINES",
      "prix": {
        "Gazole": 0.0019690000000000003,
        "E10": 0.001909,
        "SP98": 0.002009
      },
      "maj_gouv": {
        "Gazole": "2026-06-08 07:13:37",
        "E10": "2026-06-08 07:13:38",
        "SP98": "2026-06-08 07:13:38"
      }
    },
    {
      "id": "62880001",
      "lat": 50.459,
      "lon": 2.885,
      "cp": "62880",
      "ville": "ANNAY",
      "prix": {},
      "maj_gouv": {}
    },
    {
      "id": "62219001",
      "lat": 50.735,
      "lon": 2.274,
      "cp": "62219",
      "ville": "LONGUENESSE",
      "prix": {
        "Gazole": 0.001952,
        "E85": 0.000798,
        "GPLc": 0.00106,
        "E10": 0.001909,
        "SP98": 0.002039
      },
      "maj_gouv": {
        "Gazole": "2026-06-06 12:42:19",
        "E85": "2026-05-19 10:14:36",
        "GPLc": "2026-05-05 09:47:08",
        "E10": "2026-06-06 12:42:19",
        "SP98": "2026-06-06 12:42:19"
      }
    },
    {
      "id": "62380001",
      "lat": 50.70998,
      "lon": 2.12748,
      "cp": "62380",
      "ville": "Lumbres",
      "prix": {
        "Gazole": 0.0020440000000000002,
        "E85": 0.000829,
        "E10": 0.001968,
        "SP98": 0.00199
      },
      "maj_gouv": {
        "Gazole": "2026-06-08 07:39:51",
        "E85": "2026-06-08 07:39:51",
        "E10": "2026-06-08 07:39:51",
        "SP98": "2026-06-08 07:39:51"
      }
    },
    {
      "id": "62820003",
      "lat": 50.486,
      "lon": 2.997,
      "cp": "62820",
      "ville": "LIBERCOURT",
      "prix": {
        "Gazole": 0.001976
      },
      "maj_gouv": {
        "Gazole": "2026-06-09 00:01:00"
      }
    },
    {
      "id": "62360006",
      "lat": 50.689,
      "lon": 1.619,
      "cp": "62360",
      "ville": "Saint-Léonard",
      "prix": {
        "Gazole": 0.001964,
        "E10": 0.001896,
        "SP98": 0.00199
      },
      "maj_gouv": {
        "Gazole": "2026-06-09 00:01:00",
        "E10": "2026-06-09 00:01:00",
        "SP98": "2026-06-09 00:01:00"
      }
    },
    {
      "id": "62610005",
      "lat": 50.881,
      "lon": 1.972,
      "cp": "62610",
      "ville": "Ardres",
      "prix": {
        "Gazole": 0.002019,
        "SP95": 0.001999,
        "SP98": 0.002029
      },
      "maj_gouv": {
        "Gazole": "2026-06-06 07:57:33",
        "SP95": "2026-06-08 12:45:04",
        "SP98": "2026-06-06 07:57:34"
      }
    },
    {
      "id": "62380002",
      "lat": 50.7091707625,
      "lon": 2.11618475084,
      "cp": "62380",
      "ville": "LUMBRES",
      "prix": {
        "Gazole": 0.0019890000000000003,
        "E85": 0.000799,
        "E10": 0.0019190000000000001,
        "SP98": 0.001999
      },
      "maj_gouv": {
        "Gazole": "2026-06-05 09:32:37",
        "E85": "2026-05-11 11:38:12",
        "E10": "2026-06-05 09:32:37",
        "SP98": "2026-06-08 09:51:57"
      }
    },
    {
      "id": "62390001",
      "lat": 50.231,
      "lon": 2.114,
      "cp": "62390",
      "ville": "AUXI-LE-CHâTEAU",
      "prix": {
        "Gazole": 0.001967,
        "E85": 0.000798,
        "E10": 0.0019199999999999998
      },
      "maj_gouv": {
        "Gazole": "2026-06-08 19:35:00",
        "E85": "2026-05-19 08:30:00",
        "E10": "2026-06-07 09:00:00"
      }
    },
    {
      "id": "62250005",
      "lat": 50.8166,
      "lon": 1.70267,
      "cp": "62250",
      "ville": "Marquise",
      "prix": {
        "Gazole": 0.002084,
        "E85": 0.000829,
        "E10": 0.00199,
        "SP98": 0.00199
      },
      "maj_gouv": {
        "Gazole": "2026-06-08 18:47:51",
        "E85": "2026-06-04 19:17:39",
        "E10": "2026-06-05 18:57:10",
        "SP98": "2026-06-04 19:19:43"
      }
    },
    {
      "id": "62310003",
      "lat": 50.516,
      "lon": 2.125,
      "cp": "62310",
      "ville": "Fruges",
      "prix": {
        "Gazole": 0.0019890000000000003,
        "E85": 0.000759,
        "E10": 0.0019890000000000003,
        "SP98": 0.002065
      },
      "maj_gouv": {
        "Gazole": "2026-06-04 08:02:46",
        "E85": "2026-06-04 08:02:47",
        "E10": "2026-06-04 08:02:47",
        "SP98": "2026-06-04 08:02:47"
      }
    },
    {
      "id": "62230001",
      "lat": 50.651,
      "lon": 1.609,
      "cp": "62230",
      "ville": "Outreau",
      "prix": {
        "Gazole": 0.0020710000000000004,
        "SP95": 0.002096,
        "SP98": 0.00219
      },
      "maj_gouv": {
        "Gazole": "2026-05-22 07:43:11",
        "SP95": "2026-05-22 07:43:11",
        "SP98": "2026-05-22 07:43:11"
      }
    },
    {
      "id": "62840004",
      "lat": 50.653,
      "lon": 2.839,
      "cp": "62840",
      "ville": "Fleurbaix",
      "prix": {
        "Gazole": 0.0019790000000000003,
        "E85": 0.000799,
        "E10": 0.0019690000000000003,
        "SP98": 0.001999
      },
      "maj_gouv": {
        "Gazole": "2026-06-06 09:03:47",
        "E85": "2026-06-06 09:03:47",
        "E10": "2026-06-06 09:03:47",
        "SP98": "2026-06-04 07:32:13"
      }
    },
    {
      "id": "62240005",
      "lat": 50.669,
      "lon": 1.838,
      "cp": "62240",
      "ville": "DESVRES",
      "prix": {
        "Gazole": 0.00204,
        "SP95": 0.0020499999999999997,
        "E10": 0.0019890000000000003,
        "SP98": 0.002099
      },
      "maj_gouv": {
        "Gazole": "2026-06-05 18:45:06",
        "SP95": "2026-06-05 18:45:06",
        "E10": "2026-06-05 18:45:07",
        "SP98": "2026-06-05 18:45:07"
      }
    },
    {
      "id": "62840005",
      "lat": 50.65883405,
      "lon": 2.7703257631579,
      "cp": "62840",
      "ville": "Sailly-sur-la-Lys",
      "prix": {
        "Gazole": 0.0019790000000000003,
        "E85": 0.0008990000000000001,
        "E10": 0.0019890000000000003,
        "SP98": 0.0020299999999999997
      },
      "maj_gouv": {
        "Gazole": "2026-06-03 12:33:33",
        "E85": "2026-05-20 08:51:47",
        "E10": "2026-06-03 12:33:33",
        "SP98": "2026-06-03 12:33:33"
      }
    },
    {
      "id": "62860006",
      "lat": 50.2273337,
      "lon": 3.0649737,
      "cp": "62860",
      "ville": "Marquion",
      "prix": {
        "Gazole": 0.002164,
        "E10": 0.002173,
        "SP98": 0.002262
      },
      "maj_gouv": {
        "Gazole": "2026-06-02 09:30:00",
        "E10": "2026-06-02 09:30:00",
        "SP98": "2026-06-02 09:30:00"
      }
    },
    {
      "id": "62147001",
      "lat": 50.122186534067,
      "lon": 3.0892816536201,
      "cp": "62147",
      "ville": "HERMIES",
      "prix": {
        "Gazole": 0.002229,
        "GPLc": 0.00116,
        "E10": 0.002179,
        "SP98": 0.0022789999999999998
      },
      "maj_gouv": {
        "Gazole": "2026-06-03 06:00:00",
        "GPLc": "2026-06-03 06:00:00",
        "E10": "2026-06-03 06:00:00",
        "SP98": "2026-06-03 06:00:00"
      }
    },
    {
      "id": "62830002",
      "lat": 50.639,
      "lon": 1.759,
      "cp": "62830",
      "ville": "Samer",
      "prix": {
        "Gazole": 0.001965,
        "SP95": 0.001955,
        "E85": 0.000749,
        "E10": 0.001915
      },
      "maj_gouv": {
        "Gazole": "2026-06-08 08:59:36",
        "SP95": "2026-06-08 08:59:37",
        "E85": "2026-06-04 08:55:18",
        "E10": "2026-06-08 08:59:37"
      }
    },
    {
      "id": "59500005",
      "lat": 50.497,
      "lon": 2.867,
      "cp": "62410",
      "ville": "WINGLES",
      "prix": {
        "Gazole": 0.00206,
        "E85": 0.000911,
        "E10": 0.001996
      },
      "maj_gouv": {
        "Gazole": "2026-06-06 09:58:08",
        "E85": "2026-04-28 09:11:37",
        "E10": "2026-05-29 14:06:27"
      }
    },
    {
      "id": "62400001",
      "lat": 50.525,
      "lon": 2.628,
      "cp": "62400",
      "ville": "BéTHUNE",
      "prix": {
        "Gazole": 0.001996,
        "E85": 0.000798,
        "GPLc": 0.0010500000000000002,
        "E10": 0.001949,
        "SP98": 0.002
      },
      "maj_gouv": {
        "Gazole": "2026-06-08 11:53:50",
        "E85": "2026-06-06 09:11:21",
        "GPLc": "2026-06-01 18:12:17",
        "E10": "2026-06-01 18:11:59",
        "SP98": "2026-06-08 11:53:50"
      }
    },
    {
      "id": "62223002",
      "lat": 50.313411145193,
      "lon": 2.7619377797434,
      "cp": "62223",
      "ville": "SAINTE-CATHERINE",
      "prix": {
        "Gazole": 0.0019619999999999998,
        "E85": 0.000798,
        "E10": 0.001871,
        "SP98": 0.001977
      },
      "maj_gouv": {
        "Gazole": "2026-06-08 12:22:23",
        "E85": "2026-06-05 10:52:16",
        "E10": "2026-06-08 12:22:23",
        "SP98": "2026-06-08 12:22:24"
      }
    },
    {
      "id": "62470006",
      "lat": 50.49331,
      "lon": 2.4956720000000003,
      "cp": "62470",
      "ville": "Calonne Ricouart",
      "prix": {
        "Gazole": 0.002081,
        "SP95": 0.00199,
        "SP98": 0.00199
      },
      "maj_gouv": {
        "Gazole": "2026-06-09 06:03:00",
        "SP95": "2026-06-08 19:03:44",
        "SP98": "2026-06-08 19:03:44"
      }
    },
    {
      "id": "62128007",
      "lat": 50.174,
      "lon": 2.874,
      "cp": "62128",
      "ville": "Croisilles",
      "prix": {
        "Gazole": 0.002099,
        "E85": 0.000999,
        "GPLc": 0.001123,
        "E10": 0.0020800000000000003,
        "SP98": 0.002155
      },
      "maj_gouv": {
        "Gazole": "2026-06-03 07:08:28",
        "E85": "2026-06-03 07:08:28",
        "GPLc": "2026-06-03 07:08:28",
        "E10": "2026-06-03 07:08:28",
        "SP98": "2026-06-05 06:00:00"
      }
    },
    {
      "id": "62000014",
      "lat": 50.297,
      "lon": 2.769,
      "cp": "62000",
      "ville": "ARRAS",
      "prix": {
        "Gazole": 0.001972,
        "E85": 0.000833,
        "E10": 0.0019019999999999998,
        "SP98": 0.00199
      },
      "maj_gouv": {
        "Gazole": "2026-06-09 00:01:00",
        "E85": "2026-06-09 00:01:00",
        "E10": "2026-06-09 00:01:00",
        "SP98": "2026-06-09 00:01:00"
      }
    },
    {
      "id": "62490002",
      "lat": 50.333,
      "lon": 3.002,
      "cp": "62490",
      "ville": "VITRY-EN-ARTOIS",
      "prix": {
        "Gazole": 0.001961,
        "E10": 0.001933,
        "SP98": 0.002007
      },
      "maj_gouv": {
        "Gazole": "2026-06-04 08:35:43",
        "E10": "2026-06-04 08:35:43",
        "SP98": "2026-06-04 08:35:43"
      }
    },
    {
      "id": "62620002",
      "lat": 50.454,
      "lon": 2.607,
      "cp": "62620",
      "ville": "Barlin",
      "prix": {
        "Gazole": 0.0021709999999999998,
        "SP95": 0.0020139999999999997,
        "E85": 0.0008179999999999999,
        "E10": 0.001949
      },
      "maj_gouv": {
        "Gazole": "2026-06-04 10:56:30",
        "SP95": "2026-05-29 12:23:59",
        "E85": "2026-05-29 12:23:59",
        "E10": "2026-05-29 12:23:59"
      }
    },
    {
      "id": "62850001",
      "lat": 50.79,
      "lon": 1.951,
      "cp": "62850",
      "ville": "LICQUES",
      "prix": {
        "Gazole": 0.002029,
        "E85": 0.0008489999999999999,
        "E10": 0.001939,
        "SP98": 0.002059
      },
      "maj_gouv": {
        "Gazole": "2026-06-06 10:24:06",
        "E85": "2026-05-30 09:08:26",
        "E10": "2026-06-06 10:24:06",
        "SP98": "2026-06-06 10:24:06"
      }
    },
    {
      "id": "62130003",
      "lat": 50.388056680472,
      "lon": 2.3483871499758,
      "cp": "62130",
      "ville": "Saint-Pol-sur-Ternoise",
      "prix": {
        "Gazole": 0.002024,
        "E85": 0.000798,
        "E10": 0.0019219999999999999,
        "SP98": 0.002033
      },
      "maj_gouv": {
        "Gazole": "2026-06-06 12:47:21",
        "E85": "2026-06-06 12:47:22",
        "E10": "2026-06-06 12:47:22",
        "SP98": "2026-06-06 12:47:22"
      }
    },
    {
      "id": "62120015",
      "lat": 50.697879035687,
      "lon": 2.351145511856,
      "cp": "62120",
      "ville": "RACQUINGHEM",
      "prix": {
        "Gazole": 0.002029,
        "SP95": 0.001999,
        "E10": 0.0019690000000000003
      },
      "maj_gouv": {
        "Gazole": "2026-06-08 08:55:33",
        "SP95": "2026-06-08 08:55:33",
        "E10": "2026-06-08 08:55:33"
      }
    },
    {
      "id": "62280004",
      "lat": 50.738,
      "lon": 1.623,
      "cp": "62280",
      "ville": "SAINT-MARTIN-BOULOGNE",
      "prix": {
        "Gazole": 0.002176,
        "E10": 0.002096,
        "SP98": 0.0022519999999999997
      },
      "maj_gouv": {
        "Gazole": "2026-06-02 16:05:32",
        "E10": "2026-06-08 09:15:01",
        "SP98": "2026-06-02 16:05:33"
      }
    },
    {
      "id": "62580003",
      "lat": 50.376149699186,
      "lon": 2.8070252243759,
      "cp": "62580",
      "ville": "Vimy",
      "prix": {
        "Gazole": 0.001999,
        "SP95": 0.0019850000000000002,
        "SP98": 0.0020440000000000002
      },
      "maj_gouv": {
        "Gazole": "2026-06-03 11:13:44",
        "SP95": "2026-06-03 11:13:45",
        "SP98": "2026-06-03 11:13:45"
      }
    },
    {
      "id": "62690002",
      "lat": 50.348,
      "lon": 2.569,
      "cp": "62690",
      "ville": "Savy-Berlette",
      "prix": {
        "Gazole": 0.002092,
        "E10": 0.00199,
        "SP98": 0.00199
      },
      "maj_gouv": {
        "Gazole": "2026-06-09 05:46:06",
        "E10": "2026-06-09 05:46:06",
        "SP98": "2026-06-09 05:46:07"
      }
    },
    {
      "id": "62231001",
      "lat": 50.925303,
      "lon": 1.8502560000000001,
      "cp": "62231",
      "ville": "COQUELLES",
      "prix": {
        "Gazole": 0.002298
      },
      "maj_gouv": {
        "Gazole": "2026-06-09 00:00:00"
      }
    },
    {
      "id": "62170002",
      "lat": 50.448,
      "lon": 1.749,
      "cp": "62170",
      "ville": "CAMPIGNEULLES-LES-PETITES",
      "prix": {
        "Gazole": 0.002099,
        "SP95": 0.00211,
        "SP98": 0.002199
      },
      "maj_gouv": {
        "Gazole": "2026-05-18 09:35:05",
        "SP95": "2026-05-22 11:33:08",
        "SP98": "2026-05-22 11:33:08"
      }
    },
    {
      "id": "62910001",
      "lat": 50.821,
      "lon": 2.196,
      "cp": "62910",
      "ville": "Éperlecques",
      "prix": {
        "Gazole": 0.002064,
        "E10": 0.001918,
        "SP98": 0.0020510000000000003
      },
      "maj_gouv": {
        "Gazole": "2026-06-05 08:50:50",
        "E10": "2026-06-05 08:50:50",
        "SP98": "2026-06-02 16:01:56"
      }
    },
    {
      "id": "62380003",
      "lat": 50.714,
      "lon": 2.109,
      "cp": "62380",
      "ville": "LUMBRES",
      "prix": {
        "Gazole": 0.0019890000000000003,
        "SP95": 0.0019690000000000003,
        "E85": 0.000799,
        "E10": 0.0019190000000000001,
        "SP98": 0.001999
      },
      "maj_gouv": {
        "Gazole": "2026-06-05 08:31:46",
        "SP95": "2026-06-08 08:31:15",
        "E85": "2026-04-24 08:29:36",
        "E10": "2026-06-05 08:31:46",
        "SP98": "2026-06-08 08:31:15"
      }
    },
    {
      "id": "62510003",
      "lat": 50.727,
      "lon": 2.3,
      "cp": "62510",
      "ville": "ARQUES",
      "prix": {
        "Gazole": 0.001952,
        "E85": 0.000798,
        "E10": 0.001909,
        "SP98": 0.002039
      },
      "maj_gouv": {
        "Gazole": "2026-06-06 12:11:33",
        "E85": "2026-05-16 08:52:05",
        "E10": "2026-06-06 12:11:33",
        "SP98": "2026-06-06 12:11:33"
      }
    },
    {
      "id": "62760002",
      "lat": 50.158077,
      "lon": 2.507405,
      "cp": "62760",
      "ville": "Pas-en-Artois",
      "prix": {
        "Gazole": 0.0021190000000000002,
        "SP95": 0.002099,
        "SP98": 0.002169
      },
      "maj_gouv": {
        "Gazole": "2026-05-29 06:53:11",
        "SP95": "2026-05-29 06:53:11",
        "SP98": "2026-05-29 06:53:12"
      }
    },
    {
      "id": "62164001",
      "lat": 50.809,
      "lon": 1.612,
      "cp": "62164",
      "ville": "AMBLETEUSE",
      "prix": {
        "Gazole": 0.002039,
        "SP95": 0.001994,
        "SP98": 0.002078
      },
      "maj_gouv": {
        "Gazole": "2026-06-05 10:30:57",
        "SP95": "2026-06-06 15:13:52",
        "SP98": "2026-06-06 15:13:52"
      }
    },
    {
      "id": "62520001",
      "lat": 50.51152,
      "lon": 1.62056,
      "cp": "62520",
      "ville": "LE TOUQUET-PARIS-PLAGE",
      "prix": {
        "Gazole": 0.0021309999999999996,
        "E10": 0.002034,
        "SP98": 0.002205
      },
      "maj_gouv": {
        "Gazole": "2026-05-27 17:11:20",
        "E10": "2026-05-27 17:11:20",
        "SP98": "2026-05-27 17:11:20"
      }
    },
    {
      "id": "62730002",
      "lat": 50.946,
      "lon": 1.952,
      "cp": "62730",
      "ville": "MARCK",
      "prix": {
        "Gazole": 0.002199,
        "SP95": 0.001999,
        "SP98": 0.002059
      },
      "maj_gouv": {
        "Gazole": "2026-04-25 08:39:37",
        "SP95": "2026-04-25 08:39:37",
        "SP98": "2026-04-25 08:39:37"
      }
    },
    {
      "id": "62147005",
      "lat": 50.12418838497,
      "lon": 3.0899769262674,
      "cp": "62147",
      "ville": "HAVRINCOURT",
      "prix": {
        "Gazole": 0.0021360000000000003,
        "E10": 0.002109,
        "SP98": 0.002184
      },
      "maj_gouv": {
        "Gazole": "2026-06-08 14:00:00",
        "E10": "2026-06-08 14:00:00",
        "SP98": "2026-06-08 14:00:00"
      }
    },
    {
      "id": "62217003",
      "lat": 50.274,
      "lon": 2.767,
      "cp": "62217",
      "ville": "Achicourt",
      "prix": {
        "Gazole": 0.002007,
        "E10": 0.001905,
        "SP98": 0.002016
      },
      "maj_gouv": {
        "Gazole": "2026-06-05 10:37:38",
        "E10": "2026-06-05 10:37:39",
        "SP98": "2026-06-05 10:37:39"
      }
    },
    {
      "id": "62134001",
      "lat": 50.447,
      "lon": 2.251,
      "cp": "62134",
      "ville": "ANVIN",
      "prix": {
        "Gazole": 0.002049,
        "SP95": 0.002019,
        "SP98": 0.002059
      },
      "maj_gouv": {
        "Gazole": "2026-06-07 08:13:30",
        "SP95": "2026-06-07 08:13:30",
        "SP98": "2026-06-07 08:13:30"
      }
    },
    {
      "id": "62400003",
      "lat": 50.54721,
      "lon": 2.66418,
      "cp": "62400",
      "ville": "ESSARS",
      "prix": {
        "Gazole": 0.002063,
        "E10": 0.001918,
        "SP98": 0.0020819999999999996
      },
      "maj_gouv": {
        "Gazole": "2026-06-05 09:26:50",
        "E10": "2026-06-05 09:26:51",
        "SP98": "2026-06-05 09:26:51"
      }
    },
    {
      "id": "62100016",
      "lat": 50.946,
      "lon": 1.893,
      "cp": "62100",
      "ville": "Calais",
      "prix": {
        "Gazole": 0.001993,
        "E85": 0.000798,
        "E10": 0.001929,
        "SP98": 0.002099
      },
      "maj_gouv": {
        "Gazole": "2026-06-05 08:44:26",
        "E85": "2026-05-19 11:45:10",
        "E10": "2026-06-05 08:44:26",
        "SP98": "2026-06-05 08:44:27"
      }
    },
    {
      "id": "62630002",
      "lat": 50.51122,
      "lon": 1.64565,
      "cp": "62630",
      "ville": "ÉTAPLES",
      "prix": {
        "Gazole": 0.0020870000000000003,
        "SP95": 0.002053,
        "SP98": 0.0022930000000000003
      },
      "maj_gouv": {
        "Gazole": "2026-06-03 09:17:54",
        "SP95": "2026-06-03 09:18:08",
        "SP98": "2026-05-20 11:56:08"
      }
    },
    {
      "id": "62810001",
      "lat": 50.27889,
      "lon": 2.53606,
      "cp": "62810",
      "ville": "AVESNES-LE-COMTE",
      "prix": {
        "Gazole": 0.0020499999999999997,
        "SP95": 0.0019790000000000003,
        "SP98": 0.002109
      },
      "maj_gouv": {
        "Gazole": "2026-05-30 08:52:38",
        "SP95": "2026-05-30 08:52:38",
        "SP98": "2026-05-30 08:52:38"
      }
    },
    {
      "id": "62950001",
      "lat": 50.41371,
      "lon": 2.98088,
      "cp": "62950",
      "ville": "NOYELLES-GODAULT",
      "prix": {
        "Gazole": 0.0019890000000000003,
        "E85": 0.000799,
        "GPLc": 0.000999,
        "E10": 0.001939,
        "SP98": 0.002039
      },
      "maj_gouv": {
        "Gazole": "2026-06-03 06:24:32",
        "E85": "2026-06-03 06:24:32",
        "GPLc": "2026-06-03 06:24:32",
        "E10": "2026-06-08 06:33:08",
        "SP98": "2026-06-08 06:33:08"
      }
    },
    {
      "id": "62370001",
      "lat": 50.874,
      "lon": 2.075,
      "cp": "62370",
      "ville": "AUDRUICQ",
      "prix": {
        "Gazole": 0.002108,
        "SP95": 0.0019690000000000003,
        "SP98": 0.002012
      },
      "maj_gouv": {
        "Gazole": "2026-06-08 08:16:19",
        "SP95": "2026-05-30 09:21:07",
        "SP98": "2026-06-08 08:16:19"
      }
    },
    {
      "id": "62160001",
      "lat": 50.443,
      "lon": 2.696,
      "cp": "62160",
      "ville": "AIX-NOULETTE",
      "prix": {
        "Gazole": 0.002029,
        "SP95": 0.001981,
        "SP98": 0.002059
      },
      "maj_gouv": {
        "Gazole": "2026-06-04 10:30:57",
        "SP95": "2026-06-04 10:30:57",
        "SP98": "2026-06-04 10:30:57"
      }
    },
    {
      "id": "62700008",
      "lat": 50.477,
      "lon": 2.534,
      "cp": "62700",
      "ville": "Bruay-la-Buissière",
      "prix": {
        "Gazole": 0.0020800000000000003,
        "E85": 0.000829,
        "GPLc": 0.000999,
        "E10": 0.00199,
        "SP98": 0.00199
      },
      "maj_gouv": {
        "Gazole": "2026-06-09 00:01:00",
        "E85": "2026-06-09 00:01:00",
        "GPLc": "2026-06-09 00:01:00",
        "E10": "2026-06-09 00:01:00",
        "SP98": "2026-06-09 00:01:00"
      }
    },
    {
      "id": "62901001",
      "lat": 50.937,
      "lon": 1.809,
      "cp": "62231",
      "ville": "COQUELLES",
      "prix": {
        "Gazole": 0.001999,
        "SP95": 0.001933,
        "E85": 0.000829,
        "GPLc": 0.000969,
        "E10": 0.001888,
        "SP98": 0.0020369999999999997
      },
      "maj_gouv": {
        "Gazole": "2026-06-08 08:45:19",
        "SP95": "2026-06-08 08:45:19",
        "E85": "2026-05-29 12:22:00",
        "GPLc": "2026-06-08 08:45:19",
        "E10": "2026-06-08 08:45:20",
        "SP98": "2026-06-08 08:45:20"
      }
    },
    {
      "id": "62360001",
      "lat": 50.734,
      "lon": 1.698,
      "cp": "62360",
      "ville": "LA CAPELLE-LèS-BOULOGNE",
      "prix": {
        "Gazole": 0.002063,
        "E10": 0.001961,
        "SP98": 0.00199
      },
      "maj_gouv": {
        "Gazole": "2026-06-08 08:23:23",
        "E10": "2026-06-08 08:23:23",
        "SP98": "2026-06-08 08:23:23"
      }
    },
    {
      "id": "62230004",
      "lat": 50.711,
      "lon": 1.601,
      "cp": "62230",
      "ville": "OUTREAU",
      "prix": {
        "Gazole": 0.001972,
        "E85": 0.000799
      },
      "maj_gouv": {
        "Gazole": "2026-06-09 00:01:00",
        "E85": "2026-06-09 00:01:00"
      }
    },
    {
      "id": "62100006",
      "lat": 50.946,
      "lon": 1.837,
      "cp": "62100",
      "ville": "CALAIS",
      "prix": {
        "Gazole": 0.002139,
        "E85": 0.000925,
        "GPLc": 0.001089,
        "E10": 0.002079,
        "SP98": 0.002179
      },
      "maj_gouv": {
        "Gazole": "2026-06-04 23:59:00",
        "E85": "2026-06-04 23:59:00",
        "GPLc": "2026-05-27 07:36:03",
        "E10": "2026-06-04 23:59:00",
        "SP98": "2026-06-04 23:59:00"
      }
    },
    {
      "id": "62000016",
      "lat": 50.289,
      "lon": 2.749,
      "cp": "62000",
      "ville": "Arras",
      "prix": {
        "Gazole": 0.002099,
        "E85": 0.0009350000000000001,
        "E10": 0.002079,
        "SP98": 0.002159
      },
      "maj_gouv": {
        "Gazole": "2026-06-08 23:50:00",
        "E85": "2026-06-08 23:50:00",
        "E10": "2026-06-08 23:50:00",
        "SP98": "2026-06-08 23:50:00"
      }
    },
    {
      "id": "62120013",
      "lat": 50.717,
      "lon": 2.332,
      "cp": "62120",
      "ville": "CAMPAGNE-LèS-WARDRECQUES",
      "prix": {
        "Gazole": 0.001992,
        "E85": 0.000798,
        "E10": 0.00189
      },
      "maj_gouv": {
        "Gazole": "2026-06-05 17:15:28",
        "E85": "2026-05-16 12:49:10",
        "E10": "2026-06-05 17:15:28"
      }
    },
    {
      "id": "62400004",
      "lat": 50.539,
      "lon": 2.631,
      "cp": "62400",
      "ville": "Béthune",
      "prix": {
        "Gazole": 0.002068,
        "E85": 0.000844,
        "E10": 0.001982,
        "SP98": 0.00199
      },
      "maj_gouv": {
        "Gazole": "2026-06-08 11:02:19",
        "E85": "2026-06-08 11:02:19",
        "E10": "2026-06-08 11:02:19",
        "SP98": "2026-06-08 11:02:19"
      }
    },
    {
      "id": "62930001",
      "lat": 50.778,
      "lon": 1.617,
      "cp": "62930",
      "ville": "WIMEREUX",
      "prix": {
        "Gazole": 0.002109,
        "E10": 0.002049,
        "SP98": 0.002159
      },
      "maj_gouv": {
        "Gazole": "2026-05-26 11:59:24",
        "E10": "2026-05-26 11:59:24",
        "SP98": "2026-05-26 11:59:24"
      }
    },
    {
      "id": "62710002",
      "lat": 50.460877962157994,
      "lon": 2.9609228567724,
      "cp": "62710",
      "ville": "Courrières",
      "prix": {
        "Gazole": 0.00196,
        "E10": 0.001869,
        "SP98": 0.001993
      },
      "maj_gouv": {
        "Gazole": "2026-06-08 11:12:56",
        "E10": "2026-06-08 11:12:57",
        "SP98": "2026-06-04 16:36:37"
      }
    },
    {
      "id": "62280003",
      "lat": 50.733,
      "lon": 1.669,
      "cp": "62280",
      "ville": "SAINT-MARTIN-BOULOGNE",
      "prix": {
        "Gazole": 0.0019690000000000003,
        "E85": 0.000789,
        "GPLc": 0.001019,
        "E10": 0.001935,
        "SP98": 0.002049
      },
      "maj_gouv": {
        "Gazole": "2026-06-08 09:44:46",
        "E85": "2026-05-21 11:38:56",
        "GPLc": "2026-05-12 10:59:46",
        "E10": "2026-06-08 09:44:46",
        "SP98": "2026-06-03 10:48:33"
      }
    },
    {
      "id": "62200004",
      "lat": 50.74,
      "lon": 1.613,
      "cp": "62200",
      "ville": "Boulogne-sur-Mer",
      "prix": {
        "Gazole": 0.0019590000000000002,
        "E10": 0.00195,
        "SP98": 0.002072
      },
      "maj_gouv": {
        "Gazole": "2026-06-04 09:49:58",
        "E10": "2026-06-04 09:49:59",
        "SP98": "2026-05-29 15:21:42"
      }
    },
    {
      "id": "62640003",
      "lat": 50.41909,
      "lon": 2.92884,
      "cp": "62640",
      "ville": "Montigny-en-Gohelle",
      "prix": {
        "Gazole": 0.001999,
        "E85": 0.000798,
        "E10": 0.001915
      },
      "maj_gouv": {
        "Gazole": "2026-06-06 11:15:52",
        "E85": "2026-06-06 11:15:52",
        "E10": "2026-06-06 11:15:52"
      }
    },
    {
      "id": "62260003",
      "lat": 50.507,
      "lon": 2.438,
      "cp": "62260",
      "ville": "Cauchy-à-la-Tour",
      "prix": {
        "Gazole": 0.002084,
        "E10": 0.00199,
        "SP98": 0.00199
      },
      "maj_gouv": {
        "Gazole": "2026-06-09 06:30:00",
        "E10": "2026-06-09 06:30:00",
        "SP98": "2026-05-30 08:43:14"
      }
    },
    {
      "id": "62260002",
      "lat": 50.516,
      "lon": 2.476,
      "cp": "62260",
      "ville": "AUCHEL",
      "prix": {
        "Gazole": 0.002009,
        "E10": 0.001929,
        "SP98": 0.002011
      },
      "maj_gouv": {
        "Gazole": "2026-06-06 07:18:50",
        "E10": "2026-06-06 07:18:50",
        "SP98": "2026-06-06 07:18:50"
      }
    },
    {
      "id": "62750002",
      "lat": 50.44606,
      "lon": 2.79736,
      "cp": "62750",
      "ville": "Loos-en-Gohelle",
      "prix": {
        "Gazole": 0.001953,
        "E85": 0.000798,
        "E10": 0.001878,
        "SP98": 0.0019850000000000002
      },
      "maj_gouv": {
        "Gazole": "2026-06-08 09:30:00",
        "E85": "2026-05-18 19:00:00",
        "E10": "2026-06-08 19:00:00",
        "SP98": "2026-06-08 19:00:00"
      }
    },
    {
      "id": "62250007",
      "lat": 50.8242,
      "lon": 1.71061,
      "cp": "62250",
      "ville": "Marquise",
      "prix": {
        "Gazole": 0.001988,
        "SP95": 0.002099,
        "E85": 0.000798,
        "E10": 0.001999
      },
      "maj_gouv": {
        "Gazole": "2026-06-06 10:26:17",
        "SP95": "2026-06-06 10:26:17",
        "E85": "2026-06-04 13:41:13",
        "E10": "2026-06-06 10:26:17"
      }
    },
    {
      "id": "62920001",
      "lat": 50.544,
      "lon": 2.541,
      "cp": "62920",
      "ville": "CHOCQUES",
      "prix": {
        "Gazole": 0.002085,
        "E10": 0.00199,
        "SP98": 0.00199
      },
      "maj_gouv": {
        "Gazole": "2026-06-08 19:20:57",
        "E10": "2026-06-08 19:20:57",
        "SP98": "2026-06-08 19:20:58"
      }
    },
    {
      "id": "62881001",
      "lat": 50.462,
      "lon": 2.827,
      "cp": "62880",
      "ville": "Vendin-le-Vieil",
      "prix": {
        "Gazole": 0.0019850000000000002,
        "E85": 0.000799,
        "GPLc": 0.000999,
        "E10": 0.0019190000000000001
      },
      "maj_gouv": {
        "Gazole": "2026-06-08 10:05:09",
        "E85": "2026-06-01 10:12:57",
        "GPLc": "2026-06-05 11:14:26",
        "E10": "2026-06-02 10:40:13"
      }
    },
    {
      "id": "62110003",
      "lat": 50.41839,
      "lon": 2.94714,
      "cp": "62110",
      "ville": "Hénin-Beaumont",
      "prix": {
        "Gazole": 0.0020659999999999997,
        "E10": 0.001984,
        "SP98": 0.00199
      },
      "maj_gouv": {
        "Gazole": "2026-06-09 00:01:00",
        "E10": "2026-06-09 00:01:00",
        "SP98": "2026-06-09 00:01:00"
      }
    },
    {
      "id": "62217007",
      "lat": 50.282,
      "lon": 2.807,
      "cp": "62217",
      "ville": "Tilloy-lès-Mofflaines",
      "prix": {
        "Gazole": 0.001974,
        "E10": 0.001905,
        "SP98": 0.00199
      },
      "maj_gouv": {
        "Gazole": "2026-06-09 00:01:00",
        "E10": "2026-06-09 00:01:00",
        "SP98": "2026-06-09 00:01:00"
      }
    },
    {
      "id": "62300012",
      "lat": 50.435,
      "lon": 2.841,
      "cp": "62300",
      "ville": "LENS",
      "prix": {
        "Gazole": 0.002076,
        "E85": 0.000839,
        "E10": 0.00199,
        "SP98": 0.00199
      },
      "maj_gouv": {
        "Gazole": "2026-06-09 00:01:00",
        "E85": "2026-06-09 00:01:00",
        "E10": "2026-06-09 00:01:00",
        "SP98": "2026-06-09 00:01:00"
      }
    },
    {
      "id": "62280001",
      "lat": 50.70586,
      "lon": 1.61382,
      "cp": "62280",
      "ville": "SAINT-MARTIN-BOULOGNE",
      "prix": {
        "Gazole": 0.001998,
        "E10": 0.001935,
        "SP98": 0.00204
      },
      "maj_gouv": {
        "Gazole": "2026-06-02 10:23:39",
        "E10": "2026-06-03 10:41:29",
        "SP98": "2026-06-03 10:41:29"
      }
    },
    {
      "id": "62640002",
      "lat": 50.419614010035005,
      "lon": 2.9270741940336,
      "cp": "62640",
      "ville": "Montigny-en-Gohelle",
      "prix": {
        "Gazole": 0.002099,
        "E85": 0.00095,
        "E10": 0.0019690000000000003,
        "SP98": 0.00199
      },
      "maj_gouv": {
        "Gazole": "2026-06-05 10:59:16",
        "E85": "2026-04-27 18:27:21",
        "E10": "2026-06-05 11:00:05",
        "SP98": "2026-03-10 09:23:56"
      }
    },
    {
      "id": "62230003",
      "lat": 50.70189850960001,
      "lon": 1.6083952491499998,
      "cp": "62230",
      "ville": "OUTREAU",
      "prix": {
        "Gazole": 0.0019590000000000002,
        "SP95": 0.0019890000000000003,
        "E85": 0.000749,
        "GPLc": 0.0010129999999999998,
        "E10": 0.0019190000000000001
      },
      "maj_gouv": {
        "Gazole": "2026-06-08 09:29:24",
        "SP95": "2026-06-05 09:38:22",
        "E85": "2026-06-08 09:29:24",
        "GPLc": "2026-05-11 17:10:17",
        "E10": "2026-06-08 09:29:24"
      }
    },
    {
      "id": "62152003",
      "lat": 50.621,
      "lon": 1.643,
      "cp": "62152",
      "ville": "Neufchâtel-Hardelot",
      "prix": {},
      "maj_gouv": {}
    },
    {
      "id": "62990001",
      "lat": 50.425,
      "lon": 1.901,
      "cp": "62990",
      "ville": "BEAURAINVILLE",
      "prix": {
        "Gazole": 0.002025,
        "SP95": 0.001999,
        "E85": 0.0008990000000000001,
        "E10": 0.001929
      },
      "maj_gouv": {
        "Gazole": "2026-06-08 14:19:25",
        "SP95": "2026-06-08 14:19:25",
        "E85": "2026-06-08 14:19:25",
        "E10": "2026-06-08 14:19:25"
      }
    },
    {
      "id": "62300018",
      "lat": 50.425389,
      "lon": 2.824075,
      "cp": "62300",
      "ville": "LENS",
      "prix": {
        "Gazole": 0.001971,
        "E10": 0.001918,
        "SP98": 0.00199
      },
      "maj_gouv": {
        "Gazole": "2026-06-04 13:33:34",
        "E10": "2026-06-04 13:33:34",
        "SP98": "2026-06-04 13:33:34"
      }
    },
    {
      "id": "62170003",
      "lat": 50.483,
      "lon": 1.758,
      "cp": "62170",
      "ville": "ATTIN",
      "prix": {
        "Gazole": 0.001954,
        "SP95": 0.002089,
        "E85": 0.000798,
        "E10": 0.001935
      },
      "maj_gouv": {
        "Gazole": "2026-06-09 01:15:00",
        "SP95": "2026-06-09 01:15:00",
        "E85": "2026-06-09 01:15:00",
        "E10": "2026-06-09 01:15:00"
      }
    },
    {
      "id": "62217001",
      "lat": 50.266,
      "lon": 2.799,
      "cp": "62217",
      "ville": "BEAURAINS",
      "prix": {
        "Gazole": 0.002022,
        "E10": 0.001916,
        "SP98": 0.002041
      },
      "maj_gouv": {
        "Gazole": "2026-06-08 16:45:48",
        "E10": "2026-06-08 16:45:49",
        "SP98": "2026-06-08 16:45:49"
      }
    },
    {
      "id": "62710001",
      "lat": 50.448,
      "lon": 2.948,
      "cp": "62710",
      "ville": "Courrières",
      "prix": {
        "Gazole": 0.002013,
        "E85": 0.0008139999999999999,
        "GPLc": 0.000999,
        "E10": 0.001939,
        "SP98": 0.002042
      },
      "maj_gouv": {
        "Gazole": "2026-06-05 11:39:35",
        "E85": "2026-06-03 10:55:01",
        "GPLc": "2026-04-22 11:19:57",
        "E10": "2026-06-08 12:32:19",
        "SP98": "2026-06-08 12:32:19"
      }
    },
    {
      "id": "62400002",
      "lat": 50.525,
      "lon": 2.65,
      "cp": "62400",
      "ville": "Béthune",
      "prix": {
        "E85": 0.000819,
        "E10": 0.001949,
        "SP98": 0.002099
      },
      "maj_gouv": {
        "E85": "2026-06-04 09:39:08",
        "E10": "2026-06-04 09:39:08",
        "SP98": "2026-06-04 09:39:08"
      }
    },
    {
      "id": "62250010",
      "lat": 50.785,
      "lon": 1.694,
      "cp": "62250",
      "ville": "BEUVREQUEN",
      "prix": {
        "Gazole": 0.00197,
        "E85": 0.0008209999999999999,
        "E10": 0.001897,
        "SP98": 0.00199
      },
      "maj_gouv": {
        "Gazole": "2026-06-09 00:01:00",
        "E85": "2026-06-09 00:01:00",
        "E10": "2026-06-09 00:01:00",
        "SP98": "2026-06-09 00:01:00"
      }
    },
    {
      "id": "62240004",
      "lat": 50.669,
      "lon": 1.824,
      "cp": "62240",
      "ville": "Desvres",
      "prix": {
        "Gazole": 0.002061,
        "E10": 0.001916,
        "SP98": 0.0020800000000000003
      },
      "maj_gouv": {
        "Gazole": "2026-06-08 08:41:10",
        "E10": "2026-06-08 08:41:10",
        "SP98": "2026-06-08 08:41:10"
      }
    },
    {
      "id": "62350002",
      "lat": 50.62,
      "lon": 2.542,
      "cp": "62350",
      "ville": "Saint-Venant",
      "prix": {
        "Gazole": 0.002049,
        "SP95": 0.001999,
        "SP98": 0.002079
      },
      "maj_gouv": {
        "Gazole": "2026-06-05 16:27:34",
        "SP95": "2026-06-05 16:27:34",
        "SP98": "2026-06-05 16:27:35"
      }
    },
    {
      "id": "62180004",
      "lat": 50.401548,
      "lon": 1.65032437,
      "cp": "62180",
      "ville": "VERTON",
      "prix": {
        "Gazole": 0.00206,
        "E85": 0.0008900000000000001,
        "E10": 0.0020099999999999996,
        "SP98": 0.00214
      },
      "maj_gouv": {
        "Gazole": "2026-06-02 15:06:24",
        "E85": "2026-05-07 08:45:20",
        "E10": "2026-06-01 16:18:57",
        "SP98": "2026-06-04 08:46:31"
      }
    },
    {
      "id": "62490003",
      "lat": 50.332,
      "lon": 2.934,
      "cp": "62490",
      "ville": "Fresnes-lès-Montauban",
      "prix": {
        "Gazole": 0.001971,
        "E10": 0.001909,
        "SP98": 0.00199
      },
      "maj_gouv": {
        "Gazole": "2026-06-09 00:01:00",
        "E10": "2026-06-09 00:01:00",
        "SP98": "2026-06-09 00:01:00"
      }
    },
    {
      "id": "62200005",
      "lat": 50.719,
      "lon": 1.609,
      "cp": "62200",
      "ville": "Boulogne-sur-Mer",
      "prix": {
        "Gazole": 0.002069,
        "E85": 0.0008219999999999999
      },
      "maj_gouv": {
        "Gazole": "2026-06-09 00:01:00",
        "E85": "2026-06-09 00:01:00"
      }
    },
    {
      "id": "62250009",
      "lat": 50.84,
      "lon": 1.774,
      "cp": "62250",
      "ville": "Landrethun-le-Nord",
      "prix": {
        "Gazole": 0.002056,
        "SP95": 0.00206,
        "SP98": 0.002143
      },
      "maj_gouv": {
        "Gazole": "2026-05-28 06:33:40",
        "SP95": "2026-05-28 06:33:40",
        "SP98": "2026-05-28 06:33:40"
      }
    },
    {
      "id": "62100014",
      "lat": 50.958,
      "lon": 1.88,
      "cp": "62100",
      "ville": "Calais",
      "prix": {
        "Gazole": 0.0020299999999999997,
        "E10": 0.00197,
        "SP98": 0.00209
      },
      "maj_gouv": {
        "Gazole": "2026-06-08 07:28:27",
        "E10": "2026-06-04 07:33:29",
        "SP98": "2026-06-04 07:33:29"
      }
    },
    {
      "id": "62450003",
      "lat": 50.099,
      "lon": 2.855,
      "cp": "62450",
      "ville": "Bapaume",
      "prix": {
        "Gazole": 0.001998,
        "E85": 0.000798,
        "E10": 0.001958,
        "SP98": 0.002029
      },
      "maj_gouv": {
        "Gazole": "2026-06-08 09:51:47",
        "E85": "2026-06-08 09:51:47",
        "E10": "2026-06-08 09:51:47",
        "SP98": "2026-06-08 09:51:47"
      }
    },
    {
      "id": "62660003",
      "lat": 50.513,
      "lon": 2.689,
      "cp": "62660",
      "ville": "BEUVRY",
      "prix": {
        "Gazole": 0.001967,
        "E85": 0.000799,
        "E10": 0.001899,
        "SP98": 0.0019890000000000003
      },
      "maj_gouv": {
        "Gazole": "2026-06-08 06:45:16",
        "E85": "2026-06-04 06:58:10",
        "E10": "2026-06-08 06:45:17",
        "SP98": "2026-06-08 06:45:17"
      }
    },
    {
      "id": "62630006",
      "lat": 50.507,
      "lon": 1.68,
      "cp": "62630",
      "ville": "Étaples",
      "prix": {
        "Gazole": 0.002312,
        "SP98": 0.002455
      },
      "maj_gouv": {
        "Gazole": "2026-06-08 13:00:00",
        "SP98": "2026-06-08 13:00:00"
      }
    },
    {
      "id": "62130002",
      "lat": 50.381,
      "lon": 2.342,
      "cp": "62130",
      "ville": "Saint-Michel-sur-Ternoise",
      "prix": {
        "Gazole": 0.002033,
        "E10": 0.001931,
        "SP98": 0.00202
      },
      "maj_gouv": {
        "Gazole": "2026-06-09 06:30:00",
        "E10": "2026-06-09 06:30:00",
        "SP98": "2026-06-09 06:30:00"
      }
    },
    {
      "id": "62120014",
      "lat": 50.573,
      "lon": 2.377,
      "cp": "62120",
      "ville": "Rely",
      "prix": {
        "Gazole": 0.002245,
        "GPLc": 0.001063,
        "E10": 0.0021349999999999997,
        "SP98": 0.002235
      },
      "maj_gouv": {
        "Gazole": "2026-06-04 00:30:00",
        "GPLc": "2026-06-04 00:30:00",
        "E10": "2026-06-04 00:30:00",
        "SP98": "2026-06-04 00:30:00"
      }
    },
    {
      "id": "62128010",
      "lat": 50.261,
      "lon": 2.864,
      "cp": "62128",
      "ville": "WANCOURT",
      "prix": {
        "Gazole": 0.002164,
        "GPLc": 0.001206,
        "E10": 0.002057,
        "SP98": 0.002083
      },
      "maj_gouv": {
        "Gazole": "2026-06-07 15:26:43",
        "GPLc": "2026-06-07 15:26:43",
        "E10": "2026-06-07 15:26:43",
        "SP98": "2026-06-07 15:26:43"
      }
    },
    {
      "id": "62240003",
      "lat": 50.669,
      "lon": 1.823,
      "cp": "62240",
      "ville": "Longfossé",
      "prix": {
        "Gazole": 0.002049,
        "E10": 0.001998,
        "SP98": 0.002108
      },
      "maj_gouv": {
        "Gazole": "2026-06-06 07:41:00",
        "E10": "2026-06-06 07:41:00",
        "SP98": "2026-06-06 07:41:00"
      }
    },
    {
      "id": "62160003",
      "lat": 50.448,
      "lon": 2.738,
      "cp": "62160",
      "ville": "Grenay",
      "prix": {
        "Gazole": 0.002008,
        "E10": 0.001938,
        "SP98": 0.002048
      },
      "maj_gouv": {
        "Gazole": "2026-06-05 16:00:00",
        "E10": "2026-06-05 16:00:00",
        "SP98": "2026-06-05 16:00:00"
      }
    },
    {
      "id": "62290003",
      "lat": 50.484,
      "lon": 2.659,
      "cp": "62290",
      "ville": "NOEUX-LES-MINES",
      "prix": {
        "Gazole": 0.00226,
        "E10": 0.00213,
        "SP98": 0.0022299999999999998
      },
      "maj_gouv": {
        "Gazole": "2026-06-01 18:19:33",
        "E10": "2026-05-20 17:30:21",
        "SP98": "2026-06-01 18:19:33"
      }
    },
    {
      "id": "62600005",
      "lat": 50.40858,
      "lon": 1.59383,
      "cp": "62600",
      "ville": "Berck",
      "prix": {
        "Gazole": 0.002077,
        "E10": 0.00199,
        "SP98": 0.00199
      },
      "maj_gouv": {
        "Gazole": "2026-06-09 00:01:00",
        "E10": "2026-06-09 00:01:00",
        "SP98": "2026-06-09 00:01:00"
      }
    },
    {
      "id": "62500003",
      "lat": 50.744,
      "lon": 2.26,
      "cp": "62500",
      "ville": "Saint-Omer",
      "prix": {
        "Gazole": 0.001986,
        "E85": 0.0009220000000000001,
        "E10": 0.001903,
        "SP98": 0.001983
      },
      "maj_gouv": {
        "Gazole": "2026-06-09 06:30:00",
        "E85": "2026-06-09 06:30:00",
        "E10": "2026-06-09 06:30:00",
        "SP98": "2026-06-09 06:30:00"
      }
    },
    {
      "id": "62740001",
      "lat": 50.424,
      "lon": 2.918,
      "cp": "62740",
      "ville": "Fouquières-lès-Lens",
      "prix": {
        "Gazole": 0.002008,
        "E85": 0.0009320000000000001,
        "E10": 0.001924,
        "SP98": 0.002021
      },
      "maj_gouv": {
        "Gazole": "2026-06-09 06:30:00",
        "E85": "2026-06-09 06:30:00",
        "E10": "2026-06-09 06:30:00",
        "SP98": "2026-06-09 06:30:00"
      }
    },
    {
      "id": "62860007",
      "lat": 50.225,
      "lon": 3.069,
      "cp": "62860",
      "ville": "MARQUION",
      "prix": {
        "Gazole": 0.002115,
        "E10": 0.002088,
        "SP98": 0.002163
      },
      "maj_gouv": {
        "Gazole": "2026-06-06 12:19:27",
        "E10": "2026-06-06 12:19:27",
        "SP98": "2026-06-06 12:19:27"
      }
    },
    {
      "id": "62870002",
      "lat": 50.401,
      "lon": 1.88,
      "cp": "62870",
      "ville": "CAMPAGNE-LèS-HESDIN",
      "prix": {
        "Gazole": 0.0020099999999999996,
        "SP95": 0.001981,
        "SP98": 0.00206
      },
      "maj_gouv": {
        "Gazole": "2026-06-08 07:32:58",
        "SP95": "2026-06-03 07:31:07",
        "SP98": "2026-06-03 07:31:07"
      }
    },
    {
      "id": "62127001",
      "lat": 50.356,
      "lon": 2.48,
      "cp": "62127",
      "ville": "TINCQUES",
      "prix": {
        "Gazole": 0.002165,
        "E85": 0.00216,
        "E10": 0.002091,
        "SP98": 0.002234
      },
      "maj_gouv": {
        "Gazole": "2026-05-23 15:18:17",
        "E85": "2026-04-29 15:47:54",
        "E10": "2026-05-07 17:28:35",
        "SP98": "2026-05-07 17:28:35"
      }
    },
    {
      "id": "62300014",
      "lat": 50.427,
      "lon": 2.819,
      "cp": "62300",
      "ville": "LENS",
      "prix": {
        "Gazole": 0.001993,
        "E85": 0.000823,
        "GPLc": 0.000959,
        "E10": 0.001898,
        "SP98": 0.00199
      },
      "maj_gouv": {
        "Gazole": "2026-06-09 00:01:00",
        "E85": "2026-06-09 00:01:00",
        "GPLc": "2026-06-09 00:01:00",
        "E10": "2026-06-08 20:41:54",
        "SP98": "2026-06-08 20:41:54"
      }
    },
    {
      "id": "62250001",
      "lat": 50.809,
      "lon": 1.696,
      "cp": "62250",
      "ville": "MARQUISE",
      "prix": {
        "Gazole": 0.0019690000000000003,
        "SP95": 0.0019690000000000003,
        "SP98": 0.002039
      },
      "maj_gouv": {
        "Gazole": "2026-06-06 09:01:21",
        "SP95": "2026-06-06 09:01:21",
        "SP98": "2026-06-06 09:01:21"
      }
    },
    {
      "id": "62310001",
      "lat": 50.512,
      "lon": 2.134,
      "cp": "62310",
      "ville": "FRUGES",
      "prix": {
        "Gazole": 0.0020369999999999997,
        "E85": 0.000759,
        "E10": 0.001911,
        "SP98": 0.002075
      },
      "maj_gouv": {
        "Gazole": "2026-06-03 09:42:22",
        "E85": "2026-06-03 09:42:22",
        "E10": "2026-06-03 09:42:22",
        "SP98": "2026-06-03 09:42:22"
      }
    },
    {
      "id": "62215006",
      "lat": 50.979,
      "lon": 2.042,
      "cp": "62215",
      "ville": "Oye-Plage",
      "prix": {
        "Gazole": 0.001999,
        "SP95": 0.001999,
        "SP98": 0.002129
      },
      "maj_gouv": {
        "Gazole": "2026-06-02 07:18:34",
        "SP95": "2026-06-02 07:18:35",
        "SP98": "2026-06-02 07:18:35"
      }
    },
    {
      "id": "62130004",
      "lat": 50.364,
      "lon": 2.331,
      "cp": "62130",
      "ville": "Herlin-le-Sec",
      "prix": {
        "Gazole": 0.001993,
        "E85": 0.0007930000000000001,
        "GPLc": 0.00103,
        "E10": 0.001917,
        "SP98": 0.002028
      },
      "maj_gouv": {
        "Gazole": "2026-06-09 01:15:00",
        "E85": "2026-06-09 01:15:00",
        "GPLc": "2026-06-09 01:15:00",
        "E10": "2026-06-09 01:15:00",
        "SP98": "2026-06-09 01:15:00"
      }
    },
    {
      "id": "62770001",
      "lat": 50.401,
      "lon": 2.101,
      "cp": "62770",
      "ville": "AUCHY-LèS-HESDIN",
      "prix": {
        "Gazole": 0.001999,
        "SP95": 0.001999,
        "SP98": 0.002079
      },
      "maj_gouv": {
        "Gazole": "2026-06-06 19:49:01",
        "SP95": "2026-06-06 19:49:01",
        "SP98": "2026-06-06 19:49:01"
      }
    },
    {
      "id": "62480001",
      "lat": 50.71,
      "lon": 1.577,
      "cp": "62480",
      "ville": "LE PORTEL",
      "prix": {
        "Gazole": 0.001963,
        "E10": 0.001949,
        "SP98": 0.002154
      },
      "maj_gouv": {
        "Gazole": "2026-06-08 08:28:45",
        "E10": "2026-06-08 08:29:02",
        "SP98": "2026-06-08 08:29:19"
      }
    },
    {
      "id": "62156002",
      "lat": 50.2461085,
      "lon": 2.9415206,
      "cp": "62156",
      "ville": "Vis en Artois",
      "prix": {
        "Gazole": 0.001999,
        "SP95": 0.002089,
        "SP98": 0.002199
      },
      "maj_gouv": {
        "Gazole": "2026-06-03 07:37:57",
        "SP95": "2026-06-03 07:37:57",
        "SP98": "2026-06-03 07:37:57"
      }
    },
    {
      "id": "62810002",
      "lat": 50.278,
      "lon": 2.533,
      "cp": "62810",
      "ville": "Avesnes-le-Comte",
      "prix": {
        "Gazole": 0.0021000000000000003,
        "E10": 0.00199
      },
      "maj_gouv": {
        "Gazole": "2026-05-31 19:07:06",
        "E10": "2026-04-08 08:12:09"
      }
    },
    {
      "id": "62012001",
      "lat": 50.301,
      "lon": 2.736,
      "cp": "62000",
      "ville": "ARRAS",
      "prix": {
        "Gazole": 0.0019690000000000003,
        "E85": 0.000833,
        "GPLc": 0.0010500000000000002,
        "E10": 0.0019,
        "SP98": 0.00199
      },
      "maj_gouv": {
        "Gazole": "2026-06-08 09:24:30",
        "E85": "2026-06-05 09:13:41",
        "GPLc": "2026-04-15 15:17:00",
        "E10": "2026-06-08 09:24:30",
        "SP98": "2026-06-08 09:24:30"
      }
    },
    {
      "id": "62290001",
      "lat": 50.47753377,
      "lon": 2.6781464899999996,
      "cp": "62290",
      "ville": "NOEUX-LES-MINES",
      "prix": {
        "Gazole": 0.001961,
        "E85": 0.000796,
        "E10": 0.001899,
        "SP98": 0.001997
      },
      "maj_gouv": {
        "Gazole": "2026-06-08 09:07:18",
        "E85": "2026-06-08 09:07:19",
        "E10": "2026-06-08 09:07:19",
        "SP98": "2026-06-08 09:07:19"
      }
    },
    {
      "id": "62270002",
      "lat": 50.27748,
      "lon": 2.29229,
      "cp": "62270",
      "ville": "FRéVENT",
      "prix": {
        "Gazole": 0.002199,
        "SP95": 0.002189,
        "SP98": 0.002269
      },
      "maj_gouv": {
        "Gazole": "2026-05-22 10:22:34",
        "SP95": "2026-05-22 10:22:34",
        "SP98": "2026-05-22 10:22:34"
      }
    },
    {
      "id": "62129002",
      "lat": 50.631881500000006,
      "lon": 2.2654255,
      "cp": "62129",
      "ville": "Thérouanne",
      "prix": {
        "Gazole": 0.002019,
        "E85": 0.000879,
        "E10": 0.001949,
        "SP98": 0.002029
      },
      "maj_gouv": {
        "Gazole": "2026-06-05 08:11:29",
        "E85": "2026-05-30 08:32:12",
        "E10": "2026-06-05 08:11:29",
        "SP98": "2026-06-05 08:11:29"
      }
    },
    {
      "id": "62690001",
      "lat": 50.35,
      "lon": 2.582,
      "cp": "62690",
      "ville": "AUBIGNY-EN-ARTOIS",
      "prix": {
        "Gazole": 0.002068,
        "SP95": 0.002058,
        "E85": 0.000804,
        "SP98": 0.002097
      },
      "maj_gouv": {
        "Gazole": "2026-06-05 11:35:23",
        "SP95": "2026-06-05 11:35:23",
        "E85": "2026-06-05 11:35:24",
        "SP98": "2026-06-05 11:35:24"
      }
    },
    {
      "id": "62150002",
      "lat": 50.454,
      "lon": 2.532,
      "cp": "62150",
      "ville": "HOUDAIN",
      "prix": {
        "Gazole": 0.001999,
        "E10": 0.0019199999999999998,
        "SP98": 0.002039
      },
      "maj_gouv": {
        "Gazole": "2026-06-08 16:45:56",
        "E10": "2026-06-08 16:45:57",
        "SP98": "2026-06-08 16:45:57"
      }
    },
    {
      "id": "62101001",
      "lat": 50.95,
      "lon": 1.893,
      "cp": "62100",
      "ville": "CALAIS",
      "prix": {
        "Gazole": 0.001993,
        "SP95": 0.0019590000000000002,
        "E85": 0.0008489999999999999,
        "GPLc": 0.000999,
        "E10": 0.0019119999999999999,
        "SP98": 0.002049
      },
      "maj_gouv": {
        "Gazole": "2026-06-08 04:52:42",
        "SP95": "2026-06-08 04:52:42",
        "E85": "2026-05-22 05:00:00",
        "GPLc": "2026-04-10 13:25:00",
        "E10": "2026-06-08 04:52:42",
        "SP98": "2026-06-04 06:00:00"
      }
    },
    {
      "id": "62100024",
      "lat": 50.95575,
      "lon": 1.90807,
      "cp": "62100",
      "ville": "CALAIS",
      "prix": {
        "Gazole": 0.002081,
        "E85": 0.000844,
        "GPLc": 0.000999,
        "E10": 0.00199,
        "SP98": 0.00199
      },
      "maj_gouv": {
        "Gazole": "2026-06-09 00:01:00",
        "E85": "2026-06-09 00:01:00",
        "GPLc": "2026-06-09 00:01:00",
        "E10": "2026-06-09 00:01:00",
        "SP98": "2026-06-09 00:01:00"
      }
    },
    {
      "id": "62152001",
      "lat": 50.63,
      "lon": 1.646,
      "cp": "62152",
      "ville": "NESLES",
      "prix": {
        "Gazole": 0.0020350000000000004,
        "SP95": 0.001967,
        "SP98": 0.002054
      },
      "maj_gouv": {
        "Gazole": "2026-06-05 13:46:32",
        "SP95": "2026-06-05 13:46:32",
        "SP98": "2026-06-05 13:46:32"
      }
    },
    {
      "id": "62143003",
      "lat": 50.405,
      "lon": 2.745,
      "cp": "62143",
      "ville": "Angres",
      "prix": {
        "Gazole": 0.0021669999999999997,
        "E10": 0.002115
      },
      "maj_gouv": {
        "Gazole": "2026-06-06 12:17:43",
        "E10": "2026-06-06 12:17:43"
      }
    },
    {
      "id": "62100012",
      "lat": 50.947,
      "lon": 1.91,
      "cp": "62100",
      "ville": "Calais",
      "prix": {
        "Gazole": 0.002179,
        "E10": 0.002059,
        "SP98": 0.002169
      },
      "maj_gouv": {
        "Gazole": "2026-05-28 09:24:02",
        "E10": "2026-06-05 09:34:00",
        "SP98": "2026-06-04 09:30:00"
      }
    },
    {
      "id": "62300006",
      "lat": 50.427,
      "lon": 2.806,
      "cp": "62300",
      "ville": "Lens",
      "prix": {
        "Gazole": 0.0020870000000000003,
        "E10": 0.001966,
        "SP98": 0.0020459999999999996
      },
      "maj_gouv": {
        "Gazole": "2026-06-05 06:31:00",
        "E10": "2026-06-05 06:31:00",
        "SP98": "2026-06-05 06:31:00"
      }
    },
    {
      "id": "62100001",
      "lat": 50.943,
      "lon": 1.81,
      "cp": "62100",
      "ville": "Calais",
      "prix": {
        "Gazole": 0.002034,
        "GPLc": 0.000999,
        "E10": 0.0019119999999999999,
        "SP98": 0.0020369999999999997
      },
      "maj_gouv": {
        "Gazole": "2026-06-05 08:58:55",
        "GPLc": "2026-05-30 09:01:37",
        "E10": "2026-06-05 08:58:55",
        "SP98": "2026-06-05 08:58:56"
      }
    },
    {
      "id": "62660001",
      "lat": 50.517,
      "lon": 2.683,
      "cp": "62660",
      "ville": "BEUVRY",
      "prix": {
        "Gazole": 0.002064,
        "E85": 0.000864,
        "E10": 0.0019590000000000002,
        "SP98": 0.002134
      },
      "maj_gouv": {
        "Gazole": "2026-06-02 11:51:08",
        "E85": "2026-05-21 09:54:33",
        "E10": "2026-06-02 11:51:09",
        "SP98": "2026-06-02 11:51:09"
      }
    },
    {
      "id": "62360004",
      "lat": 50.67,
      "lon": 1.633,
      "cp": "62360",
      "ville": "SAINT-ÉTIENNE-AU-MONT",
      "prix": {
        "Gazole": 0.002002,
        "E10": 0.001939,
        "SP98": 0.002049
      },
      "maj_gouv": {
        "Gazole": "2026-06-05 16:42:25",
        "E10": "2026-06-05 16:42:25",
        "SP98": "2026-06-05 16:42:26"
      }
    },
    {
      "id": "62790001",
      "lat": 50.437,
      "lon": 3.057,
      "cp": "62790",
      "ville": "LEFOREST",
      "prix": {
        "Gazole": 0.002053,
        "SP95": 0.001987,
        "SP98": 0.0020729999999999998
      },
      "maj_gouv": {
        "Gazole": "2026-06-05 07:54:24",
        "SP95": "2026-06-05 19:03:00",
        "SP98": "2026-06-05 19:03:00"
      }
    },
    {
      "id": "62700001",
      "lat": 50.494,
      "lon": 2.572,
      "cp": "62700",
      "ville": "BRUAY-LA-BUISSIèRE",
      "prix": {
        "Gazole": 0.002029,
        "E85": 0.000798,
        "GPLc": 0.000999,
        "E10": 0.0019190000000000001,
        "SP98": 0.0021509999999999997
      },
      "maj_gouv": {
        "Gazole": "2026-06-08 10:24:35",
        "E85": "2026-05-29 10:21:40",
        "GPLc": "2026-06-04 10:11:00",
        "E10": "2026-06-02 10:06:31",
        "SP98": "2026-05-28 10:05:25"
      }
    },
    {
      "id": "62600003",
      "lat": 50.407,
      "lon": 1.571,
      "cp": "62600",
      "ville": "BERCK",
      "prix": {
        "Gazole": 0.002117,
        "SP95": 0.00211,
        "SP98": 0.0021920000000000004
      },
      "maj_gouv": {
        "Gazole": "2026-05-26 08:22:45",
        "SP95": "2026-05-26 08:22:45",
        "SP98": "2026-05-26 08:22:45"
      }
    },
    {
      "id": "62510002",
      "lat": 50.736,
      "lon": 2.28,
      "cp": "62510",
      "ville": "ARQUES",
      "prix": {
        "Gazole": 0.00215
      },
      "maj_gouv": {
        "Gazole": "2026-05-07 14:26:36"
      }
    },
    {
      "id": "62560003",
      "lat": 50.598,
      "lon": 2.096,
      "cp": "62560",
      "ville": "Fauquembergues",
      "prix": {
        "Gazole": 0.001949,
        "E10": 0.0019690000000000003,
        "SP98": 0.001999
      },
      "maj_gouv": {
        "Gazole": "2026-06-05 08:13:08",
        "E10": "2026-06-05 08:13:08",
        "SP98": "2026-06-05 08:13:08"
      }
    },
    {
      "id": "62550002",
      "lat": 50.485,
      "lon": 2.414,
      "cp": "62550",
      "ville": "PERNES",
      "prix": {
        "Gazole": 0.001998,
        "SP95": 0.002059,
        "SP98": 0.0021349999999999997
      },
      "maj_gouv": {
        "Gazole": "2026-06-02 06:38:07",
        "SP95": "2026-06-02 06:38:07",
        "SP98": "2026-06-02 06:38:07"
      }
    },
    {
      "id": "62210001",
      "lat": 50.414,
      "lon": 2.835,
      "cp": "62210",
      "ville": "Avion",
      "prix": {
        "Gazole": 0.002085,
        "E10": 0.0020099999999999996,
        "SP98": 0.0020499999999999997
      },
      "maj_gouv": {
        "Gazole": "2026-06-02 10:38:00",
        "E10": "2026-06-02 10:38:00",
        "SP98": "2026-06-05 09:19:18"
      }
    },
    {
      "id": "62232002",
      "lat": 50.540552606169,
      "lon": 2.6078070661317003,
      "cp": "62232",
      "ville": "VENDIN LES BETHUNE",
      "prix": {
        "Gazole": 0.002059,
        "E85": 0.000829,
        "E10": 0.002009
      },
      "maj_gouv": {
        "Gazole": "2026-06-03 09:25:42",
        "E85": "2026-03-20 10:19:38",
        "E10": "2026-06-05 08:01:12"
      }
    },
    {
      "id": "62120009",
      "lat": 50.621,
      "lon": 2.392,
      "cp": "62120",
      "ville": "LAMBRES",
      "prix": {
        "Gazole": 0.001999,
        "E10": 0.0019190000000000001,
        "SP98": 0.002039
      },
      "maj_gouv": {
        "Gazole": "2026-06-04 19:00:00",
        "E10": "2026-06-04 19:00:00",
        "SP98": "2026-06-04 19:00:00"
      }
    },
    {
      "id": "62650002",
      "lat": 50.568386,
      "lon": 1.908013,
      "cp": "62650",
      "ville": "HUCQUELIERS",
      "prix": {
        "Gazole": 0.002019,
        "SP95": 0.001999,
        "SP98": 0.002069
      },
      "maj_gouv": {
        "Gazole": "2026-06-08 12:16:38",
        "SP95": "2026-06-08 12:16:38",
        "SP98": "2026-06-08 12:16:38"
      }
    },
    {
      "id": "62100025",
      "lat": 50.9340083071,
      "lon": 1.8175652035499998,
      "cp": "62100",
      "ville": "COQUELLES",
      "prix": {},
      "maj_gouv": {}
    },
    {
      "id": "62161001",
      "lat": 50.328,
      "lon": 2.713,
      "cp": "62161",
      "ville": "MAROEUIL",
      "prix": {
        "Gazole": 0.002069,
        "SP95": 0.002029,
        "SP98": 0.0021190000000000002
      },
      "maj_gouv": {
        "Gazole": "2026-06-08 07:00:41",
        "SP95": "2026-06-08 07:00:42",
        "SP98": "2026-06-08 07:00:42"
      }
    },
    {
      "id": "62120001",
      "lat": 50.63519769999999,
      "lon": 2.4106756,
      "cp": "62120",
      "ville": "Aire-sur-la-Lys",
      "prix": {
        "Gazole": 0.001966,
        "SP95": 0.001956,
        "E85": 0.0008309999999999999,
        "GPLc": 0.000923,
        "E10": 0.0019119999999999999,
        "SP98": 0.0020310000000000003
      },
      "maj_gouv": {
        "Gazole": "2026-06-08 22:44:00",
        "SP95": "2026-06-08 22:44:00",
        "E85": "2026-06-08 22:44:00",
        "GPLc": "2026-06-08 22:44:00",
        "E10": "2026-06-08 22:44:00",
        "SP98": "2026-06-08 22:44:00"
      }
    },
    {
      "id": "62800001",
      "lat": 50.422,
      "lon": 2.774,
      "cp": "62800",
      "ville": "LIévin",
      "prix": {
        "Gazole": 0.001978,
        "SP95": 0.001966,
        "E85": 0.0008070000000000001,
        "GPLc": 0.00095,
        "E10": 0.0019190000000000001,
        "SP98": 0.0020299999999999997
      },
      "maj_gouv": {
        "Gazole": "2026-06-08 00:45:00",
        "SP95": "2026-06-08 00:45:00",
        "E85": "2026-06-08 00:45:00",
        "GPLc": "2026-05-30 08:20:00",
        "E10": "2026-06-08 00:45:00",
        "SP98": "2026-06-08 00:45:00"
      }
    },
    {
      "id": "62280002",
      "lat": 50.737,
      "lon": 1.622,
      "cp": "62280",
      "ville": "SAINT-MARTIN-BOULOGNE",
      "prix": {
        "Gazole": 0.0019690000000000003,
        "E85": 0.000846,
        "E10": 0.001935,
        "SP98": 0.0020499999999999997
      },
      "maj_gouv": {
        "Gazole": "2026-06-06 10:45:41",
        "E85": "2026-06-06 10:45:41",
        "E10": "2026-06-06 10:45:41",
        "SP98": "2026-06-06 10:45:42"
      }
    },
    {
      "id": "62340001",
      "lat": 50.862,
      "lon": 1.885,
      "cp": "62340",
      "ville": "GUîNES",
      "prix": {
        "Gazole": 0.00202,
        "E10": 0.001877,
        "SP98": 0.002039
      },
      "maj_gouv": {
        "Gazole": "2026-06-06 08:34:38",
        "E10": "2026-06-06 08:34:39",
        "SP98": "2026-06-06 08:34:39"
      }
    },
    {
      "id": "62370002",
      "lat": 50.945,
      "lon": 2.119,
      "cp": "62370",
      "ville": "SAINT-FOLQUIN",
      "prix": {
        "Gazole": 0.0019950000000000002,
        "E10": 0.002025,
        "SP98": 0.0021349999999999997
      },
      "maj_gouv": {
        "Gazole": "2026-05-29 08:37:00",
        "E10": "2026-05-29 08:37:00",
        "SP98": "2026-05-29 08:37:00"
      }
    },
    {
      "id": "62120017",
      "lat": 50.57291837014,
      "lon": 2.3802908317047,
      "cp": "62120",
      "ville": "Saint-Hilaire-Cottes",
      "prix": {
        "Gazole": 0.002139,
        "E10": 0.002083,
        "SP98": 0.0021739999999999997
      },
      "maj_gouv": {
        "Gazole": "2026-06-09 00:30:00",
        "E10": "2026-06-09 00:30:00",
        "SP98": "2026-06-09 00:30:00"
      }
    },
    {
      "id": "62630007",
      "lat": 50.51588833617,
      "lon": 1.6450284847821999,
      "cp": "62630",
      "ville": "ETAPLES",
      "prix": {
        "Gazole": 0.002049,
        "E10": 0.001939,
        "SP98": 0.002049
      },
      "maj_gouv": {
        "Gazole": "2026-06-05 14:16:34",
        "E10": "2026-06-05 14:16:35",
        "SP98": "2026-06-05 14:16:35"
      }
    },
    {
      "id": "62160004",
      "lat": 50.451,
      "lon": 2.721,
      "cp": "62160",
      "ville": "BULLY-LES-MINES",
      "prix": {
        "Gazole": 0.001999,
        "E85": 0.000798,
        "E10": 0.001929,
        "SP98": 0.002039
      },
      "maj_gouv": {
        "Gazole": "2026-06-05 08:41:43",
        "E85": "2026-06-03 08:56:24",
        "E10": "2026-06-05 08:41:44",
        "SP98": "2026-06-05 08:41:44"
      }
    },
    {
      "id": "62940001",
      "lat": 50.467,
      "lon": 2.565,
      "cp": "62940",
      "ville": "HAILLICOURT",
      "prix": {
        "Gazole": 0.0020350000000000004,
        "E10": 0.001949,
        "SP98": 0.0020729999999999998
      },
      "maj_gouv": {
        "Gazole": "2026-06-08 07:32:15",
        "E10": "2026-06-08 07:32:16",
        "SP98": "2026-06-08 07:32:16"
      }
    },
    {
      "id": "62440001",
      "lat": 50.455,
      "lon": 2.904,
      "cp": "62440",
      "ville": "HARNES",
      "prix": {
        "Gazole": 0.001991,
        "E10": 0.001942,
        "SP98": 0.00213
      },
      "maj_gouv": {
        "Gazole": "2026-06-01 19:22:51",
        "E10": "2026-06-02 16:59:46",
        "SP98": "2026-06-04 12:49:39"
      }
    },
    {
      "id": "62780003",
      "lat": 50.4946,
      "lon": 1.59569,
      "cp": "62780",
      "ville": "CUCQ",
      "prix": {
        "Gazole": 0.001958,
        "E85": 0.000798,
        "E10": 0.0019039999999999999,
        "SP98": 0.001986
      },
      "maj_gouv": {
        "Gazole": "2026-06-08 07:36:21",
        "E85": "2026-05-16 10:16:02",
        "E10": "2026-06-05 10:37:14",
        "SP98": "2026-06-08 07:36:21"
      }
    },
    {
      "id": "62126001",
      "lat": 50.76535,
      "lon": 1.61844,
      "cp": "62126",
      "ville": "WIMILLE",
      "prix": {
        "Gazole": 0.002129,
        "SP95": 0.002079,
        "SP98": 0.002149
      },
      "maj_gouv": {
        "Gazole": "2026-05-27 12:01:21",
        "SP95": "2026-05-27 12:01:22",
        "SP98": "2026-04-16 10:20:47"
      }
    },
    {
      "id": "62140001",
      "lat": 50.371,
      "lon": 2.027,
      "cp": "62140",
      "ville": "MARCONNELLE",
      "prix": {
        "E10": 0.0019199999999999998,
        "SP98": 0.002085
      },
      "maj_gouv": {
        "E10": "2026-06-05 08:38:01",
        "SP98": "2026-06-05 08:38:01"
      }
    },
    {
      "id": "62320001",
      "lat": 50.393,
      "lon": 2.923,
      "cp": "62320",
      "ville": "ROUVROY",
      "prix": {
        "Gazole": 0.002024,
        "E10": 0.001882,
        "SP98": 0.002043
      },
      "maj_gouv": {
        "Gazole": "2026-06-08 10:42:24",
        "E10": "2026-06-08 10:42:25",
        "SP98": "2026-06-08 10:42:25"
      }
    },
    {
      "id": "62980001",
      "lat": 50.487,
      "lon": 2.746,
      "cp": "62980",
      "ville": "VERMELLES",
      "prix": {
        "Gazole": 0.001961,
        "E10": 0.001899,
        "SP98": 0.001999
      },
      "maj_gouv": {
        "Gazole": "2026-06-08 08:20:46",
        "E10": "2026-06-08 08:20:47",
        "SP98": "2026-06-08 08:20:47"
      }
    },
    {
      "id": "62100028",
      "lat": 50.938,
      "lon": 1.882,
      "cp": "62100",
      "ville": "Calais",
      "prix": {
        "Gazole": 0.0019790000000000003,
        "E85": 0.0009260000000000001,
        "E10": 0.001909,
        "SP98": 0.002079
      },
      "maj_gouv": {
        "Gazole": "2026-06-09 06:21:48",
        "E85": "2026-06-09 06:21:48",
        "E10": "2026-06-09 06:21:48",
        "SP98": "2026-06-09 06:21:48"
      }
    },
    {
      "id": "62630004",
      "lat": 50.526,
      "lon": 1.628,
      "cp": "62630",
      "ville": "Étaples-sur-Mer",
      "prix": {
        "Gazole": 0.001958,
        "E85": 0.000798,
        "E10": 0.0019039999999999999,
        "SP98": 0.001986
      },
      "maj_gouv": {
        "Gazole": "2026-06-09 01:15:00",
        "E85": "2026-06-09 01:15:00",
        "E10": "2026-06-09 01:15:00",
        "SP98": "2026-06-09 01:15:00"
      }
    },
    {
      "id": "62610002",
      "lat": 50.853,
      "lon": 1.986,
      "cp": "62610",
      "ville": "AUTINGUES",
      "prix": {},
      "maj_gouv": {}
    },
    {
      "id": "62620001",
      "lat": 50.454,
      "lon": 2.616,
      "cp": "62620",
      "ville": "BARLIN",
      "prix": {
        "Gazole": 0.002074,
        "E85": 0.0008449999999999999,
        "E10": 0.00199,
        "SP98": 0.00199
      },
      "maj_gouv": {
        "Gazole": "2026-06-09 00:01:00",
        "E85": "2026-06-06 09:23:18",
        "E10": "2026-06-09 00:01:00",
        "SP98": "2026-05-27 10:36:15"
      }
    },
    {
      "id": "62300013",
      "lat": 50.443434761834,
      "lon": 2.8312583134527,
      "cp": "62300",
      "ville": "LENS",
      "prix": {
        "Gazole": 0.001972,
        "E10": 0.001906
      },
      "maj_gouv": {
        "Gazole": "2026-06-09 00:01:00",
        "E10": "2026-06-09 00:01:00"
      }
    },
    {
      "id": "62100002",
      "lat": 50.953,
      "lon": 1.853,
      "cp": "62100",
      "ville": "CALAIS",
      "prix": {
        "Gazole": 0.00207,
        "E10": 0.001967,
        "SP98": 0.00199
      },
      "maj_gouv": {
        "Gazole": "2026-06-08 07:12:19",
        "E10": "2026-06-08 07:12:19",
        "SP98": "2026-06-08 07:12:19"
      }
    },
    {
      "id": "62680001",
      "lat": 50.405,
      "lon": 2.876,
      "cp": "62680",
      "ville": "Méricourt",
      "prix": {
        "Gazole": 0.001991,
        "E85": 0.000798,
        "E10": 0.0019019999999999998,
        "SP98": 0.0020139999999999997
      },
      "maj_gouv": {
        "Gazole": "2026-06-05 08:30:00",
        "E85": "2026-05-14 08:30:00",
        "E10": "2026-06-05 08:30:00",
        "SP98": "2026-06-05 08:30:00"
      }
    },
    {
      "id": "62730003",
      "lat": 50.941,
      "lon": 1.939,
      "cp": "62730",
      "ville": "MARCK",
      "prix": {
        "Gazole": 0.00215
      },
      "maj_gouv": {
        "Gazole": "2026-06-09 00:05:00"
      }
    },
    {
      "id": "62131001",
      "lat": 50.502,
      "lon": 2.652,
      "cp": "62131",
      "ville": "VERQUIN",
      "prix": {
        "Gazole": 0.001996,
        "E85": 0.000798,
        "E10": 0.001949,
        "SP98": 0.001999
      },
      "maj_gouv": {
        "Gazole": "2026-06-06 18:44:13",
        "E85": "2026-06-04 08:27:30",
        "E10": "2026-05-29 07:38:22",
        "SP98": "2026-06-06 18:44:13"
      }
    },
    {
      "id": "62970003",
      "lat": 50.41648,
      "lon": 3.0254,
      "cp": "62970",
      "ville": "Courcelles-lès-Lens",
      "prix": {
        "Gazole": 0.0019890000000000003,
        "SP95": 0.0019850000000000002,
        "E10": 0.0019450000000000001,
        "SP98": 0.002009
      },
      "maj_gouv": {
        "Gazole": "2026-06-03 07:37:09",
        "SP95": "2026-06-03 07:37:10",
        "E10": "2026-06-03 07:37:10",
        "SP98": "2026-06-03 07:37:10"
      }
    },
    {
      "id": "62110001",
      "lat": 50.416,
      "lon": 2.976,
      "cp": "62110",
      "ville": "Hénin-Beaumont",
      "prix": {
        "Gazole": 0.0020710000000000004
      },
      "maj_gouv": {
        "Gazole": "2026-06-08 18:56:34"
      }
    },
    {
      "id": "62100011",
      "lat": 50.94,
      "lon": 1.879,
      "cp": "62100",
      "ville": "CALAIS",
      "prix": {
        "Gazole": 0.001999,
        "SP95": 0.0019790000000000003,
        "SP98": 0.002099
      },
      "maj_gouv": {
        "Gazole": "2026-06-04 11:29:40",
        "SP95": "2026-06-03 18:40:22",
        "SP98": "2026-06-03 18:40:22"
      }
    },
    {
      "id": "62410001",
      "lat": 50.495,
      "lon": 2.858,
      "cp": "62410",
      "ville": "WINGLES",
      "prix": {
        "Gazole": 0.00195,
        "E85": 0.000799,
        "E10": 0.001917,
        "SP98": 0.002047
      },
      "maj_gouv": {
        "Gazole": "2026-06-08 14:38:21",
        "E85": "2026-06-06 06:51:39",
        "E10": "2026-06-02 11:30:58",
        "SP98": "2026-06-03 07:58:04"
      }
    },
    {
      "id": "62142001",
      "lat": 50.739,
      "lon": 1.802,
      "cp": "62142",
      "ville": "ALINCTHUN",
      "prix": {
        "Gazole": 0.001999,
        "E10": 0.002024,
        "SP98": 0.002155
      },
      "maj_gouv": {
        "Gazole": "2026-06-03 09:14:36",
        "E10": "2026-05-29 13:02:59",
        "SP98": "2026-05-29 13:03:00"
      }
    },
    {
      "id": "62720002",
      "lat": 50.807,
      "lon": 1.73,
      "cp": "62720",
      "ville": "RINXENT",
      "prix": {
        "Gazole": 0.0019790000000000003,
        "SP95": 0.0019690000000000003,
        "SP98": 0.002059
      },
      "maj_gouv": {
        "Gazole": "2026-06-03 08:42:38",
        "SP95": "2026-06-03 08:42:38",
        "SP98": "2026-06-03 08:42:38"
      }
    },
    {
      "id": "62137001",
      "lat": 50.928,
      "lon": 1.901,
      "cp": "62137",
      "ville": "Coulogne",
      "prix": {
        "Gazole": 0.001961,
        "E10": 0.00188
      },
      "maj_gouv": {
        "Gazole": "2026-06-07 10:29:07",
        "E10": "2026-06-08 08:14:30"
      }
    },
    {
      "id": "62780004",
      "lat": 50.51,
      "lon": 1.629,
      "cp": "62780",
      "ville": "CUCQ",
      "prix": {
        "Gazole": 0.001975,
        "E85": 0.0008110000000000001,
        "GPLc": 0.000999,
        "E10": 0.0019019999999999998,
        "SP98": 0.00199
      },
      "maj_gouv": {
        "Gazole": "2026-06-09 00:01:00",
        "E85": "2026-06-09 00:01:00",
        "GPLc": "2026-06-09 00:01:00",
        "E10": "2026-06-09 00:01:00",
        "SP98": "2026-06-09 00:01:00"
      }
    },
    {
      "id": "62250011",
      "lat": 50.859765360000004,
      "lon": 1.73284823,
      "cp": "62250",
      "ville": "LEUBRINGHEN",
      "prix": {
        "Gazole": 0.001978,
        "E10": 0.001915,
        "SP98": 0.00199
      },
      "maj_gouv": {
        "Gazole": "2026-06-09 00:01:00",
        "E10": "2026-06-09 00:01:00",
        "SP98": "2026-06-09 00:01:00"
      }
    },
    {
      "id": "62860002",
      "lat": 50.215,
      "lon": 3.067,
      "cp": "62860",
      "ville": "MARQUION",
      "prix": {
        "Gazole": 0.001994,
        "SP95": 0.001934,
        "SP98": 0.002006
      },
      "maj_gouv": {
        "Gazole": "2026-06-06 07:00:58",
        "SP95": "2026-06-06 07:00:59",
        "SP98": "2026-06-06 07:00:59"
      }
    },
    {
      "id": "62590001",
      "lat": 50.47,
      "lon": 2.996,
      "cp": "62590",
      "ville": "Oignies",
      "prix": {
        "Gazole": 0.001997,
        "E10": 0.001949,
        "SP98": 0.002018
      },
      "maj_gouv": {
        "Gazole": "2026-06-08 13:55:20",
        "E10": "2026-06-08 13:55:21",
        "SP98": "2026-06-08 13:55:21"
      }
    },
    {
      "id": "62700003",
      "lat": 50.475,
      "lon": 2.538,
      "cp": "62700",
      "ville": "Bruay-la-Buissière",
      "prix": {
        "Gazole": 0.002029,
        "E85": 0.000798,
        "E10": 0.0019190000000000001,
        "SP98": 0.002069
      },
      "maj_gouv": {
        "Gazole": "2026-06-05 10:31:11",
        "E85": "2026-05-29 11:00:00",
        "E10": "2026-06-04 08:09:31",
        "SP98": "2026-06-05 10:31:11"
      }
    },
    {
      "id": "62118002",
      "lat": 50.306,
      "lon": 2.952,
      "cp": "62118",
      "ville": "BIACHE SAINT VAAST",
      "prix": {
        "Gazole": 0.0019790000000000003,
        "E10": 0.001933,
        "SP98": 0.002006
      },
      "maj_gouv": {
        "Gazole": "2026-06-05 08:58:09",
        "E10": "2026-06-05 08:58:09",
        "SP98": "2026-06-05 08:58:09"
      }
    },
    {
      "id": "62140003",
      "lat": 50.372881298871,
      "lon": 2.022489605961,
      "cp": "62140",
      "ville": "MARCONNELLE",
      "prix": {
        "Gazole": 0.002023,
        "E85": 0.000798,
        "E10": 0.001921,
        "SP98": 0.002033
      },
      "maj_gouv": {
        "Gazole": "2026-06-06 08:32:22",
        "E85": "2026-06-04 08:35:16",
        "E10": "2026-06-06 08:32:22",
        "SP98": "2026-06-06 08:32:22"
      }
    },
    {
      "id": "62147006",
      "lat": 50.111382,
      "lon": 3.036056,
      "cp": "62147",
      "ville": "HERMIES",
      "prix": {
        "Gazole": 0.0021160000000000003,
        "E85": 0.0008990000000000001,
        "E10": 0.00195,
        "SP98": 0.002176
      },
      "maj_gouv": {
        "Gazole": "2026-05-27 12:07:17",
        "E85": "2026-06-04 10:31:45",
        "E10": "2026-06-04 10:31:45",
        "SP98": "2026-05-14 10:23:03"
      }
    },
    {
      "id": "62223001",
      "lat": 50.304,
      "lon": 2.789,
      "cp": "62223",
      "ville": "Saint-Nicolas",
      "prix": {
        "Gazole": 0.001957,
        "SP95": 0.001965,
        "E85": 0.000759,
        "E10": 0.0019,
        "SP98": 0.002011
      },
      "maj_gouv": {
        "Gazole": "2026-06-08 08:46:21",
        "SP95": "2026-06-03 08:24:23",
        "E85": "2026-06-08 08:46:21",
        "E10": "2026-06-04 07:59:39",
        "SP98": "2026-06-08 08:46:21"
      }
    },
    {
      "id": "62840006",
      "lat": 50.625772999999995,
      "lon": 2.7726409999999997,
      "cp": "62840",
      "ville": "LAVENTIE",
      "prix": {
        "Gazole": 0.002079,
        "SP95": 0.002089,
        "E85": 0.0008489999999999999
      },
      "maj_gouv": {
        "Gazole": "2026-05-28 09:46:06",
        "SP95": "2026-05-28 09:46:06",
        "E85": "2026-05-19 10:16:15"
      }
    },
    {
      "id": "62153004",
      "lat": 50.40430397997199,
      "lon": 2.7427477754803,
      "cp": "62153",
      "ville": "SOUCHEZ",
      "prix": {
        "Gazole": 0.002089,
        "E10": 0.002039,
        "SP98": 0.002129
      },
      "maj_gouv": {
        "Gazole": "2026-06-08 20:00:00",
        "E10": "2026-06-08 20:00:00",
        "SP98": "2026-06-08 20:00:00"
      }
    },
    {
      "id": "62210002",
      "lat": 50.4,
      "lon": 2.831,
      "cp": "62210",
      "ville": "Avion",
      "prix": {
        "Gazole": 0.001999,
        "E10": 0.001999,
        "SP98": 0.00215
      },
      "maj_gouv": {
        "Gazole": "2026-06-04 11:21:54",
        "E10": "2026-06-04 11:21:54",
        "SP98": "2026-06-04 11:21:54"
      }
    },
    {
      "id": "62000005",
      "lat": 50.28087,
      "lon": 2.78103,
      "cp": "62000",
      "ville": "ARRAS",
      "prix": {
        "Gazole": 0.0019690000000000003,
        "SP95": 0.001965,
        "E10": 0.0019,
        "SP98": 0.00199
      },
      "maj_gouv": {
        "Gazole": "2026-06-04 08:11:41",
        "SP95": "2026-06-02 16:27:26",
        "E10": "2026-06-02 16:27:26",
        "SP98": "2026-06-02 16:27:26"
      }
    },
    {
      "id": "62330002",
      "lat": 50.612,
      "lon": 2.493,
      "cp": "62330",
      "ville": "Guarbecque",
      "prix": {
        "Gazole": 0.001956,
        "E10": 0.001865,
        "SP98": 0.001972
      },
      "maj_gouv": {
        "Gazole": "2026-06-08 08:30:00",
        "E10": "2026-06-08 08:30:00",
        "SP98": "2026-06-08 08:30:00"
      }
    },
    {
      "id": "62530001",
      "lat": 50.452,
      "lon": 2.637,
      "cp": "62530",
      "ville": "Hersin-Coupigny",
      "prix": {
        "Gazole": 0.0019950000000000002,
        "E85": 0.000798,
        "E10": 0.0019190000000000001,
        "SP98": 0.002029
      },
      "maj_gouv": {
        "Gazole": "2026-06-04 14:07:44",
        "E85": "2026-05-26 07:16:50",
        "E10": "2026-06-04 14:07:45",
        "SP98": "2026-06-04 14:07:45"
      }
    },
    {
      "id": "62170005",
      "lat": 50.458,
      "lon": 1.758,
      "cp": "62170",
      "ville": "Montreuil",
      "prix": {
        "Gazole": 0.00197,
        "E85": 0.000829,
        "E10": 0.001899,
        "SP98": 0.00199
      },
      "maj_gouv": {
        "Gazole": "2026-06-09 00:01:00",
        "E85": "2026-06-09 00:01:00",
        "E10": "2026-06-09 00:01:00",
        "SP98": "2026-06-09 00:01:00"
      }
    },
    {
      "id": "62120006",
      "lat": 50.629,
      "lon": 2.39,
      "cp": "62120",
      "ville": "Aire-sur-la-Lys",
      "prix": {
        "Gazole": 0.001999,
        "E85": 0.000906,
        "E10": 0.0019190000000000001,
        "SP98": 0.002039
      },
      "maj_gouv": {
        "Gazole": "2026-06-05 07:41:00",
        "E85": "2026-06-05 07:41:00",
        "E10": "2026-06-05 07:41:00",
        "SP98": "2026-06-05 07:41:00"
      }
    },
    {
      "id": "62149001",
      "lat": 50.512,
      "lon": 2.746,
      "cp": "62149",
      "ville": "Cambrin",
      "prix": {
        "Gazole": 0.001957,
        "E10": 0.001903,
        "SP98": 0.001983
      },
      "maj_gouv": {
        "Gazole": "2026-06-09 06:30:00",
        "E10": "2026-06-09 06:30:00",
        "SP98": "2026-06-09 06:30:00"
      }
    },
    {
      "id": "62138002",
      "lat": 50.51,
      "lon": 2.784,
      "cp": "62138",
      "ville": "AUCHY-LES-MINES",
      "prix": {
        "Gazole": 0.001949,
        "SP95": 0.0019619999999999998,
        "E85": 0.0007239999999999999,
        "GPLc": 0.000923,
        "E10": 0.0018759999999999998,
        "SP98": 0.00207
      },
      "maj_gouv": {
        "Gazole": "2026-06-08 22:44:00",
        "SP95": "2026-06-08 22:44:00",
        "E85": "2026-06-08 22:44:00",
        "GPLc": "2026-06-08 22:44:00",
        "E10": "2026-06-08 22:44:00",
        "SP98": "2026-06-08 22:44:00"
      }
    },
    {
      "id": "62300005",
      "lat": 50.427,
      "lon": 2.819,
      "cp": "62300",
      "ville": "Lens",
      "prix": {
        "Gazole": 0.001978,
        "E10": 0.0019479999999999999,
        "SP98": 0.002028
      },
      "maj_gouv": {
        "Gazole": "2026-06-09 06:30:00",
        "E10": "2026-06-09 06:30:00",
        "SP98": "2026-06-09 06:30:00"
      }
    },
    {
      "id": "62610004",
      "lat": 50.852,
      "lon": 1.987,
      "cp": "62610",
      "ville": "Nielles-lès-Ardres",
      "prix": {
        "Gazole": 0.002077,
        "E10": 0.001974
      },
      "maj_gouv": {
        "Gazole": "2026-06-05 06:25:00",
        "E10": "2026-06-05 06:25:00"
      }
    },
    {
      "id": "62114002",
      "lat": 50.455,
      "lon": 2.684,
      "cp": "62114",
      "ville": "SAINS-EN-GOHELLE",
      "prix": {
        "Gazole": 0.002048,
        "E10": 0.001956,
        "SP98": 0.00199
      },
      "maj_gouv": {
        "Gazole": "2026-06-08 07:02:48",
        "E10": "2026-06-08 07:02:48",
        "SP98": "2026-06-08 07:02:49"
      }
    },
    {
      "id": "62116001",
      "lat": 50.148,
      "lon": 2.717,
      "cp": "62116",
      "ville": "Bucquoy",
      "prix": {
        "Gazole": 0.002019,
        "E10": 0.001998,
        "SP98": 0.002088
      },
      "maj_gouv": {
        "Gazole": "2026-06-08 07:04:51",
        "E10": "2026-06-08 07:04:51",
        "SP98": "2026-06-08 07:04:52"
      }
    },
    {
      "id": "62330001",
      "lat": 50.609,
      "lon": 2.472,
      "cp": "62330",
      "ville": "ISBERGUES",
      "prix": {
        "Gazole": 0.001999,
        "SP95": 0.0019479999999999999
      },
      "maj_gouv": {
        "Gazole": "2026-06-08 08:17:58",
        "SP95": "2026-06-08 08:17:58"
      }
    },
    {
      "id": "62138005",
      "lat": 50.540594649516,
      "lon": 2.7973236932458,
      "cp": "62138",
      "ville": "VIOLAINES",
      "prix": {
        "Gazole": 0.001949,
        "E85": 0.000762,
        "E10": 0.001879,
        "SP98": 0.001976
      },
      "maj_gouv": {
        "Gazole": "2026-06-08 08:37:37",
        "E85": "2026-06-05 08:16:29",
        "E10": "2026-06-08 08:37:37",
        "SP98": "2026-06-08 08:37:37"
      }
    },
    {
      "id": "62110004",
      "lat": 50.45828,
      "lon": 2.97598,
      "cp": "62110",
      "ville": "Hénin-Beaumont",
      "prix": {
        "Gazole": 0.001974,
        "E10": 0.0019039999999999999
      },
      "maj_gouv": {
        "Gazole": "2026-06-09 00:01:00",
        "E10": "2026-06-09 00:01:00"
      }
    },
    {
      "id": "62000006",
      "lat": 50.283,
      "lon": 2.739,
      "cp": "62000",
      "ville": "DAINVILLE",
      "prix": {
        "Gazole": 0.0019690000000000003,
        "E85": 0.000759,
        "GPLc": 0.000999,
        "E10": 0.001899,
        "SP98": 0.00199
      },
      "maj_gouv": {
        "Gazole": "2026-06-05 15:00:00",
        "E85": "2026-06-06 08:06:13",
        "GPLc": "2026-05-04 09:57:41",
        "E10": "2026-06-08 08:40:08",
        "SP98": "2026-06-02 14:19:47"
      }
    },
    {
      "id": "62130001",
      "lat": 50.387,
      "lon": 2.349,
      "cp": "62130",
      "ville": "SAINT-POL-SUR-TERNOISE",
      "prix": {
        "Gazole": 0.002062,
        "E10": 0.001961,
        "SP98": 0.00199
      },
      "maj_gouv": {
        "Gazole": "2026-06-06 08:00:09",
        "E10": "2026-06-06 08:00:38",
        "SP98": "2026-06-06 08:00:38"
      }
    },
    {
      "id": "62137002",
      "lat": 50.925,
      "lon": 1.905,
      "cp": "62137",
      "ville": "Coulogne",
      "prix": {
        "Gazole": 0.00197,
        "SP95": 0.0019690000000000003,
        "E85": 0.0008489999999999999,
        "E10": 0.001929
      },
      "maj_gouv": {
        "Gazole": "2026-06-01 10:10:44",
        "SP95": "2026-06-02 10:29:42",
        "E85": "2026-05-28 09:01:01",
        "E10": "2026-06-03 09:30:22"
      }
    },
    {
      "id": "62176001",
      "lat": 50.572,
      "lon": 1.613,
      "cp": "62176",
      "ville": "CAMIERS",
      "prix": {
        "Gazole": 0.002079,
        "E10": 0.002049,
        "SP98": 0.002159
      },
      "maj_gouv": {
        "Gazole": "2026-05-30 09:58:56",
        "E10": "2026-05-19 18:40:10",
        "SP98": "2026-05-30 09:58:56"
      }
    },
    {
      "id": "62220001",
      "lat": 50.481100127621005,
      "lon": 2.9372236434899004,
      "cp": "62220",
      "ville": "Carvin",
      "prix": {
        "Gazole": 0.002069,
        "E85": 0.0008349999999999999,
        "GPLc": 0.00107
      },
      "maj_gouv": {
        "Gazole": "2026-06-09 06:28:10",
        "E85": "2026-06-09 06:28:10",
        "GPLc": "2026-06-09 06:28:10"
      }
    },
    {
      "id": "62500001",
      "lat": 50.755,
      "lon": 2.24,
      "cp": "62500",
      "ville": "SAINT-MARTIN-AU-LAëRT",
      "prix": {
        "Gazole": 0.002028,
        "E85": 0.0008020000000000001,
        "GPLc": 0.001065,
        "E10": 0.001913,
        "SP98": 0.002038
      },
      "maj_gouv": {
        "Gazole": "2026-06-08 11:06:59",
        "E85": "2026-06-08 11:06:59",
        "GPLc": "2026-06-08 11:06:59",
        "E10": "2026-06-08 11:06:59",
        "SP98": "2026-06-08 11:07:00"
      }
    },
    {
      "id": "62130006",
      "lat": 50.391,
      "lon": 2.203,
      "cp": "62130",
      "ville": "HUMIERES",
      "prix": {
        "Gazole": 0.00218,
        "SP95": 0.00199
      },
      "maj_gouv": {
        "Gazole": "2026-06-05 11:56:29",
        "SP95": "2026-06-05 11:56:29"
      }
    },
    {
      "id": "62160002",
      "lat": 50.448,
      "lon": 2.72,
      "cp": "62160",
      "ville": "BULLY-LES-MINES",
      "prix": {
        "Gazole": 0.00225,
        "SP95": 0.0021030000000000003,
        "SP98": 0.002186
      },
      "maj_gouv": {
        "Gazole": "2026-05-06 08:01:19",
        "SP95": "2026-05-06 08:01:19",
        "SP98": "2026-05-06 08:01:20"
      }
    },
    {
      "id": "62136001",
      "lat": 50.618,
      "lon": 2.686,
      "cp": "62136",
      "ville": "Lestrem",
      "prix": {
        "Gazole": 0.00206,
        "E85": 0.0008309999999999999,
        "E10": 0.001961,
        "SP98": 0.00199
      },
      "maj_gouv": {
        "Gazole": "2026-06-06 08:01:00",
        "E85": "2026-06-06 08:01:01",
        "E10": "2026-06-06 08:01:01",
        "SP98": "2026-06-06 08:01:01"
      }
    },
    {
      "id": "62220002",
      "lat": 50.498,
      "lon": 2.945,
      "cp": "62220",
      "ville": "CARVIN",
      "prix": {
        "Gazole": 0.001999,
        "E85": 0.000749,
        "E10": 0.001949,
        "SP98": 0.002049
      },
      "maj_gouv": {
        "Gazole": "2026-06-06 07:35:00",
        "E85": "2026-04-15 07:24:00",
        "E10": "2026-06-03 07:30:00",
        "SP98": "2026-06-03 07:30:00"
      }
    },
    {
      "id": "62450006",
      "lat": 50.107243,
      "lon": 2.84654,
      "cp": "62450",
      "ville": "Bapaume",
      "prix": {
        "Gazole": 0.001999,
        "SP95": 0.001958,
        "SP98": 0.0020299999999999997
      },
      "maj_gouv": {
        "Gazole": "2026-06-05 10:29:35",
        "SP95": "2026-06-05 10:29:35",
        "SP98": "2026-06-05 10:29:35"
      }
    },
    {
      "id": "62450005",
      "lat": 50.116,
      "lon": 2.851,
      "cp": "62450",
      "ville": "BAPAUME",
      "prix": {
        "Gazole": 0.001984,
        "E85": 0.000819,
        "E10": 0.001917,
        "SP98": 0.00199
      },
      "maj_gouv": {
        "Gazole": "2026-06-09 00:01:00",
        "E85": "2026-06-09 00:01:00",
        "E10": "2026-06-09 00:01:00",
        "SP98": "2026-06-09 00:01:00"
      }
    },
    {
      "id": "62460002",
      "lat": 50.469,
      "lon": 2.503,
      "cp": "62460",
      "ville": "DIVION",
      "prix": {
        "Gazole": 0.001999,
        "E85": 0.000839,
        "E10": 0.0019190000000000001,
        "SP98": 0.002099
      },
      "maj_gouv": {
        "Gazole": "2026-06-08 08:40:05",
        "E85": "2026-06-08 08:40:05",
        "E10": "2026-06-08 08:40:05",
        "SP98": "2026-06-08 08:40:05"
      }
    },
    {
      "id": "62220003",
      "lat": 50.483,
      "lon": 2.965,
      "cp": "62220",
      "ville": "CARVIN",
      "prix": {
        "Gazole": 0.001997,
        "E85": 0.000798,
        "E10": 0.001949
      },
      "maj_gouv": {
        "Gazole": "2026-06-06 09:20:18",
        "E85": "2026-06-06 09:20:18",
        "E10": "2026-06-06 09:20:18"
      }
    },
    {
      "id": "62190005",
      "lat": 50.569,
      "lon": 2.464,
      "cp": "62190",
      "ville": "LILLERS",
      "prix": {
        "Gazole": 0.001984,
        "E85": 0.000829,
        "E10": 0.0019039999999999999,
        "SP98": 0.00199
      },
      "maj_gouv": {
        "Gazole": "2026-06-09 00:01:00",
        "E85": "2026-06-09 00:01:00",
        "E10": "2026-06-09 00:01:00",
        "SP98": "2026-06-09 00:01:00"
      }
    },
    {
      "id": "62123005",
      "lat": 50.240930550775,
      "lon": 2.6573450374759,
      "cp": "62123",
      "ville": "Beaumetz-lès-Loges",
      "prix": {
        "Gazole": 0.002055,
        "SP95": 0.002049,
        "SP98": 0.002089
      },
      "maj_gouv": {
        "Gazole": "2026-06-04 11:00:08",
        "SP95": "2026-06-04 11:00:08",
        "SP98": "2026-06-04 11:00:09"
      }
    },
    {
      "id": "62260004",
      "lat": 50.507768533812,
      "lon": 2.4784007934858,
      "cp": "62260",
      "ville": "AUCHEL",
      "prix": {
        "Gazole": 0.001949,
        "E85": 0.000799,
        "GPLc": 0.0010500000000000002,
        "E10": 0.001899,
        "SP98": 0.001999
      },
      "maj_gouv": {
        "Gazole": "2026-06-07 07:46:34",
        "E85": "2026-06-01 10:49:38",
        "GPLc": "2026-04-08 10:46:41",
        "E10": "2026-06-07 07:46:34",
        "SP98": "2026-05-28 11:21:01"
      }
    },
    {
      "id": "62128011",
      "lat": 50.199276005712996,
      "lon": 2.8826762228144003,
      "cp": "62128",
      "ville": "croisilles",
      "prix": {
        "Gazole": 0.0022589999999999997,
        "SP95": 0.002109,
        "SP98": 0.002189
      },
      "maj_gouv": {
        "Gazole": "2026-05-31 11:01:03",
        "SP95": "2026-05-31 11:01:03",
        "SP98": "2026-05-31 11:01:03"
      }
    },
    {
      "id": "62880005",
      "lat": 50.459123,
      "lon": 2.88458,
      "cp": "62880",
      "ville": "Annay sous Lens",
      "prix": {
        "Gazole": 0.002019,
        "SP95": 0.0019890000000000003,
        "SP98": 0.00206
      },
      "maj_gouv": {
        "Gazole": "2026-06-04 15:26:36",
        "SP95": "2026-06-04 15:26:36",
        "SP98": "2026-06-04 15:26:37"
      }
    },
    {
      "id": "62152006",
      "lat": 50.63223,
      "lon": 1.58442,
      "cp": "62152",
      "ville": "NEUFCHATEL-HARDELOT",
      "prix": {
        "Gazole": 0.002199,
        "SP95": 0.002149,
        "SP98": 0.002199
      },
      "maj_gouv": {
        "Gazole": "2026-05-13 11:42:32",
        "SP95": "2026-05-13 11:42:33",
        "SP98": "2026-05-13 11:42:33"
      }
    },
    {
      "id": "62600002",
      "lat": 50.4050899239,
      "lon": 1.59571571173,
      "cp": "62600",
      "ville": "BERCK",
      "prix": {
        "Gazole": 0.0019890000000000003,
        "SP95": 0.001957,
        "E10": 0.001869,
        "SP98": 0.0019619999999999998
      },
      "maj_gouv": {
        "Gazole": "2026-06-08 09:32:13",
        "SP95": "2026-06-08 09:32:14",
        "E10": "2026-06-08 09:32:14",
        "SP98": "2026-06-08 09:32:14"
      }
    },
    {
      "id": "62450004",
      "lat": 50.104,
      "lon": 2.85,
      "cp": "62450",
      "ville": "BAPAUME",
      "prix": {
        "Gazole": 0.001999,
        "E10": 0.0019590000000000002
      },
      "maj_gouv": {
        "Gazole": "2026-06-04 09:00:28",
        "E10": "2026-06-02 10:09:11"
      }
    },
    {
      "id": "62143002",
      "lat": 50.405,
      "lon": 2.756,
      "cp": "62143",
      "ville": "ANGRES",
      "prix": {
        "Gazole": 0.0019690000000000003,
        "E10": 0.0019190000000000001,
        "SP98": 0.001999
      },
      "maj_gouv": {
        "Gazole": "2026-06-05 08:54:38",
        "E10": "2026-06-05 08:54:39",
        "SP98": "2026-06-05 08:54:39"
      }
    },
    {
      "id": "62800004",
      "lat": 50.418,
      "lon": 2.769,
      "cp": "62800",
      "ville": "LIEVIN",
      "prix": {
        "Gazole": 0.001972,
        "GPLc": 0.000959,
        "E10": 0.0019039999999999999,
        "SP98": 0.00199
      },
      "maj_gouv": {
        "Gazole": "2026-06-09 00:01:00",
        "GPLc": "2026-06-09 00:01:00",
        "E10": "2026-06-09 00:01:00",
        "SP98": "2026-06-09 00:01:00"
      }
    },
    {
      "id": "62100027",
      "lat": 50.945,
      "lon": 1.827,
      "cp": "62100",
      "ville": "CALAIS",
      "prix": {
        "Gazole": 0.0020710000000000004,
        "E10": 0.00199,
        "SP98": 0.00199
      },
      "maj_gouv": {
        "Gazole": "2026-06-09 00:01:00",
        "E10": "2026-06-09 00:01:00",
        "SP98": "2026-06-09 00:01:00"
      }
    },
    {
      "id": "62000013",
      "lat": 50.291,
      "lon": 2.784,
      "cp": "62000",
      "ville": "ARRAS",
      "prix": {
        "Gazole": 0.002065,
        "E85": 0.000832,
        "GPLc": 0.000999,
        "E10": 0.001986,
        "SP98": 0.00199
      },
      "maj_gouv": {
        "Gazole": "2026-06-09 00:01:00",
        "E85": "2026-06-09 00:01:00",
        "GPLc": "2026-06-09 00:01:00",
        "E10": "2026-06-09 00:01:00",
        "SP98": "2026-06-09 00:01:00"
      }
    },
    {
      "id": "62660004",
      "lat": 50.523,
      "lon": 2.681,
      "cp": "62660",
      "ville": "BEUVRY",
      "prix": {
        "Gazole": 0.002085,
        "E85": 0.000844,
        "E10": 0.00199
      },
      "maj_gouv": {
        "Gazole": "2026-06-09 00:01:00",
        "E85": "2026-06-09 00:01:00",
        "E10": "2026-06-09 00:01:00"
      }
    },
    {
      "id": "62500005",
      "lat": 50.744,
      "lon": 2.26,
      "cp": "62500",
      "ville": "Saint-Omer",
      "prix": {
        "Gazole": 0.001986,
        "E85": 0.000901,
        "E10": 0.001923,
        "SP98": 0.00199
      },
      "maj_gouv": {
        "Gazole": "2026-06-09 00:01:00",
        "E85": "2026-06-09 00:01:00",
        "E10": "2026-06-09 00:01:00",
        "SP98": "2026-06-09 00:01:00"
      }
    }
  ]
}