{
  "departement": "90",
  "date": "2026-06-09",
  "stations": [
    {
      "id": "90500001",
      "lat": 47.48973,
      "lon": 6.92225,
      "cp": "90500",
      "ville": "Beaucourt",
      "prix": {
        "Gazole": 0.00209,
        "SP95": 0.00212,
        "SP98": 0.00216
      },
      "maj_gouv": {
        "Gazole": "2026-06-04 07:30:00",
        "SP95": "2026-06-04 07:30:00",
        "SP98": "2026-06-04 07:30:00"
      }
    },
    {
      "id": "90000015",
      "lat": 47.636,
      "lon": 6.838,
      "cp": "90000",
      "ville": "BELFORT",
      "prix": {
        "Gazole": 0.001988,
        "SP98": 0.00199
      },
      "maj_gouv": {
        "Gazole": "2026-06-09 00:01:00",
        "SP98": "2026-06-09 00:01:00"
      }
    },
    {
      "id": "90008001",
      "lat": 47.628,
      "lon": 6.862,
      "cp": "90000",
      "ville": "Belfort",
      "prix": {
        "Gazole": 0.001971,
        "SP95": 0.001987,
        "E85": 0.000869,
        "E10": 0.001893,
        "SP98": 0.001991
      },
      "maj_gouv": {
        "Gazole": "2026-06-09 01:15:00",
        "SP95": "2026-06-09 01:15:00",
        "E85": "2026-06-09 01:15:00",
        "E10": "2026-06-09 01:15:00",
        "SP98": "2026-06-09 01:15:00"
      }
    },
    {
      "id": "90500002",
      "lat": 47.49,
      "lon": 6.922,
      "cp": "90500",
      "ville": "BEAUCOURT",
      "prix": {
        "Gazole": 0.002018,
        "SP95": 0.002029,
        "E10": 0.001999,
        "SP98": 0.0020310000000000003
      },
      "maj_gouv": {
        "Gazole": "2026-06-08 17:25:38",
        "SP95": "2026-06-08 17:25:38",
        "E10": "2026-06-08 17:25:38",
        "SP98": "2026-06-08 17:25:38"
      }
    },
    {
      "id": "90000009",
      "lat": 47.636,
      "lon": 6.873,
      "cp": "90000",
      "ville": "Belfort",
      "prix": {
        "Gazole": 0.002099,
        "SP95": 0.002129,
        "E85": 0.0008990000000000001,
        "SP98": 0.002169
      },
      "maj_gouv": {
        "Gazole": "2026-06-03 08:28:53",
        "SP95": "2026-06-03 08:28:53",
        "E85": "2026-06-03 08:28:53",
        "SP98": "2026-06-03 08:28:54"
      }
    },
    {
      "id": "90100004",
      "lat": 47.511,
      "lon": 7.001,
      "cp": "90100",
      "ville": "Delle",
      "prix": {
        "Gazole": 0.002099,
        "SP95": 0.002129,
        "GPLc": 0.00109,
        "SP98": 0.002169
      },
      "maj_gouv": {
        "Gazole": "2026-06-03 08:11:58",
        "SP95": "2026-06-03 08:11:58",
        "GPLc": "2026-06-03 08:11:58",
        "SP98": "2026-06-03 08:11:58"
      }
    },
    {
      "id": "90300004",
      "lat": 47.658916,
      "lon": 6.866529,
      "cp": "90300",
      "ville": "OFFEMONT",
      "prix": {
        "Gazole": 0.001999,
        "E85": 0.000799,
        "E10": 0.0019470000000000002
      },
      "maj_gouv": {
        "Gazole": "2026-06-08 10:46:05",
        "E85": "2026-06-08 10:46:05",
        "E10": "2026-06-08 10:46:05"
      }
    },
    {
      "id": "90300002",
      "lat": 47.66862601099999,
      "lon": 6.842203087160001,
      "cp": "90300",
      "ville": "VALDOIE",
      "prix": {
        "Gazole": 0.001999,
        "SP95": 0.001987,
        "GPLc": 0.001059,
        "SP98": 0.001997
      },
      "maj_gouv": {
        "Gazole": "2026-06-06 19:42:55",
        "SP95": "2026-06-06 19:42:55",
        "GPLc": "2026-06-06 19:42:55",
        "SP98": "2026-06-06 19:42:55"
      }
    },
    {
      "id": "90100003",
      "lat": 47.512,
      "lon": 6.999,
      "cp": "90100",
      "ville": "DELLE",
      "prix": {
        "Gazole": 0.0019619999999999998,
        "E85": 0.000798,
        "E10": 0.0019010000000000001,
        "SP98": 0.002008
      },
      "maj_gouv": {
        "Gazole": "2026-06-08 13:00:00",
        "E85": "2026-05-16 08:30:00",
        "E10": "2026-06-06 09:07:32",
        "SP98": "2026-06-06 09:07:32"
      }
    },
    {
      "id": "90150001",
      "lat": 47.688,
      "lon": 6.955,
      "cp": "90150",
      "ville": "MENONCOURT",
      "prix": {
        "Gazole": 0.002055,
        "E10": 0.001951
      },
      "maj_gouv": {
        "Gazole": "2026-06-08 07:52:18",
        "E10": "2026-06-08 07:52:18"
      }
    },
    {
      "id": "90200003",
      "lat": 47.735,
      "lon": 6.83,
      "cp": "90200",
      "ville": "GIROMAGNY",
      "prix": {
        "Gazole": 0.002062,
        "E10": 0.00195,
        "SP98": 0.00199
      },
      "maj_gouv": {
        "Gazole": "2026-06-06 08:30:38",
        "E10": "2026-06-06 08:30:39",
        "SP98": "2026-06-06 08:30:39"
      }
    },
    {
      "id": "90000014",
      "lat": 47.626,
      "lon": 6.86,
      "cp": "90000",
      "ville": "BELFORT",
      "prix": {
        "Gazole": 0.001988,
        "E85": 0.000869,
        "E10": 0.001889,
        "SP98": 0.00199
      },
      "maj_gouv": {
        "Gazole": "2026-06-09 00:01:00",
        "E85": "2026-06-09 00:01:00",
        "E10": "2026-06-09 00:01:00",
        "SP98": "2026-06-09 00:01:00"
      }
    },
    {
      "id": "90400001",
      "lat": 47.6,
      "lon": 6.862,
      "cp": "90400",
      "ville": "ANDELNANS",
      "prix": {
        "Gazole": 0.001977,
        "E85": 0.000874,
        "GPLc": 0.000892,
        "E10": 0.001888,
        "SP98": 0.001991
      },
      "maj_gouv": {
        "Gazole": "2026-06-08 10:39:52",
        "E85": "2026-06-08 10:39:52",
        "GPLc": "2026-06-08 10:39:53",
        "E10": "2026-06-08 10:39:53",
        "SP98": "2026-06-08 10:39:53"
      }
    },
    {
      "id": "90160001",
      "lat": 47.641,
      "lon": 6.916,
      "cp": "90160",
      "ville": "BESSONCOURT",
      "prix": {
        "Gazole": 0.001977,
        "GPLc": 0.001055,
        "E10": 0.001888,
        "SP98": 0.001991
      },
      "maj_gouv": {
        "Gazole": "2026-06-08 18:11:41",
        "GPLc": "2026-06-03 08:59:37",
        "E10": "2026-06-08 18:11:41",
        "SP98": "2026-06-08 18:11:42"
      }
    },
    {
      "id": "90200002",
      "lat": 47.737,
      "lon": 6.836,
      "cp": "90200",
      "ville": "GIROMAGNY",
      "prix": {
        "Gazole": 0.001965,
        "SP95": 0.001975,
        "SP98": 0.001999
      },
      "maj_gouv": {
        "Gazole": "2026-06-08 09:42:56",
        "SP95": "2026-06-08 09:42:56",
        "SP98": "2026-06-08 09:42:56"
      }
    },
    {
      "id": "90000002",
      "lat": 47.64,
      "lon": 6.868,
      "cp": "90000",
      "ville": "Belfort",
      "prix": {
        "Gazole": 0.002059,
        "E10": 0.001949,
        "SP98": 0.00199
      },
      "maj_gouv": {
        "Gazole": "2026-06-06 08:50:45",
        "E10": "2026-06-06 08:50:45",
        "SP98": "2026-06-06 08:50:45"
      }
    },
    {
      "id": "90000013",
      "lat": 47.631,
      "lon": 6.867,
      "cp": "90000",
      "ville": "BELFORT",
      "prix": {
        "Gazole": 0.002072,
        "E85": 0.000874,
        "GPLc": 0.001029,
        "E10": 0.001965,
        "SP98": 0.00199
      },
      "maj_gouv": {
        "Gazole": "2026-06-09 00:01:00",
        "E85": "2026-06-09 00:01:00",
        "GPLc": "2026-06-09 00:01:00",
        "E10": "2026-06-09 00:01:00",
        "SP98": "2026-06-09 00:01:00"
      }
    },
    {
      "id": "90130002",
      "lat": 47.606879000000006,
      "lon": 7.004091,
      "cp": "90130",
      "ville": "MONTREUX CHATEAU",
      "prix": {
        "Gazole": 0.001999,
        "E10": 0.001939
      },
      "maj_gouv": {
        "Gazole": "2026-06-04 19:49:58",
        "E10": "2026-06-06 09:16:28"
      }
    }
  ]
}