{
  "departement": "28",
  "date": "2026-04-30",
  "stations": [
    {
      "id": "28330003",
      "lat": 48.194,
      "lon": 0.899,
      "cp": "28330",
      "ville": "Authon-du-Perche",
      "prix": {
        "Gazole": 0.002199,
        "SP95": 0.002019,
        "SP98": 0.002099
      },
      "maj_gouv": {
        "Gazole": "2026-04-24 08:09:23",
        "SP95": "2026-04-18 08:09:57",
        "SP98": "2026-04-18 08:09:57"
      }
    },
    {
      "id": "28700004",
      "lat": 48.478,
      "lon": 1.768,
      "cp": "28700",
      "ville": "AUNEAU",
      "prix": {
        "Gazole": 0.002091,
        "SP95": 0.001977,
        "E85": 0.000739,
        "E10": 0.0019590000000000002,
        "SP98": 0.0020299999999999997
      },
      "maj_gouv": {
        "Gazole": "2026-04-29 15:45:00",
        "SP95": "2026-04-29 15:45:00",
        "E85": "2026-04-29 15:45:00",
        "E10": "2026-04-29 15:45:00",
        "SP98": "2026-04-29 15:45:00"
      }
    },
    {
      "id": "28500001",
      "lat": 48.717,
      "lon": 1.369,
      "cp": "28500",
      "ville": "Vernouillet",
      "prix": {
        "Gazole": 0.002139,
        "E85": 0.000739,
        "E10": 0.001967,
        "SP98": 0.002003
      },
      "maj_gouv": {
        "Gazole": "2026-04-29 10:20:00",
        "E85": "2026-04-29 10:20:00",
        "E10": "2026-04-29 10:20:00",
        "SP98": "2026-04-29 10:20:00"
      }
    },
    {
      "id": "28210003",
      "lat": 48.65,
      "lon": 1.538,
      "cp": "28210",
      "ville": "Lormaye",
      "prix": {
        "Gazole": 0.00225,
        "E10": 0.00199,
        "SP98": 0.00199
      },
      "maj_gouv": {
        "Gazole": "2026-04-27 07:56:05",
        "E10": "2026-04-27 07:56:05",
        "SP98": "2026-04-27 07:56:05"
      }
    },
    {
      "id": "28160004",
      "lat": 48.24,
      "lon": 1.083,
      "cp": "28160",
      "ville": "Dampierre-sous-Brou",
      "prix": {
        "Gazole": 0.002318,
        "E10": 0.002127,
        "SP98": 0.002227
      },
      "maj_gouv": {
        "Gazole": "2026-04-28 17:16:00",
        "E10": "2026-04-28 17:16:00",
        "SP98": "2026-04-28 17:16:00"
      }
    },
    {
      "id": "28220002",
      "lat": 47.99,
      "lon": 1.256,
      "cp": "28220",
      "ville": "Cloyes-sur-le-Loir",
      "prix": {
        "Gazole": 0.002159,
        "SP95": 0.001999,
        "SP98": 0.002059
      },
      "maj_gouv": {
        "Gazole": "2026-04-28 07:51:48",
        "SP95": "2026-04-28 07:51:48",
        "SP98": "2026-04-28 07:51:48"
      }
    },
    {
      "id": "28000011",
      "lat": 48.45,
      "lon": 1.506,
      "cp": "28000",
      "ville": "chartres",
      "prix": {
        "Gazole": 0.002199,
        "GPLc": 0.000999,
        "E10": 0.00199
      },
      "maj_gouv": {
        "Gazole": "2026-04-30 00:01:00",
        "GPLc": "2026-04-30 00:01:00",
        "E10": "2026-04-30 00:01:00"
      }
    },
    {
      "id": "28400004",
      "lat": 48.331,
      "lon": 0.805,
      "cp": "28400",
      "ville": "Nogent-le-Rotrou",
      "prix": {
        "Gazole": 0.002149,
        "E85": 0.000799,
        "GPLc": 0.001055,
        "E10": 0.0019890000000000003,
        "SP98": 0.002069
      },
      "maj_gouv": {
        "Gazole": "2026-04-28 10:51:06",
        "E85": "2026-04-28 10:51:06",
        "GPLc": "2026-04-28 10:51:06",
        "E10": "2026-04-29 08:25:28",
        "SP98": "2026-04-28 10:51:07"
      }
    },
    {
      "id": "28190003",
      "lat": 48.45,
      "lon": 1.254,
      "cp": "28190",
      "ville": "Courville-sur-Eure",
      "prix": {
        "Gazole": 0.002189,
        "E10": 0.002024,
        "SP98": 0.002118
      },
      "maj_gouv": {
        "Gazole": "2026-04-28 07:16:41",
        "E10": "2026-04-28 07:16:41",
        "SP98": "2026-04-28 07:16:42"
      }
    },
    {
      "id": "28500011",
      "lat": 48.677003,
      "lon": 1.331272,
      "cp": "28500",
      "ville": "TREON",
      "prix": {
        "Gazole": 0.00222,
        "E85": 0.000832,
        "E10": 0.00199,
        "SP98": 0.00212
      },
      "maj_gouv": {
        "Gazole": "2026-04-29 14:11:08",
        "E85": "2026-04-29 14:12:11",
        "E10": "2026-04-29 14:11:31",
        "SP98": "2026-04-29 14:11:51"
      }
    },
    {
      "id": "28160003",
      "lat": 48.209,
      "lon": 1.178,
      "cp": "28160",
      "ville": "BROU",
      "prix": {
        "Gazole": 0.00225,
        "E10": 0.00199,
        "SP98": 0.00199
      },
      "maj_gouv": {
        "Gazole": "2026-04-21 11:01:09",
        "E10": "2026-04-21 11:01:09",
        "SP98": "2026-04-21 11:01:09"
      }
    },
    {
      "id": "28700005",
      "lat": 48.452057318886,
      "lon": 1.7537188857641999,
      "cp": "28700",
      "ville": "Roinville",
      "prix": {
        "Gazole": 0.002249,
        "E85": 0.0009649999999999999,
        "E10": 0.002029,
        "SP98": 0.002129
      },
      "maj_gouv": {
        "Gazole": "2026-04-29 23:50:00",
        "E85": "2026-04-29 23:50:00",
        "E10": "2026-04-29 23:50:00",
        "SP98": "2026-04-29 23:50:00"
      }
    },
    {
      "id": "28320003",
      "lat": 48.532295395999995,
      "lon": 1.68398622791,
      "cp": "28320",
      "ville": "GALLARDON",
      "prix": {
        "Gazole": 0.00249,
        "SP95": 0.00209,
        "SP98": 0.00219
      },
      "maj_gouv": {
        "Gazole": "2026-04-09 09:07:28",
        "SP95": "2026-04-09 09:07:28",
        "SP98": "2026-04-09 09:07:29"
      }
    },
    {
      "id": "28200002",
      "lat": 48.062,
      "lon": 1.335,
      "cp": "28200",
      "ville": "Châteaudun",
      "prix": {
        "Gazole": 0.00225,
        "E10": 0.00199
      },
      "maj_gouv": {
        "Gazole": "2026-04-30 06:05:03",
        "E10": "2026-04-30 06:05:03"
      }
    },
    {
      "id": "28310010",
      "lat": 48.275,
      "lon": 1.856,
      "cp": "28310",
      "ville": "Fresnay-l'Évêque",
      "prix": {
        "Gazole": 0.0025009999999999998,
        "E10": 0.002399,
        "SP98": 0.002549
      },
      "maj_gouv": {
        "Gazole": "2026-04-29 09:30:00",
        "E10": "2026-04-29 09:30:00",
        "SP98": "2026-04-29 09:30:00"
      }
    },
    {
      "id": "28130001",
      "lat": 48.58726,
      "lon": 1.57307,
      "cp": "28130",
      "ville": "PIERRES",
      "prix": {
        "Gazole": 0.0021739999999999997,
        "E85": 0.00083,
        "E10": 0.001999,
        "SP98": 0.002118
      },
      "maj_gouv": {
        "Gazole": "2026-04-24 18:50:50",
        "E85": "2026-04-29 18:18:33",
        "E10": "2026-04-24 18:50:50",
        "SP98": "2026-04-24 18:50:50"
      }
    },
    {
      "id": "28120003",
      "lat": 48.364,
      "lon": 1.33,
      "cp": "28120",
      "ville": "BAILLEAU-LE-PIN",
      "prix": {
        "Gazole": 0.002139,
        "E10": 0.0019790000000000003,
        "SP98": 0.002099
      },
      "maj_gouv": {
        "Gazole": "2026-04-28 14:20:03",
        "E10": "2026-04-28 14:20:03",
        "SP98": "2026-04-24 08:49:29"
      }
    },
    {
      "id": "28300004",
      "lat": 48.454,
      "lon": 1.465,
      "cp": "28300",
      "ville": "MAINVILLIERS",
      "prix": {
        "Gazole": 0.002153,
        "E85": 0.0008179999999999999,
        "E10": 0.001958,
        "SP98": 0.0020670000000000003
      },
      "maj_gouv": {
        "Gazole": "2026-04-28 16:31:37",
        "E85": "2026-04-28 16:31:37",
        "E10": "2026-04-28 16:31:37",
        "SP98": "2026-04-28 16:31:37"
      }
    },
    {
      "id": "28300005",
      "lat": 48.473,
      "lon": 1.508,
      "cp": "28300",
      "ville": "CHAMPHOL",
      "prix": {
        "Gazole": 0.0021520000000000003,
        "E10": 0.001993,
        "SP98": 0.00211
      },
      "maj_gouv": {
        "Gazole": "2026-04-29 09:52:44",
        "E10": "2026-04-29 09:52:44",
        "SP98": "2026-04-29 09:52:44"
      }
    },
    {
      "id": "28500006",
      "lat": 48.743,
      "lon": 1.425,
      "cp": "28500",
      "ville": "Cherisy",
      "prix": {
        "Gazole": 0.002179,
        "SP95": 0.002049,
        "SP98": 0.002099
      },
      "maj_gouv": {
        "Gazole": "2026-04-28 08:45:05",
        "SP95": "2026-04-28 08:45:05",
        "SP98": "2026-04-28 08:45:05"
      }
    },
    {
      "id": "28310011",
      "lat": 48.1962525,
      "lon": 1.9367845626934999,
      "cp": "28310",
      "ville": "Toury",
      "prix": {
        "Gazole": 0.002129,
        "E85": 0.000789,
        "E10": 0.001965,
        "SP98": 0.002029
      },
      "maj_gouv": {
        "Gazole": "2026-04-28 08:20:30",
        "E85": "2026-04-14 10:43:47",
        "E10": "2026-04-28 08:20:30",
        "SP98": "2026-04-24 11:36:21"
      }
    },
    {
      "id": "28480001",
      "lat": 48.313,
      "lon": 0.991,
      "cp": "28480",
      "ville": "Thiron-Gardais",
      "prix": {
        "Gazole": 0.00222,
        "SP95": 0.00196,
        "SP98": 0.00198
      },
      "maj_gouv": {
        "Gazole": "2026-04-29 20:13:44",
        "SP95": "2026-04-29 20:13:44",
        "SP98": "2026-04-29 20:13:44"
      }
    },
    {
      "id": "28300010",
      "lat": 48.468,
      "lon": 1.579,
      "cp": "28300",
      "ville": "Gasville-Oisème",
      "prix": {
        "Gazole": 0.0024980000000000002,
        "E10": 0.0023929999999999997,
        "SP98": 0.002543
      },
      "maj_gouv": {
        "Gazole": "2026-04-29 09:30:00",
        "E10": "2026-04-29 09:30:00",
        "SP98": "2026-04-29 09:30:00"
      }
    },
    {
      "id": "28000009",
      "lat": 48.436,
      "lon": 1.52,
      "cp": "28000",
      "ville": "CHARTRES",
      "prix": {
        "Gazole": 0.00225,
        "E85": 0.000829,
        "E10": 0.00199,
        "SP98": 0.00199
      },
      "maj_gouv": {
        "Gazole": "2026-04-30 00:01:00",
        "E85": "2026-04-30 00:01:00",
        "E10": "2026-04-30 00:01:00",
        "SP98": "2026-04-30 00:01:00"
      }
    },
    {
      "id": "28000007",
      "lat": 48.4324014794,
      "lon": 1.49271484815,
      "cp": "28000",
      "ville": "CHARTRES",
      "prix": {
        "Gazole": 0.002137,
        "SP95": 0.001997,
        "E10": 0.001943,
        "SP98": 0.0020499999999999997
      },
      "maj_gouv": {
        "Gazole": "2026-04-28 13:08:30",
        "SP95": "2026-04-28 13:08:30",
        "E10": "2026-04-28 13:08:30",
        "SP98": "2026-04-28 13:08:30"
      }
    },
    {
      "id": "28270003",
      "lat": 48.69,
      "lon": 1.079,
      "cp": "28270",
      "ville": "Brezolles",
      "prix": {
        "Gazole": 0.002199,
        "SP95": 0.002089,
        "SP98": 0.002149
      },
      "maj_gouv": {
        "Gazole": "2026-04-22 09:32:42",
        "SP95": "2026-04-26 09:58:11",
        "SP98": "2026-04-26 09:58:11"
      }
    },
    {
      "id": "28400005",
      "lat": 48.30636693,
      "lon": 0.80848721,
      "cp": "28400",
      "ville": "Nogent-le-Rotrou",
      "prix": {
        "Gazole": 0.00225,
        "E10": 0.00199,
        "SP98": 0.00199
      },
      "maj_gouv": {
        "Gazole": "2026-04-29 19:50:18",
        "E10": "2026-04-29 19:50:18",
        "SP98": "2026-04-29 19:50:18"
      }
    },
    {
      "id": "28500010",
      "lat": 48.730673127189,
      "lon": 1.3374733095697,
      "cp": "28500",
      "ville": "VERNOUILLET",
      "prix": {
        "Gazole": 0.00217,
        "SP95": 0.00197,
        "SP98": 0.00199
      },
      "maj_gouv": {
        "Gazole": "2026-04-17 01:35:55",
        "SP95": "2026-04-17 01:35:55",
        "SP98": "2026-04-17 01:35:55"
      }
    },
    {
      "id": "28300008",
      "lat": 48.437,
      "lon": 1.424,
      "cp": "28300",
      "ville": "AMILLY",
      "prix": {
        "Gazole": 0.0021939999999999998,
        "E85": 0.000825,
        "SP98": 0.00199
      },
      "maj_gouv": {
        "Gazole": "2026-04-30 00:01:00",
        "E85": "2026-04-30 00:01:00",
        "SP98": "2026-04-30 00:01:00"
      }
    },
    {
      "id": "28150001",
      "lat": 48.268,
      "lon": 1.632,
      "cp": "28150",
      "ville": "VOVES",
      "prix": {
        "Gazole": 0.0021190000000000002,
        "E10": 0.001949,
        "SP98": 0.002069
      },
      "maj_gouv": {
        "Gazole": "2026-04-27 09:16:05",
        "E10": "2026-04-27 09:16:05",
        "SP98": "2026-04-27 09:16:05"
      }
    },
    {
      "id": "28000010",
      "lat": 48.436,
      "lon": 1.521,
      "cp": "28000",
      "ville": "CHARTRES",
      "prix": {
        "Gazole": 0.0021920000000000004,
        "E10": 0.00199,
        "SP98": 0.00199
      },
      "maj_gouv": {
        "Gazole": "2026-04-30 00:01:00",
        "E10": "2026-04-30 00:01:00",
        "SP98": "2026-04-30 00:01:00"
      }
    },
    {
      "id": "28310002",
      "lat": 48.198,
      "lon": 1.889,
      "cp": "28310",
      "ville": "Janville",
      "prix": {
        "Gazole": 0.002238,
        "SP95": 0.00199
      },
      "maj_gouv": {
        "Gazole": "2026-04-29 08:07:19",
        "SP95": "2026-04-29 08:07:19"
      }
    },
    {
      "id": "28000001",
      "lat": 48.451,
      "lon": 1.516,
      "cp": "28000",
      "ville": "CHARTRES",
      "prix": {
        "Gazole": 0.002157,
        "SP95": 0.002048,
        "E85": 0.0009040000000000001,
        "GPLc": 0.000989,
        "E10": 0.001984,
        "SP98": 0.002124
      },
      "maj_gouv": {
        "Gazole": "2026-04-28 08:50:28",
        "SP95": "2026-04-28 08:50:28",
        "E85": "2026-04-28 08:50:28",
        "GPLc": "2026-04-28 08:50:28",
        "E10": "2026-04-28 08:50:28",
        "SP98": "2026-04-28 08:50:28"
      }
    },
    {
      "id": "28500007",
      "lat": 48.748,
      "lon": 1.271,
      "cp": "28500",
      "ville": "Vert-en-Drouais",
      "prix": {
        "Gazole": 0.00225,
        "E85": 0.0008990000000000001,
        "GPLc": 0.001001,
        "E10": 0.00199,
        "SP98": 0.00199
      },
      "maj_gouv": {
        "Gazole": "2026-04-30 00:01:00",
        "E85": "2026-04-30 00:01:00",
        "GPLc": "2026-04-30 00:01:00",
        "E10": "2026-04-30 00:01:00",
        "SP98": "2026-04-30 00:01:00"
      }
    },
    {
      "id": "28120002",
      "lat": 48.305,
      "lon": 1.257,
      "cp": "28120",
      "ville": "ILLIERS-COMBRAY",
      "prix": {
        "Gazole": 0.002139,
        "E85": 0.000819,
        "GPLc": 0.001059,
        "E10": 0.001949,
        "SP98": 0.002049
      },
      "maj_gouv": {
        "Gazole": "2026-04-28 11:33:57",
        "E85": "2026-04-22 07:00:00",
        "GPLc": "2026-04-14 14:00:00",
        "E10": "2026-04-29 12:35:55",
        "SP98": "2026-04-25 20:00:00"
      }
    },
    {
      "id": "28170001",
      "lat": 48.577,
      "lon": 1.239,
      "cp": "28170",
      "ville": "THIMERT-GâTELLES",
      "prix": {
        "Gazole": 0.0021739999999999997,
        "E10": 0.0019890000000000003,
        "SP98": 0.0020310000000000003
      },
      "maj_gouv": {
        "Gazole": "2026-04-26 09:53:26",
        "E10": "2026-04-26 09:53:26",
        "SP98": "2026-04-26 09:53:26"
      }
    },
    {
      "id": "28130003",
      "lat": 48.58,
      "lon": 1.57,
      "cp": "28130",
      "ville": "Maintenon",
      "prix": {
        "Gazole": 0.002199,
        "E85": 0.000819,
        "E10": 0.001999,
        "SP98": 0.0021190000000000002
      },
      "maj_gouv": {
        "Gazole": "2026-04-23 17:30:28",
        "E85": "2026-04-21 15:43:51",
        "E10": "2026-04-29 08:46:23",
        "SP98": "2026-04-29 08:46:23"
      }
    },
    {
      "id": "28350001",
      "lat": 48.767,
      "lon": 1.196,
      "cp": "28350",
      "ville": "SAINT-LUBIN-DES-JONCHERETS",
      "prix": {
        "Gazole": 0.002159,
        "E10": 0.001999,
        "SP98": 0.002069
      },
      "maj_gouv": {
        "Gazole": "2026-04-28 10:02:59",
        "E10": "2026-04-28 10:02:59",
        "SP98": "2026-04-28 10:03:00"
      }
    },
    {
      "id": "28100002",
      "lat": 48.737,
      "lon": 1.351,
      "cp": "28100",
      "ville": "DREUX",
      "prix": {
        "Gazole": 0.002159,
        "E10": 0.001999,
        "SP98": 0.001999
      },
      "maj_gouv": {
        "Gazole": "2026-04-29 08:26:43",
        "E10": "2026-04-29 08:26:43",
        "SP98": "2026-04-29 08:26:44"
      }
    },
    {
      "id": "28630001",
      "lat": 48.406,
      "lon": 1.491,
      "cp": "28630",
      "ville": "Morancez",
      "prix": {
        "Gazole": 0.002092,
        "E10": 0.00196,
        "SP98": 0.002053
      },
      "maj_gouv": {
        "Gazole": "2026-04-26 10:47:26",
        "E10": "2026-04-26 10:47:26",
        "SP98": "2026-04-26 10:47:26"
      }
    },
    {
      "id": "28310006",
      "lat": 48.197,
      "lon": 1.892,
      "cp": "28310",
      "ville": "Janville",
      "prix": {
        "Gazole": 0.002129,
        "E10": 0.001965,
        "SP98": 0.002069
      },
      "maj_gouv": {
        "Gazole": "2026-04-27 17:21:57",
        "E10": "2026-04-27 17:21:57",
        "SP98": "2026-04-27 17:21:57"
      }
    },
    {
      "id": "28100003",
      "lat": 48.748,
      "lon": 1.344,
      "cp": "28100",
      "ville": "DREUX",
      "prix": {
        "Gazole": 0.00216,
        "GPLc": 0.000992,
        "E10": 0.002,
        "SP98": 0.0020369999999999997
      },
      "maj_gouv": {
        "Gazole": "2026-04-29 13:13:06",
        "GPLc": "2026-04-29 13:13:06",
        "E10": "2026-04-29 13:13:06",
        "SP98": "2026-04-29 13:13:07"
      }
    },
    {
      "id": "28600002",
      "lat": 48.41,
      "lon": 1.463,
      "cp": "28630",
      "ville": "Barjouville",
      "prix": {
        "Gazole": 0.00209,
        "SP95": 0.001975,
        "E10": 0.001939,
        "SP98": 0.0020099999999999996
      },
      "maj_gouv": {
        "Gazole": "2026-04-28 09:02:41",
        "SP95": "2026-04-26 00:01:00",
        "E10": "2026-04-29 11:59:27",
        "SP98": "2026-04-29 11:59:27"
      }
    },
    {
      "id": "28190002",
      "lat": 48.475,
      "lon": 1.322,
      "cp": "28190",
      "ville": "FONTAINE-LA-GUYON",
      "prix": {
        "Gazole": 0.002169,
        "E85": 0.000819,
        "E10": 0.0019790000000000003,
        "SP98": 0.002099
      },
      "maj_gouv": {
        "Gazole": "2026-04-28 08:34:17",
        "E85": "2026-04-28 08:34:17",
        "E10": "2026-04-28 08:34:17",
        "SP98": "2026-04-28 08:34:17"
      }
    },
    {
      "id": "28160006",
      "lat": 48.215,
      "lon": 1.18,
      "cp": "28160",
      "ville": "BROU",
      "prix": {
        "Gazole": 0.002129,
        "E85": 0.0008179999999999999,
        "E10": 0.0019590000000000002,
        "SP98": 0.002079
      },
      "maj_gouv": {
        "Gazole": "2026-04-27 09:38:54",
        "E85": "2026-04-22 19:49:14",
        "E10": "2026-04-27 09:38:54",
        "SP98": "2026-04-27 09:38:54"
      }
    },
    {
      "id": "28800001",
      "lat": 48.187,
      "lon": 1.391,
      "cp": "28800",
      "ville": "BONNEVAL",
      "prix": {
        "Gazole": 0.002436,
        "E10": 0.001935,
        "SP98": 0.002053
      },
      "maj_gouv": {
        "Gazole": "2026-04-29 08:23:24",
        "E10": "2026-04-29 08:23:24",
        "SP98": "2026-04-29 08:23:24"
      }
    },
    {
      "id": "28800002",
      "lat": 48.1915025,
      "lon": 1.5789829000000002,
      "cp": "28800",
      "ville": "SANCHEVILLE",
      "prix": {
        "Gazole": 0.0024289999999999997,
        "E10": 0.002199
      },
      "maj_gouv": {
        "Gazole": "2026-03-31 14:01:35",
        "E10": "2026-03-31 14:01:35"
      }
    },
    {
      "id": "28420001",
      "lat": 48.261,
      "lon": 0.913,
      "cp": "28480",
      "ville": "VICHèRES",
      "prix": {
        "Gazole": 0.002225,
        "E10": 0.00199,
        "SP98": 0.00199
      },
      "maj_gouv": {
        "Gazole": "2026-04-22 09:36:51",
        "E10": "2026-03-19 07:48:52",
        "SP98": "2026-03-17 13:46:14"
      }
    },
    {
      "id": "28500008",
      "lat": 48.76,
      "lon": 1.24,
      "cp": "28500",
      "ville": "Vert-en-Drouais",
      "prix": {
        "Gazole": 0.002206,
        "E85": 0.000879,
        "E10": 0.00199,
        "SP98": 0.00199
      },
      "maj_gouv": {
        "Gazole": "2026-04-30 01:00:00",
        "E85": "2026-04-30 01:00:00",
        "E10": "2026-04-30 01:00:00",
        "SP98": "2026-04-30 01:00:00"
      }
    },
    {
      "id": "28160005",
      "lat": 48.218,
      "lon": 1.178,
      "cp": "28160",
      "ville": "BROU",
      "prix": {
        "Gazole": 0.002129,
        "E85": 0.0008179999999999999,
        "E10": 0.0019590000000000002,
        "SP98": 0.002079
      },
      "maj_gouv": {
        "Gazole": "2026-04-27 13:19:58",
        "E85": "2026-04-24 10:25:47",
        "E10": "2026-04-24 10:25:48",
        "SP98": "2026-04-27 13:19:58"
      }
    },
    {
      "id": "28310004",
      "lat": 48.272,
      "lon": 1.858,
      "cp": "28310",
      "ville": "FRESNAY-L'ÉVêQUE",
      "prix": {
        "Gazole": 0.0025009999999999998,
        "E10": 0.002399,
        "SP98": 0.002549
      },
      "maj_gouv": {
        "Gazole": "2026-04-29 09:30:00",
        "E10": "2026-04-29 09:30:00",
        "SP98": "2026-04-29 09:30:00"
      }
    },
    {
      "id": "28210002",
      "lat": 48.639,
      "lon": 1.515,
      "cp": "28210",
      "ville": "NOGENT-LE-ROI",
      "prix": {
        "Gazole": 0.002205,
        "E85": 0.0008179999999999999,
        "E10": 0.001999,
        "SP98": 0.0021190000000000002
      },
      "maj_gouv": {
        "Gazole": "2026-04-28 15:31:01",
        "E85": "2026-04-25 14:51:27",
        "E10": "2026-04-28 15:31:01",
        "SP98": "2026-04-28 15:31:02"
      }
    },
    {
      "id": "28400002",
      "lat": 48.331,
      "lon": 0.833,
      "cp": "28400",
      "ville": "Nogent-le-Rotrou",
      "prix": {
        "Gazole": 0.002179,
        "SP95": 0.0020499999999999997,
        "E85": 0.000745,
        "GPLc": 0.001055,
        "E10": 0.0020139999999999997,
        "SP98": 0.0020859999999999997
      },
      "maj_gouv": {
        "Gazole": "2026-04-28 08:37:15",
        "SP95": "2026-04-28 08:37:15",
        "E85": "2026-04-22 11:01:43",
        "GPLc": "2026-04-23 14:34:16",
        "E10": "2026-04-28 08:37:15",
        "SP98": "2026-04-28 08:37:15"
      }
    },
    {
      "id": "28170002",
      "lat": 48.63119,
      "lon": 1.14832,
      "cp": "28170",
      "ville": "MAILLEBOIS",
      "prix": {
        "Gazole": 0.002159,
        "SP95": 0.001999,
        "SP98": 0.002049
      },
      "maj_gouv": {
        "Gazole": "2026-04-17 14:33:19",
        "SP95": "2026-04-23 12:12:09",
        "SP98": "2026-04-23 12:12:09"
      }
    },
    {
      "id": "28700001",
      "lat": 48.466,
      "lon": 1.758,
      "cp": "28700",
      "ville": "AUNEAU",
      "prix": {
        "Gazole": 0.002216,
        "E10": 0.0019690000000000003,
        "SP98": 0.002053
      },
      "maj_gouv": {
        "Gazole": "2026-04-23 14:23:37",
        "E10": "2026-04-28 09:37:15",
        "SP98": "2026-04-23 14:23:37"
      }
    },
    {
      "id": "28200005",
      "lat": 48.092,
      "lon": 1.339,
      "cp": "28200",
      "ville": "CHATEAUDUN",
      "prix": {
        "Gazole": 0.002219,
        "SP95": 0.001999,
        "E10": 0.0019690000000000003,
        "SP98": 0.002039
      },
      "maj_gouv": {
        "Gazole": "2026-04-24 10:42:29",
        "SP95": "2026-04-24 10:42:29",
        "E10": "2026-04-24 10:42:29",
        "SP98": "2026-04-24 10:42:29"
      }
    },
    {
      "id": "28130002",
      "lat": 48.593,
      "lon": 1.678,
      "cp": "28130",
      "ville": "HANCHES",
      "prix": {
        "Gazole": 0.002091,
        "SP95": 0.001977,
        "E85": 0.000739,
        "GPLc": 0.0010789999999999999,
        "E10": 0.0019590000000000002,
        "SP98": 0.0020299999999999997
      },
      "maj_gouv": {
        "Gazole": "2026-04-29 08:35:00",
        "SP95": "2026-04-29 08:35:00",
        "E85": "2026-04-29 08:35:00",
        "GPLc": "2026-04-29 08:35:00",
        "E10": "2026-04-29 08:35:00",
        "SP98": "2026-04-29 08:35:00"
      }
    },
    {
      "id": "28260003",
      "lat": 48.85967,
      "lon": 1.42303,
      "cp": "28260",
      "ville": "Saussay",
      "prix": {
        "Gazole": 0.00229,
        "SP95": 0.0020710000000000004,
        "SP98": 0.002153
      },
      "maj_gouv": {
        "Gazole": "2026-04-15 10:41:31",
        "SP95": "2026-04-15 10:41:32",
        "SP98": "2026-04-15 10:41:32"
      }
    },
    {
      "id": "28300009",
      "lat": 48.467,
      "lon": 1.579,
      "cp": "28300",
      "ville": "Gasville-Oisème",
      "prix": {
        "Gazole": 0.0024980000000000002,
        "E10": 0.0023929999999999997,
        "SP98": 0.002543
      },
      "maj_gouv": {
        "Gazole": "2026-04-29 09:30:00",
        "E10": "2026-04-29 09:30:00",
        "SP98": "2026-04-29 09:30:00"
      }
    },
    {
      "id": "28000002",
      "lat": 48.463,
      "lon": 1.48,
      "cp": "28000",
      "ville": "Chartres",
      "prix": {
        "Gazole": 0.00225,
        "E10": 0.00199,
        "SP98": 0.00199
      },
      "maj_gouv": {
        "Gazole": "2026-04-29 19:13:03",
        "E10": "2026-04-29 19:13:03",
        "SP98": "2026-04-29 19:13:04"
      }
    },
    {
      "id": "28240006",
      "lat": 48.468,
      "lon": 1.01,
      "cp": "28240",
      "ville": "la loupe",
      "prix": {
        "Gazole": 0.002149,
        "E85": 0.000759,
        "E10": 0.0019590000000000002,
        "SP98": 0.002069
      },
      "maj_gouv": {
        "Gazole": "2026-04-28 09:14:24",
        "E85": "2026-04-17 14:48:34",
        "E10": "2026-04-28 09:14:24",
        "SP98": "2026-04-28 09:14:24"
      }
    },
    {
      "id": "28100006",
      "lat": 48.743,
      "lon": 1.39,
      "cp": "28100",
      "ville": "DREUX",
      "prix": {
        "Gazole": 0.002206,
        "E85": 0.000852,
        "GPLc": 0.000992,
        "E10": 0.00199,
        "SP98": 0.00199
      },
      "maj_gouv": {
        "Gazole": "2026-04-30 00:01:00",
        "E85": "2026-04-30 00:01:00",
        "GPLc": "2026-04-30 00:01:00",
        "E10": "2026-04-30 00:01:00",
        "SP98": "2026-04-30 00:01:00"
      }
    },
    {
      "id": "28260005",
      "lat": 48.861,
      "lon": 1.459,
      "cp": "28260",
      "ville": "ANET",
      "prix": {
        "Gazole": 0.0022280000000000004,
        "SP95": 0.002088,
        "E10": 0.0020510000000000003,
        "SP98": 0.002126
      },
      "maj_gouv": {
        "Gazole": "2026-04-29 04:45:06",
        "SP95": "2026-04-29 04:45:06",
        "E10": "2026-04-29 04:45:06",
        "SP98": "2026-04-29 04:45:06"
      }
    },
    {
      "id": "28190001",
      "lat": 48.424,
      "lon": 1.361,
      "cp": "28190",
      "ville": "Saint-Georges-sur-Eure",
      "prix": {
        "Gazole": 0.002169,
        "SP95": 0.002055,
        "E10": 0.001999,
        "SP98": 0.002099
      },
      "maj_gouv": {
        "Gazole": "2026-04-29 14:01:00",
        "SP95": "2026-04-29 14:01:00",
        "E10": "2026-04-29 14:01:00",
        "SP98": "2026-04-29 14:01:01"
      }
    },
    {
      "id": "28330002",
      "lat": 48.144,
      "lon": 0.972,
      "cp": "28330",
      "ville": "LA BAZOCHE-GOUET",
      "prix": {
        "Gazole": 0.002183,
        "E10": 0.0019890000000000003,
        "SP98": 0.002099
      },
      "maj_gouv": {
        "Gazole": "2026-04-24 15:12:48",
        "E10": "2026-04-24 15:12:49",
        "SP98": "2026-04-24 15:12:49"
      }
    },
    {
      "id": "28240005",
      "lat": 48.475,
      "lon": 1.026,
      "cp": "28240",
      "ville": "La Loupe",
      "prix": {
        "Gazole": 0.002149,
        "E10": 0.0019590000000000002,
        "SP98": 0.002069
      },
      "maj_gouv": {
        "Gazole": "2026-04-28 08:34:23",
        "E10": "2026-04-28 08:34:23",
        "SP98": "2026-04-28 08:34:23"
      }
    },
    {
      "id": "28200003",
      "lat": 48.067,
      "lon": 1.302,
      "cp": "28200",
      "ville": "Saint-Denis-les-Ponts",
      "prix": {
        "Gazole": 0.002169,
        "SP95": 0.002039,
        "E85": 0.000799,
        "E10": 0.001999,
        "SP98": 0.002069
      },
      "maj_gouv": {
        "Gazole": "2026-04-29 07:27:31",
        "SP95": "2026-04-28 07:35:40",
        "E85": "2026-04-27 07:52:53",
        "E10": "2026-04-28 07:35:40",
        "SP98": "2026-04-28 07:35:41"
      }
    },
    {
      "id": "28150002",
      "lat": 48.279,
      "lon": 1.623,
      "cp": "28150",
      "ville": "Voves",
      "prix": {
        "Gazole": 0.002099,
        "E85": 0.0008179999999999999,
        "E10": 0.0019590000000000002,
        "SP98": 0.002039
      },
      "maj_gouv": {
        "Gazole": "2026-04-27 12:18:25",
        "E85": "2026-04-17 11:40:07",
        "E10": "2026-04-27 12:18:25",
        "SP98": "2026-04-27 12:18:25"
      }
    },
    {
      "id": "28160008",
      "lat": 48.241,
      "lon": 1.084,
      "cp": "28160",
      "ville": "Frazé",
      "prix": {
        "Gazole": 0.0025440000000000003,
        "GPLc": 0.0013289999999999999,
        "E10": 0.0023239999999999997,
        "SP98": 0.002504
      },
      "maj_gouv": {
        "Gazole": "2026-04-29 10:28:23",
        "GPLc": "2026-04-29 10:28:24",
        "E10": "2026-04-29 10:28:24",
        "SP98": "2026-04-29 10:28:24"
      }
    },
    {
      "id": "28600003",
      "lat": 48.417,
      "lon": 1.465,
      "cp": "28600",
      "ville": "Luisant",
      "prix": {
        "Gazole": 0.002225,
        "E10": 0.00199
      },
      "maj_gouv": {
        "Gazole": "2026-04-29 19:57:51",
        "E10": "2026-04-28 09:17:23"
      }
    },
    {
      "id": "28250001",
      "lat": 48.57,
      "lon": 1.024,
      "cp": "28250",
      "ville": "Senonches",
      "prix": {
        "Gazole": 0.002149,
        "E10": 0.0019590000000000002,
        "SP98": 0.002069
      },
      "maj_gouv": {
        "Gazole": "2026-04-28 18:26:56",
        "E10": "2026-04-28 18:26:56",
        "SP98": "2026-04-28 18:26:57"
      }
    },
    {
      "id": "28290002",
      "lat": 48.103697000000004,
      "lon": 1.11963,
      "cp": "28290",
      "ville": "VAL D'YERRE",
      "prix": {
        "Gazole": 0.002199,
        "E10": 0.001999,
        "SP98": 0.002099
      },
      "maj_gouv": {
        "Gazole": "2026-04-28 12:47:40",
        "E10": "2026-04-13 08:41:41",
        "SP98": "2026-04-27 09:24:08"
      }
    }
  ]
}