{
  "departement": "78",
  "date": "2026-06-15",
  "stations": [
    {
      "id": "78140010",
      "lat": 48.781,
      "lon": 2.183,
      "cp": "78140",
      "ville": "VELIZY VILLACOUBLAY",
      "prix": {
        "Gazole": 0.002059,
        "E10": 0.002039,
        "SP98": 0.002219
      },
      "maj_gouv": {
        "Gazole": "2026-06-15 06:21:05",
        "E10": "2026-06-15 06:21:05",
        "SP98": "2026-06-15 06:21:05"
      }
    },
    {
      "id": "78120005",
      "lat": 48.647,
      "lon": 1.856,
      "cp": "78120",
      "ville": "RAMBOUILLET",
      "prix": {
        "Gazole": 0.001983,
        "SP95": 0.001971,
        "E10": 0.001932,
        "SP98": 0.002068
      },
      "maj_gouv": {
        "Gazole": "2026-06-12 08:11:42",
        "SP95": "2026-06-12 08:11:43",
        "E10": "2026-06-12 08:11:43",
        "SP98": "2026-06-12 08:11:43"
      }
    },
    {
      "id": "78170002",
      "lat": 48.837,
      "lon": 2.13,
      "cp": "78170",
      "ville": "La Celle-Saint-Cloud",
      "prix": {
        "Gazole": 0.002006,
        "E10": 0.001957,
        "SP98": 0.0020369999999999997
      },
      "maj_gouv": {
        "Gazole": "2026-06-15 06:31:00",
        "E10": "2026-06-15 06:31:00",
        "SP98": "2026-06-15 06:31:00"
      }
    },
    {
      "id": "78760004",
      "lat": 48.804,
      "lon": 1.896,
      "cp": "78760",
      "ville": "Jouars-Pontchartrain",
      "prix": {
        "Gazole": 0.001916,
        "E10": 0.001921,
        "SP98": 0.00199
      },
      "maj_gouv": {
        "Gazole": "2026-06-15 00:01:00",
        "E10": "2026-06-15 00:01:00",
        "SP98": "2026-06-15 00:01:00"
      }
    },
    {
      "id": "78885001",
      "lat": 48.786,
      "lon": 2.043,
      "cp": "78180",
      "ville": "MONTIGNY-LE-BRETONNEUX",
      "prix": {
        "Gazole": 0.001973,
        "SP95": 0.002011,
        "E10": 0.001929,
        "SP98": 0.002065
      },
      "maj_gouv": {
        "Gazole": "2026-06-15 07:17:00",
        "SP95": "2026-06-15 07:17:00",
        "E10": "2026-06-15 07:17:00",
        "SP98": "2026-06-15 07:17:00"
      }
    },
    {
      "id": "78390003",
      "lat": 48.8,
      "lon": 2.038,
      "cp": "78390",
      "ville": "Bois-d'Arcy",
      "prix": {
        "Gazole": 0.001899,
        "E85": 0.0007650000000000001,
        "E10": 0.001905,
        "SP98": 0.0019850000000000002
      },
      "maj_gouv": {
        "Gazole": "2026-06-15 07:57:38",
        "E85": "2026-06-15 07:57:59",
        "E10": "2026-06-15 07:58:13",
        "SP98": "2026-06-15 07:58:42"
      }
    },
    {
      "id": "78370002",
      "lat": 48.829,
      "lon": 1.958,
      "cp": "78370",
      "ville": "PLAISIR",
      "prix": {
        "Gazole": 0.001955,
        "E85": 0.000775,
        "GPLc": 0.001024,
        "E10": 0.001935,
        "SP98": 0.001999
      },
      "maj_gouv": {
        "Gazole": "2026-06-13 09:09:08",
        "E85": "2026-06-13 09:09:08",
        "GPLc": "2026-06-13 09:09:08",
        "E10": "2026-06-13 09:09:08",
        "SP98": "2026-06-13 09:09:08"
      }
    },
    {
      "id": "78150007",
      "lat": 48.819,
      "lon": 2.12,
      "cp": "78150",
      "ville": "LE CHESNAY",
      "prix": {
        "Gazole": 0.002199,
        "SP95": 0.0019790000000000003,
        "E10": 0.0019590000000000002
      },
      "maj_gouv": {
        "Gazole": "2026-05-06 19:28:00",
        "SP95": "2026-06-03 13:41:22",
        "E10": "2026-06-03 13:41:23"
      }
    },
    {
      "id": "78800006",
      "lat": 48.932,
      "lon": 2.182,
      "cp": "78800",
      "ville": "HOUILLES",
      "prix": {
        "Gazole": 0.001939,
        "E85": 0.0008539999999999999
      },
      "maj_gouv": {
        "Gazole": "2026-06-15 00:01:00",
        "E85": "2026-06-15 00:01:00"
      }
    },
    {
      "id": "78318001",
      "lat": 48.764,
      "lon": 1.914,
      "cp": "78310",
      "ville": "MAUREPAS",
      "prix": {
        "Gazole": 0.001955,
        "E85": 0.000775,
        "GPLc": 0.001063,
        "E10": 0.001935,
        "SP98": 0.002009
      },
      "maj_gouv": {
        "Gazole": "2026-06-12 10:16:34",
        "E85": "2026-06-12 10:16:34",
        "GPLc": "2026-06-11 09:52:54",
        "E10": "2026-06-12 10:16:34",
        "SP98": "2026-06-12 10:16:35"
      }
    },
    {
      "id": "78350002",
      "lat": 48.780582855606006,
      "lon": 2.1731592564109,
      "cp": "78350",
      "ville": "Jouy-en-Josas",
      "prix": {
        "Gazole": 0.001934,
        "E85": 0.000875,
        "GPLc": 0.001018,
        "E10": 0.0019370000000000001,
        "SP98": 0.00199
      },
      "maj_gouv": {
        "Gazole": "2026-06-15 00:01:00",
        "E85": "2026-06-15 00:01:00",
        "GPLc": "2026-06-15 00:01:00",
        "E10": "2026-06-15 00:01:00",
        "SP98": "2026-06-15 00:01:00"
      }
    },
    {
      "id": "78370001",
      "lat": 48.827,
      "lon": 1.948,
      "cp": "78370",
      "ville": "PLAISIR",
      "prix": {
        "Gazole": 0.001965,
        "E10": 0.001899,
        "SP98": 0.0019890000000000003
      },
      "maj_gouv": {
        "Gazole": "2026-06-11 11:18:38",
        "E10": "2026-06-11 11:18:38",
        "SP98": "2026-06-11 11:18:38"
      }
    },
    {
      "id": "78700011",
      "lat": 48.995,
      "lon": 2.081,
      "cp": "78700",
      "ville": "Conflans-Sainte-Honorine",
      "prix": {
        "Gazole": 0.0019890000000000003,
        "E85": 0.000969,
        "GPLc": 0.001219,
        "E10": 0.002009,
        "SP98": 0.002179
      },
      "maj_gouv": {
        "Gazole": "2026-06-13 14:07:43",
        "E85": "2026-06-13 14:07:44",
        "GPLc": "2026-06-13 14:07:43",
        "E10": "2026-06-13 14:07:43",
        "SP98": "2026-06-13 14:07:43"
      }
    },
    {
      "id": "78710005",
      "lat": 48.992,
      "lon": 1.632,
      "cp": "78710",
      "ville": "ROSNY-SUR-SEINE",
      "prix": {
        "Gazole": 0.002039,
        "E85": 0.000998,
        "E10": 0.001983,
        "SP98": 0.002094
      },
      "maj_gouv": {
        "Gazole": "2026-06-09 00:30:00",
        "E85": "2026-06-09 00:30:00",
        "E10": "2026-06-09 00:30:00",
        "SP98": "2026-06-09 00:30:00"
      }
    },
    {
      "id": "78420004",
      "lat": 48.904,
      "lon": 2.167,
      "cp": "78420",
      "ville": "Carrières-sur-Seine",
      "prix": {
        "Gazole": 0.002009,
        "E10": 0.001999,
        "SP98": 0.002149
      },
      "maj_gouv": {
        "Gazole": "2026-06-12 11:03:29",
        "E10": "2026-06-12 11:03:29",
        "SP98": "2026-06-12 11:03:29"
      }
    },
    {
      "id": "78600002",
      "lat": 48.945,
      "lon": 2.143,
      "cp": "78600",
      "ville": "Maisons-Laffitte",
      "prix": {
        "Gazole": 0.002079,
        "E10": 0.002049,
        "SP98": 0.002219
      },
      "maj_gouv": {
        "Gazole": "2026-06-12 11:06:05",
        "E10": "2026-06-12 11:06:05",
        "SP98": "2026-06-12 11:06:05"
      }
    },
    {
      "id": "78700010",
      "lat": 48.995,
      "lon": 2.08,
      "cp": "78700",
      "ville": "Conflans-Sainte-Honorine",
      "prix": {
        "Gazole": 0.0019890000000000003,
        "E10": 0.002009,
        "SP98": 0.002179
      },
      "maj_gouv": {
        "Gazole": "2026-06-15 06:20:32",
        "E10": "2026-06-15 06:20:32",
        "SP98": "2026-06-15 06:20:32"
      }
    },
    {
      "id": "78290003",
      "lat": 48.875,
      "lon": 2.14,
      "cp": "78290",
      "ville": "Croissy-sur-Seine",
      "prix": {
        "Gazole": 0.002043,
        "E85": 0.0008990000000000001,
        "E10": 0.00199
      },
      "maj_gouv": {
        "Gazole": "2026-06-15 00:01:00",
        "E85": "2026-06-15 00:01:00",
        "E10": "2026-06-15 00:01:00"
      }
    },
    {
      "id": "78955001",
      "lat": 48.956,
      "lon": 2.042,
      "cp": "78955",
      "ville": "Carrières-sous-Poissy",
      "prix": {
        "Gazole": 0.001958,
        "SP95": 0.001974,
        "E10": 0.001908,
        "SP98": 0.001998
      },
      "maj_gouv": {
        "Gazole": "2026-06-12 11:28:42",
        "SP95": "2026-06-12 11:28:43",
        "E10": "2026-06-12 11:28:43",
        "SP98": "2026-06-12 11:28:43"
      }
    },
    {
      "id": "78310007",
      "lat": 48.743739662791,
      "lon": 1.9152968184968,
      "cp": "78310",
      "ville": "Coignières",
      "prix": {
        "Gazole": 0.001911,
        "E10": 0.001923,
        "SP98": 0.00199
      },
      "maj_gouv": {
        "Gazole": "2026-06-15 00:01:00",
        "E10": "2026-06-15 00:01:00",
        "SP98": "2026-06-15 00:01:00"
      }
    },
    {
      "id": "78200012",
      "lat": 48.983,
      "lon": 1.698,
      "cp": "78711",
      "ville": "Mantes-la-Ville",
      "prix": {
        "E85": 0.000839,
        "GPLc": 0.000999
      },
      "maj_gouv": {
        "E85": "2026-06-15 00:01:00",
        "GPLc": "2026-06-15 00:01:00"
      }
    },
    {
      "id": "78560004",
      "lat": 48.878,
      "lon": 2.115,
      "cp": "78560",
      "ville": "Le Port-Marly",
      "prix": {
        "Gazole": 0.001935,
        "E10": 0.00195
      },
      "maj_gouv": {
        "Gazole": "2026-06-15 00:01:00",
        "E10": "2026-06-15 00:01:00"
      }
    },
    {
      "id": "78310001",
      "lat": 48.745,
      "lon": 1.922,
      "cp": "78310",
      "ville": "Coignières",
      "prix": {
        "Gazole": 0.0019950000000000002,
        "E85": 0.000775,
        "GPLc": 0.0010400000000000001,
        "E10": 0.0019590000000000002,
        "SP98": 0.002025
      },
      "maj_gouv": {
        "Gazole": "2026-06-11 09:37:21",
        "E85": "2026-06-11 09:37:21",
        "GPLc": "2026-04-21 06:28:11",
        "E10": "2026-06-11 09:37:21",
        "SP98": "2026-06-11 09:37:21"
      }
    },
    {
      "id": "78450001",
      "lat": 48.819,
      "lon": 2.004,
      "cp": "78450",
      "ville": "VILLEPREUX",
      "prix": {
        "Gazole": 0.001999,
        "E85": 0.0008990000000000001,
        "E10": 0.001929,
        "SP98": 0.0021190000000000002
      },
      "maj_gouv": {
        "Gazole": "2026-06-08 11:55:13",
        "E85": "2026-03-06 08:58:07",
        "E10": "2026-06-09 10:03:53",
        "SP98": "2026-05-28 10:02:49"
      }
    },
    {
      "id": "78160002",
      "lat": 48.872,
      "lon": 2.105,
      "cp": "78160",
      "ville": "Marly-le-Roi",
      "prix": {
        "Gazole": 0.0020350000000000004,
        "E85": 0.000889,
        "E10": 0.00199,
        "SP98": 0.00199
      },
      "maj_gouv": {
        "Gazole": "2026-06-15 00:01:00",
        "E85": "2026-06-15 00:01:00",
        "E10": "2026-06-15 00:01:00",
        "SP98": "2026-06-15 00:01:00"
      }
    },
    {
      "id": "78150014",
      "lat": 48.837,
      "lon": 2.105,
      "cp": "78150",
      "ville": "ROCQUENCOURT",
      "prix": {
        "Gazole": 0.002019,
        "E10": 0.0019890000000000003,
        "SP98": 0.0021190000000000002
      },
      "maj_gouv": {
        "Gazole": "2026-06-15 06:21:06",
        "E10": "2026-06-15 06:21:06",
        "SP98": "2026-06-15 06:21:06"
      }
    },
    {
      "id": "78550009",
      "lat": 48.793,
      "lon": 1.62,
      "cp": "78550",
      "ville": "MAULETTE",
      "prix": {
        "Gazole": 0.001921,
        "E10": 0.0019370000000000001
      },
      "maj_gouv": {
        "Gazole": "2026-06-15 00:01:00",
        "E10": "2026-06-15 00:01:00"
      }
    },
    {
      "id": "78920004",
      "lat": 48.971,
      "lon": 1.919,
      "cp": "78920",
      "ville": "ECQUEVILLY",
      "prix": {
        "Gazole": 0.0019890000000000003,
        "E85": 0.000969,
        "GPLc": 0.001239,
        "E10": 0.0019590000000000002,
        "SP98": 0.002109
      },
      "maj_gouv": {
        "Gazole": "2026-06-12 11:01:25",
        "E85": "2026-06-12 11:01:25",
        "GPLc": "2026-06-12 11:01:25",
        "E10": "2026-06-12 11:01:25",
        "SP98": "2026-06-12 11:01:25"
      }
    },
    {
      "id": "78680004",
      "lat": 48.961,
      "lon": 1.812,
      "cp": "78680",
      "ville": "EPONE",
      "prix": {
        "Gazole": 0.001921,
        "E85": 0.000832,
        "GPLc": 0.000999,
        "E10": 0.001929,
        "SP98": 0.00199
      },
      "maj_gouv": {
        "Gazole": "2026-06-15 00:01:00",
        "E85": "2026-06-15 00:01:00",
        "GPLc": "2026-06-15 00:01:00",
        "E10": "2026-06-15 00:01:00",
        "SP98": "2026-06-15 00:01:00"
      }
    },
    {
      "id": "78550005",
      "lat": 48.792,
      "lon": 1.633,
      "cp": "78550",
      "ville": "MAULETTE",
      "prix": {
        "Gazole": 0.002189,
        "E85": 0.0009649999999999999,
        "GPLc": 0.001089,
        "E10": 0.0021190000000000002,
        "SP98": 0.002199
      },
      "maj_gouv": {
        "Gazole": "2026-06-11 06:47:34",
        "E85": "2026-06-11 06:47:34",
        "GPLc": "2026-06-11 06:47:34",
        "E10": "2026-06-11 06:47:34",
        "SP98": "2026-06-11 06:47:34"
      }
    },
    {
      "id": "78210006",
      "lat": 48.794,
      "lon": 2.07,
      "cp": "78210",
      "ville": "Saint-Cyr-l'École",
      "prix": {
        "Gazole": 0.001916,
        "E10": 0.001925,
        "SP98": 0.00199
      },
      "maj_gouv": {
        "Gazole": "2026-06-15 00:01:00",
        "E10": "2026-06-15 00:01:00",
        "SP98": "2026-06-15 07:13:31"
      }
    },
    {
      "id": "78330003",
      "lat": 48.811311340762,
      "lon": 2.0406115666011,
      "cp": "78330",
      "ville": "FONTENAY-LE-FLEURY",
      "prix": {
        "Gazole": 0.001899,
        "E85": 0.000759,
        "E10": 0.001899,
        "SP98": 0.0019790000000000003
      },
      "maj_gouv": {
        "Gazole": "2026-06-13 08:21:59",
        "E85": "2026-06-13 08:21:59",
        "E10": "2026-06-13 08:22:00",
        "SP98": "2026-06-13 08:22:00"
      }
    },
    {
      "id": "78990010",
      "lat": 48.768,
      "lon": 1.952,
      "cp": "78990",
      "ville": "ELANCOURT",
      "prix": {
        "Gazole": 0.001931,
        "E85": 0.000844,
        "E10": 0.001923,
        "SP98": 0.00199
      },
      "maj_gouv": {
        "Gazole": "2026-06-15 00:01:00",
        "E85": "2026-06-15 00:01:00",
        "E10": "2026-06-15 00:01:00",
        "SP98": "2026-06-15 00:01:00"
      }
    },
    {
      "id": "78170006",
      "lat": 48.857,
      "lon": 2.145,
      "cp": "78170",
      "ville": "LA CELLE-SAINT-CLOUD",
      "prix": {
        "Gazole": 0.002049,
        "E10": 0.002019,
        "SP98": 0.002169
      },
      "maj_gouv": {
        "Gazole": "2026-06-12 11:06:23",
        "E10": "2026-06-12 11:06:23",
        "SP98": "2026-06-12 11:06:23"
      }
    },
    {
      "id": "78800001",
      "lat": 48.924,
      "lon": 2.205,
      "cp": "78800",
      "ville": "HOUILLES",
      "prix": {
        "Gazole": 0.001999,
        "E85": 0.0008539999999999999,
        "E10": 0.001974,
        "SP98": 0.0020150000000000003
      },
      "maj_gouv": {
        "Gazole": "2026-06-12 10:24:13",
        "E85": "2026-06-04 11:03:03",
        "E10": "2026-06-12 10:24:14",
        "SP98": "2026-06-12 10:24:14"
      }
    },
    {
      "id": "78550004",
      "lat": 48.793,
      "lon": 1.631,
      "cp": "78550",
      "ville": "Maulette",
      "prix": {
        "Gazole": 0.002169,
        "E85": 0.0009649999999999999,
        "GPLc": 0.001089,
        "E10": 0.0021190000000000002,
        "SP98": 0.002199
      },
      "maj_gouv": {
        "Gazole": "2026-06-12 05:38:06",
        "E85": "2026-06-12 05:38:07",
        "GPLc": "2026-06-12 05:38:07",
        "E10": "2026-06-12 05:38:07",
        "SP98": "2026-06-12 05:38:07"
      }
    },
    {
      "id": "78310006",
      "lat": 48.762,
      "lon": 1.946,
      "cp": "78310",
      "ville": "MAUREPAS",
      "prix": {
        "Gazole": 0.002016,
        "E10": 0.00199,
        "SP98": 0.00199
      },
      "maj_gouv": {
        "Gazole": "2026-06-15 00:01:00",
        "E10": "2026-06-15 00:01:00",
        "SP98": "2026-06-15 00:01:00"
      }
    },
    {
      "id": "78500001",
      "lat": 48.948,
      "lon": 2.198,
      "cp": "78500",
      "ville": "SARTROUVILLE",
      "prix": {
        "Gazole": 0.001999,
        "SP95": 0.0019619999999999998,
        "E85": 0.000869,
        "E10": 0.001955,
        "SP98": 0.002038
      },
      "maj_gouv": {
        "Gazole": "2026-06-12 08:30:00",
        "SP95": "2026-06-12 08:30:00",
        "E85": "2026-06-12 08:30:00",
        "E10": "2026-06-12 08:30:00",
        "SP98": "2026-06-12 08:30:00"
      }
    },
    {
      "id": "78241001",
      "lat": 48.91,
      "lon": 2.033,
      "cp": "78240",
      "ville": "CHAMBOURCY",
      "prix": {
        "Gazole": 0.00197,
        "SP95": 0.002024,
        "E10": 0.00196,
        "SP98": 0.0021000000000000003
      },
      "maj_gouv": {
        "Gazole": "2026-06-13 08:19:00",
        "SP95": "2026-06-14 22:42:00",
        "E10": "2026-06-14 22:42:00",
        "SP98": "2026-06-14 22:42:00"
      }
    },
    {
      "id": "78121001",
      "lat": 48.886551876734,
      "lon": 1.9161588548828998,
      "cp": "78121",
      "ville": "Crespières",
      "prix": {
        "Gazole": 0.002249,
        "E10": 0.00199
      },
      "maj_gouv": {
        "Gazole": "2026-06-09 15:05:52",
        "E10": "2026-06-09 15:05:52"
      }
    },
    {
      "id": "78770001",
      "lat": 48.865757640000005,
      "lon": 1.79757381,
      "cp": "78770",
      "ville": "Thoiry",
      "prix": {
        "Gazole": 0.0020499999999999997,
        "SP95": 0.0020369999999999997,
        "SP98": 0.002091
      },
      "maj_gouv": {
        "Gazole": "2026-06-09 13:12:49",
        "SP95": "2026-06-03 10:02:52",
        "SP98": "2026-06-03 10:02:52"
      }
    },
    {
      "id": "78140009",
      "lat": 48.771104975942,
      "lon": 2.2275512428149,
      "cp": "78140",
      "ville": "VELIZY-VILLACOUBLAY",
      "prix": {
        "Gazole": 0.0022589999999999997,
        "E10": 0.002282,
        "SP98": 0.002432
      },
      "maj_gouv": {
        "Gazole": "2026-06-12 09:30:00",
        "E10": "2026-06-12 09:30:00",
        "SP98": "2026-06-12 09:30:00"
      }
    },
    {
      "id": "78150005",
      "lat": 48.827,
      "lon": 2.128,
      "cp": "78150",
      "ville": "LE CHESNAY",
      "prix": {
        "Gazole": 0.001929,
        "E10": 0.001949,
        "SP98": 0.002019
      },
      "maj_gouv": {
        "Gazole": "2026-06-15 08:00:00",
        "E10": "2026-06-15 08:00:00",
        "SP98": "2026-06-15 08:00:00"
      }
    },
    {
      "id": "78960004",
      "lat": 48.762,
      "lon": 2.042,
      "cp": "78960",
      "ville": "VOISINS LE BRETONNEUX",
      "prix": {
        "Gazole": 0.002039,
        "GPLc": 0.001239,
        "E10": 0.002009,
        "SP98": 0.002179
      },
      "maj_gouv": {
        "Gazole": "2026-06-12 11:05:03",
        "GPLc": "2026-06-12 11:05:03",
        "E10": "2026-06-12 11:05:03",
        "SP98": "2026-06-12 11:05:03"
      }
    },
    {
      "id": "78710004",
      "lat": 48.993,
      "lon": 1.634,
      "cp": "78710",
      "ville": "ROSNY SUR SEINE",
      "prix": {
        "Gazole": 0.002159,
        "E85": 0.000989,
        "GPLc": 0.001156,
        "E10": 0.0021030000000000003,
        "SP98": 0.0021739999999999997
      },
      "maj_gouv": {
        "Gazole": "2026-06-12 11:13:26",
        "E85": "2026-06-12 11:13:26",
        "GPLc": "2026-06-12 11:13:26",
        "E10": "2026-06-12 11:13:26",
        "SP98": "2026-06-12 11:13:26"
      }
    },
    {
      "id": "78570001",
      "lat": 48.976,
      "lon": 2.043,
      "cp": "78570",
      "ville": "Andrésy",
      "prix": {
        "Gazole": 0.0021230000000000003,
        "E85": 0.000933,
        "E10": 0.00199,
        "SP98": 0.00199
      },
      "maj_gouv": {
        "Gazole": "2026-06-08 12:17:00",
        "E85": "2026-06-03 12:17:28",
        "E10": "2026-06-08 12:17:00",
        "SP98": "2026-06-08 12:17:00"
      }
    },
    {
      "id": "78630004",
      "lat": 48.925,
      "lon": 1.976,
      "cp": "78630",
      "ville": "Orgeval",
      "prix": {
        "Gazole": 0.0020659999999999997,
        "E10": 0.00199,
        "SP98": 0.00199
      },
      "maj_gouv": {
        "Gazole": "2026-06-15 07:58:45",
        "E10": "2026-06-15 07:58:45",
        "SP98": "2026-06-15 07:58:45"
      }
    },
    {
      "id": "78270002",
      "lat": 49.02,
      "lon": 1.489,
      "cp": "78270",
      "ville": "Chaufour-lès-Bonnières",
      "prix": {},
      "maj_gouv": {}
    },
    {
      "id": "78660003",
      "lat": 48.515054663739,
      "lon": 1.8381448602102002,
      "cp": "78660",
      "ville": "Ablis",
      "prix": {
        "Gazole": 0.0018839999999999998,
        "SP95": 0.001954,
        "SP98": 0.001987
      },
      "maj_gouv": {
        "Gazole": "2026-06-13 13:49:57",
        "SP95": "2026-06-13 13:49:57",
        "SP98": "2026-06-13 13:49:58"
      }
    },
    {
      "id": "78840003",
      "lat": 49.039,
      "lon": 1.592,
      "cp": "78840",
      "ville": "FRENEUSE",
      "prix": {
        "Gazole": 0.0020299999999999997,
        "SP95": 0.002039,
        "E85": 0.000809,
        "E10": 0.0019690000000000003,
        "SP98": 0.002089
      },
      "maj_gouv": {
        "Gazole": "2026-06-12 10:48:41",
        "SP95": "2026-06-05 09:12:13",
        "E85": "2026-06-12 10:48:42",
        "E10": "2026-06-05 09:12:13",
        "SP98": "2026-06-05 09:12:13"
      }
    },
    {
      "id": "78260001",
      "lat": 48.961637,
      "lon": 2.058439,
      "cp": "78260",
      "ville": "ACHERES",
      "prix": {
        "Gazole": 0.0019690000000000003,
        "E85": 0.000767,
        "GPLc": 0.001019,
        "E10": 0.001925,
        "SP98": 0.001999
      },
      "maj_gouv": {
        "Gazole": "2026-06-11 09:59:38",
        "E85": "2026-06-11 09:59:38",
        "GPLc": "2026-06-11 09:59:38",
        "E10": "2026-06-12 10:58:52",
        "SP98": "2026-06-12 10:58:52"
      }
    },
    {
      "id": "78000019",
      "lat": 48.818,
      "lon": 2.15,
      "cp": "78000",
      "ville": "VERSAILLES",
      "prix": {
        "Gazole": 0.002036,
        "E85": 0.000889,
        "E10": 0.00199,
        "SP98": 0.00199
      },
      "maj_gouv": {
        "Gazole": "2026-06-14 20:50:00",
        "E85": "2026-06-14 20:50:00",
        "E10": "2026-06-14 20:50:00",
        "SP98": "2026-06-14 20:50:00"
      }
    },
    {
      "id": "78280004",
      "lat": 48.785,
      "lon": 2.06,
      "cp": "78280",
      "ville": "GUYANCOURT",
      "prix": {
        "Gazole": 0.0019119999999999999,
        "E85": 0.0008489999999999999,
        "E10": 0.001924,
        "SP98": 0.00199
      },
      "maj_gouv": {
        "Gazole": "2026-06-15 00:01:00",
        "E85": "2026-06-15 00:01:00",
        "E10": "2026-06-15 00:01:00",
        "SP98": "2026-06-15 00:01:00"
      }
    },
    {
      "id": "78390006",
      "lat": 48.801,
      "lon": 2.026,
      "cp": "78390",
      "ville": "Bois-d'Arcy",
      "prix": {
        "Gazole": 0.0019119999999999999,
        "E10": 0.001921,
        "SP98": 0.00199
      },
      "maj_gouv": {
        "Gazole": "2026-06-15 00:01:00",
        "E10": "2026-06-15 00:01:00",
        "SP98": "2026-06-15 00:01:00"
      }
    },
    {
      "id": "78120013",
      "lat": 48.644,
      "lon": 1.84,
      "cp": "78120",
      "ville": "RAMBOUILLET",
      "prix": {
        "Gazole": 0.002012,
        "E85": 0.000839,
        "E10": 0.00199
      },
      "maj_gouv": {
        "Gazole": "2026-06-15 00:01:00",
        "E85": "2026-06-15 07:45:17",
        "E10": "2026-06-15 00:01:00"
      }
    },
    {
      "id": "78120012",
      "lat": 48.568,
      "lon": 1.833,
      "cp": "78120",
      "ville": "SONCHAMP",
      "prix": {
        "Gazole": 0.0018919999999999998,
        "E85": 0.000825,
        "E10": 0.0019
      },
      "maj_gouv": {
        "Gazole": "2026-06-15 00:01:00",
        "E85": "2026-06-15 00:01:00",
        "E10": "2026-06-15 00:01:00"
      }
    },
    {
      "id": "78550007",
      "lat": 48.78718868547,
      "lon": 1.6053821827238999,
      "cp": "78550",
      "ville": "Maulette",
      "prix": {
        "Gazole": 0.002039,
        "SP95": 0.002069,
        "SP98": 0.002099
      },
      "maj_gouv": {
        "Gazole": "2026-06-04 12:06:15",
        "SP95": "2026-06-04 11:05:44",
        "SP98": "2026-06-04 11:06:06"
      }
    },
    {
      "id": "78630009",
      "lat": 48.940636390951,
      "lon": 1.9546125318413001,
      "cp": "78630",
      "ville": "MORAINVILLIERS",
      "prix": {
        "Gazole": 0.002077,
        "E85": 0.000999,
        "GPLc": 0.001089,
        "E10": 0.00199,
        "SP98": 0.00199
      },
      "maj_gouv": {
        "Gazole": "2026-06-15 00:01:00",
        "E85": "2026-06-15 00:01:00",
        "GPLc": "2026-06-15 00:01:00",
        "E10": "2026-06-15 00:01:00",
        "SP98": "2026-06-15 00:01:00"
      }
    },
    {
      "id": "78000020",
      "lat": 48.793,
      "lon": 2.143,
      "cp": "78000",
      "ville": "VERSAILLES",
      "prix": {
        "Gazole": 0.001942,
        "GPLc": 0.000999,
        "E10": 0.001954,
        "SP98": 0.00199
      },
      "maj_gouv": {
        "Gazole": "2026-06-15 00:01:00",
        "GPLc": "2026-06-15 00:01:00",
        "E10": "2026-06-15 00:01:00",
        "SP98": "2026-06-15 00:01:00"
      }
    },
    {
      "id": "78480004",
      "lat": 48.978,
      "lon": 1.978,
      "cp": "78480",
      "ville": "Verneuil-sur-Seine",
      "prix": {
        "Gazole": 0.002025,
        "E85": 0.000865,
        "SP98": 0.00199
      },
      "maj_gouv": {
        "Gazole": "2026-06-15 00:01:00",
        "E85": "2026-06-15 00:01:00",
        "SP98": "2026-06-15 00:01:00"
      }
    },
    {
      "id": "78200003",
      "lat": 48.982,
      "lon": 1.72,
      "cp": "78711",
      "ville": "MANTES-LA-VILLE",
      "prix": {
        "Gazole": 0.002016,
        "E85": 0.000839,
        "E10": 0.00199,
        "SP98": 0.00199
      },
      "maj_gouv": {
        "Gazole": "2026-06-13 17:47:32",
        "E85": "2026-06-13 17:47:32",
        "E10": "2026-06-13 17:47:32",
        "SP98": "2026-06-13 17:47:32"
      }
    },
    {
      "id": "78660004",
      "lat": 48.571,
      "lon": 1.832,
      "cp": "78660",
      "ville": "Prunay-en-Yvelines",
      "prix": {
        "Gazole": 0.001898,
        "E10": 0.0019019999999999998,
        "SP98": 0.00199
      },
      "maj_gouv": {
        "Gazole": "2026-06-15 00:01:00",
        "E10": "2026-06-15 00:01:00",
        "SP98": "2026-06-15 00:01:00"
      }
    },
    {
      "id": "78320001",
      "lat": 48.745,
      "lon": 1.963,
      "cp": "78320",
      "ville": "LE MESNIL-SAINT-DENIS",
      "prix": {
        "Gazole": 0.002013,
        "SP95": 0.00199
      },
      "maj_gouv": {
        "Gazole": "2026-06-15 08:09:27",
        "SP95": "2026-06-15 08:09:27"
      }
    },
    {
      "id": "78630008",
      "lat": 48.94070118,
      "lon": 1.95295914,
      "cp": "78630",
      "ville": "MORAINVILLIERS",
      "prix": {
        "Gazole": 0.002076,
        "E85": 0.000998,
        "E10": 0.00199,
        "SP98": 0.00199
      },
      "maj_gouv": {
        "Gazole": "2026-06-15 00:01:00",
        "E85": "2026-06-15 00:01:00",
        "E10": "2026-06-15 00:01:00",
        "SP98": "2026-06-15 00:01:00"
      }
    },
    {
      "id": "78490002",
      "lat": 48.801553211788004,
      "lon": 1.8208143438025,
      "cp": "78490",
      "ville": "Méré",
      "prix": {
        "Gazole": 0.002065,
        "E85": 0.0009459999999999999,
        "E10": 0.00199
      },
      "maj_gouv": {
        "Gazole": "2026-06-13 10:51:59",
        "E85": "2026-06-13 10:51:59",
        "E10": "2026-06-13 10:51:59"
      }
    },
    {
      "id": "78790001",
      "lat": 48.892164616577,
      "lon": 1.6783590679534999,
      "cp": "78790",
      "ville": "SEPTEUIL",
      "prix": {
        "Gazole": 0.00209,
        "SP95": 0.00215,
        "SP98": 0.0022
      },
      "maj_gouv": {
        "Gazole": "2026-05-29 19:10:51",
        "SP95": "2026-05-29 19:10:52",
        "SP98": "2026-05-29 19:10:52"
      }
    },
    {
      "id": "78702001",
      "lat": 49.009,
      "lon": 2.086,
      "cp": "78700",
      "ville": "CONFLANS-SAINTE-HONORINE",
      "prix": {
        "Gazole": 0.001954,
        "E10": 0.001905,
        "SP98": 0.0019950000000000002
      },
      "maj_gouv": {
        "Gazole": "2026-06-12 11:25:00",
        "E10": "2026-06-12 11:14:51",
        "SP98": "2026-06-12 11:14:52"
      }
    },
    {
      "id": "78360001",
      "lat": 48.93,
      "lon": 2.145,
      "cp": "78360",
      "ville": "MONTESSON",
      "prix": {
        "Gazole": 0.0020139999999999997,
        "E85": 0.000855,
        "E10": 0.001991,
        "SP98": 0.0021070000000000004
      },
      "maj_gouv": {
        "Gazole": "2026-06-13 05:22:33",
        "E85": "2026-06-13 05:22:34",
        "E10": "2026-06-13 05:22:34",
        "SP98": "2026-06-13 05:22:34"
      }
    },
    {
      "id": "78150012",
      "lat": 48.823,
      "lon": 2.128,
      "cp": "78150",
      "ville": "LE CHESNAY",
      "prix": {
        "Gazole": 0.002016,
        "E85": 0.000884
      },
      "maj_gouv": {
        "Gazole": "2026-06-15 00:01:00",
        "E85": "2026-06-15 00:01:00"
      }
    },
    {
      "id": "78250003",
      "lat": 49.01261117295599,
      "lon": 1.9092504310608,
      "cp": "78250",
      "ville": "TESSANCOURT-SUR-AUBETTE",
      "prix": {
        "Gazole": 0.0019590000000000002,
        "E10": 0.001929,
        "SP98": 0.002049
      },
      "maj_gouv": {
        "Gazole": "2026-06-10 11:56:47",
        "E10": "2026-06-10 11:56:47",
        "SP98": "2026-06-10 11:56:47"
      }
    },
    {
      "id": "78970001",
      "lat": 48.96039,
      "lon": 1.80785,
      "cp": "78970",
      "ville": "MéZIèRES-SUR-SEINE",
      "prix": {
        "Gazole": 0.0019790000000000003,
        "E10": 0.001939,
        "SP98": 0.0019890000000000003
      },
      "maj_gouv": {
        "Gazole": "2026-06-12 10:33:50",
        "E10": "2026-06-09 10:04:12",
        "SP98": "2026-06-04 10:22:41"
      }
    },
    {
      "id": "78700003",
      "lat": 49.006,
      "lon": 2.113,
      "cp": "78700",
      "ville": "CONFLANS-SAINTE-HONORINE",
      "prix": {
        "Gazole": 0.0020139999999999997,
        "E10": 0.00199
      },
      "maj_gouv": {
        "Gazole": "2026-06-13 06:53:11",
        "E10": "2026-06-13 06:53:11"
      }
    },
    {
      "id": "78340005",
      "lat": 48.829,
      "lon": 1.994,
      "cp": "78340",
      "ville": "Les Clayes-sous-Bois",
      "prix": {
        "Gazole": 0.00202,
        "E85": 0.0008489999999999999,
        "E10": 0.00199,
        "SP98": 0.00199
      },
      "maj_gouv": {
        "Gazole": "2026-06-15 00:01:00",
        "E85": "2026-06-15 00:01:00",
        "E10": "2026-06-15 00:01:00",
        "SP98": "2026-06-15 00:01:00"
      }
    },
    {
      "id": "78530001",
      "lat": 48.765,
      "lon": 2.127,
      "cp": "78530",
      "ville": "BUC",
      "prix": {
        "Gazole": 0.0019790000000000003,
        "E85": 0.000798,
        "E10": 0.001949,
        "SP98": 0.002049
      },
      "maj_gouv": {
        "Gazole": "2026-06-12 10:29:25",
        "E85": "2026-06-11 10:47:55",
        "E10": "2026-06-12 15:47:31",
        "SP98": "2026-06-12 10:29:26"
      }
    },
    {
      "id": "78430005",
      "lat": 48.875,
      "lon": 2.119,
      "cp": "78430",
      "ville": "LOUVECIENNES",
      "prix": {
        "Gazole": 0.002027,
        "E10": 0.00199,
        "SP98": 0.00199
      },
      "maj_gouv": {
        "Gazole": "2026-06-15 00:01:00",
        "E10": "2026-06-15 00:01:00",
        "SP98": "2026-06-15 00:01:00"
      }
    },
    {
      "id": "78690003",
      "lat": 48.718,
      "lon": 1.883,
      "cp": "78690",
      "ville": "LES ESSARTS LE ROI",
      "prix": {
        "Gazole": 0.001916,
        "E85": 0.0008489999999999999,
        "GPLc": 0.000979,
        "E10": 0.001921
      },
      "maj_gouv": {
        "Gazole": "2026-06-15 00:01:00",
        "E85": "2026-06-15 00:01:00",
        "GPLc": "2026-06-15 00:01:00",
        "E10": "2026-06-15 00:01:00"
      }
    },
    {
      "id": "78380005",
      "lat": 48.857,
      "lon": 2.139,
      "cp": "78380",
      "ville": "Bougival",
      "prix": {
        "Gazole": 0.001999,
        "E10": 0.0019690000000000003,
        "SP98": 0.0021190000000000002
      },
      "maj_gouv": {
        "Gazole": "2026-06-12 11:05:46",
        "E10": "2026-06-12 11:05:46",
        "SP98": "2026-06-12 11:05:46"
      }
    },
    {
      "id": "78000005",
      "lat": 48.788,
      "lon": 2.15,
      "cp": "78000",
      "ville": "Versailles",
      "prix": {
        "Gazole": 0.0019850000000000002,
        "E85": 0.00093,
        "E10": 0.00196,
        "SP98": 0.00204
      },
      "maj_gouv": {
        "Gazole": "2026-06-13 07:41:00",
        "E85": "2026-06-13 07:41:00",
        "E10": "2026-06-13 07:41:00",
        "SP98": "2026-06-13 07:41:00"
      }
    },
    {
      "id": "78000016",
      "lat": 48.791,
      "lon": 2.114,
      "cp": "78000",
      "ville": "Versailles",
      "prix": {
        "Gazole": 0.0019790000000000003,
        "E10": 0.001949,
        "SP98": 0.002079
      },
      "maj_gouv": {
        "Gazole": "2026-06-15 06:23:46",
        "E10": "2026-06-15 06:23:46",
        "SP98": "2026-06-15 06:23:46"
      }
    },
    {
      "id": "78130011",
      "lat": 48.9924,
      "lon": 1.91384,
      "cp": "78130",
      "ville": "LES MUREAUX",
      "prix": {
        "Gazole": 0.001925,
        "E10": 0.001929
      },
      "maj_gouv": {
        "Gazole": "2026-06-15 00:01:00",
        "E10": "2026-06-15 00:01:00"
      }
    },
    {
      "id": "78180010",
      "lat": 48.781,
      "lon": 2.04,
      "cp": "78180",
      "ville": "MONTIGNY LE BRETONNEUX",
      "prix": {
        "Gazole": 0.001921,
        "E85": 0.0008489999999999999,
        "E10": 0.001929,
        "SP98": 0.00199
      },
      "maj_gouv": {
        "Gazole": "2026-06-15 00:01:00",
        "E85": "2026-06-15 00:01:00",
        "E10": "2026-06-15 00:01:00",
        "SP98": "2026-06-15 00:01:00"
      }
    },
    {
      "id": "78180011",
      "lat": 48.777,
      "lon": 2.018,
      "cp": "78180",
      "ville": "Montigny le Bretonneux",
      "prix": {
        "Gazole": 0.0019619999999999998,
        "E10": 0.001954,
        "SP98": 0.002034
      },
      "maj_gouv": {
        "Gazole": "2026-06-15 07:41:00",
        "E10": "2026-06-15 07:41:00",
        "SP98": "2026-06-15 07:41:00"
      }
    },
    {
      "id": "78230002",
      "lat": 48.881,
      "lon": 2.097,
      "cp": "78230",
      "ville": "Le Pecq",
      "prix": {
        "Gazole": 0.002003,
        "E85": 0.0009310000000000001,
        "E10": 0.0019690000000000003,
        "SP98": 0.002049
      },
      "maj_gouv": {
        "Gazole": "2026-06-13 06:31:00",
        "E85": "2026-06-13 06:31:00",
        "E10": "2026-06-13 06:31:00",
        "SP98": "2026-06-13 06:31:00"
      }
    },
    {
      "id": "78800004",
      "lat": 48.922,
      "lon": 2.202,
      "cp": "78800",
      "ville": "Houilles",
      "prix": {
        "Gazole": 0.001984,
        "E10": 0.001966,
        "SP98": 0.0020459999999999996
      },
      "maj_gouv": {
        "Gazole": "2026-06-13 07:40:00",
        "E10": "2026-06-13 07:40:00",
        "SP98": "2026-06-13 07:40:00"
      }
    },
    {
      "id": "78190011",
      "lat": 48.789,
      "lon": 1.974,
      "cp": "78190",
      "ville": "Trappes",
      "prix": {
        "Gazole": 0.001946,
        "E85": 0.000766,
        "E10": 0.001926,
        "SP98": 0.002
      },
      "maj_gouv": {
        "Gazole": "2026-06-12 09:28:52",
        "E85": "2026-06-10 10:38:53",
        "E10": "2026-06-12 09:28:52",
        "SP98": "2026-06-12 09:28:52"
      }
    },
    {
      "id": "78360004",
      "lat": 48.909,
      "lon": 2.159,
      "cp": "78360",
      "ville": "MONTESSON",
      "prix": {
        "Gazole": 0.0019399999999999999,
        "E85": 0.000879,
        "E10": 0.001961,
        "SP98": 0.00199
      },
      "maj_gouv": {
        "Gazole": "2026-06-15 00:01:00",
        "E85": "2026-06-15 00:01:00",
        "E10": "2026-06-15 00:01:00",
        "SP98": "2026-06-15 00:01:00"
      }
    },
    {
      "id": "78230005",
      "lat": 48.896,
      "lon": 2.107,
      "cp": "78230",
      "ville": "Le Pecq",
      "prix": {},
      "maj_gouv": {}
    },
    {
      "id": "78280003",
      "lat": 48.77,
      "lon": 2.06,
      "cp": "78280",
      "ville": "GUYANCOURT",
      "prix": {
        "Gazole": 0.002018,
        "E85": 0.000839,
        "E10": 0.00199,
        "SP98": 0.00199
      },
      "maj_gouv": {
        "Gazole": "2026-06-15 00:01:00",
        "E85": "2026-06-15 00:01:00",
        "E10": "2026-06-15 00:01:00",
        "SP98": "2026-06-15 00:01:00"
      }
    },
    {
      "id": "78520004",
      "lat": 48.993,
      "lon": 1.744,
      "cp": "78520",
      "ville": "LIMAY",
      "prix": {
        "Gazole": 0.001917,
        "E85": 0.000823,
        "E10": 0.001929,
        "SP98": 0.00199
      },
      "maj_gouv": {
        "Gazole": "2026-06-15 00:01:00",
        "E85": "2026-06-15 00:01:00",
        "E10": "2026-06-15 00:01:00",
        "SP98": "2026-06-15 00:01:00"
      }
    },
    {
      "id": "78400004",
      "lat": 48.892,
      "lon": 2.144,
      "cp": "78400",
      "ville": "CHATOU",
      "prix": {
        "Gazole": 0.002039,
        "E85": 0.0008990000000000001,
        "E10": 0.00199,
        "SP98": 0.00199
      },
      "maj_gouv": {
        "Gazole": "2026-06-15 00:01:00",
        "E85": "2026-06-15 00:01:00",
        "E10": "2026-06-15 00:01:00",
        "SP98": "2026-06-15 00:01:00"
      }
    },
    {
      "id": "78630010",
      "lat": 48.92529,
      "lon": 1.99188,
      "cp": "78630",
      "ville": "ORGEVAL",
      "prix": {
        "Gazole": 0.0019219999999999999,
        "E10": 0.001929,
        "SP98": 0.00199
      },
      "maj_gouv": {
        "Gazole": "2026-06-15 00:01:00",
        "E10": "2026-06-15 00:01:00",
        "SP98": "2026-06-15 00:01:00"
      }
    },
    {
      "id": "78300011",
      "lat": 48.921,
      "lon": 2.034,
      "cp": "78300",
      "ville": "POISSY",
      "prix": {
        "Gazole": 0.002013,
        "E10": 0.00199,
        "SP98": 0.00199
      },
      "maj_gouv": {
        "Gazole": "2026-06-15 00:01:00",
        "E10": "2026-06-15 00:01:00",
        "SP98": "2026-06-15 00:01:00"
      }
    },
    {
      "id": "78390005",
      "lat": 48.798841163765,
      "lon": 2.0034336831272,
      "cp": "78390",
      "ville": "Bois-d'Arcy",
      "prix": {
        "Gazole": 0.00202,
        "E85": 0.0008489999999999999,
        "GPLc": 0.001009,
        "E10": 0.00199,
        "SP98": 0.00199
      },
      "maj_gouv": {
        "Gazole": "2026-06-15 00:01:00",
        "E85": "2026-06-15 00:01:00",
        "GPLc": "2026-06-15 00:01:00",
        "E10": "2026-06-15 00:01:00",
        "SP98": "2026-06-15 00:01:00"
      }
    },
    {
      "id": "78410004",
      "lat": 48.96,
      "lon": 1.843,
      "cp": "78410",
      "ville": "AUBERGENVILLE",
      "prix": {
        "Gazole": 0.002022,
        "E85": 0.000855,
        "E10": 0.00199,
        "SP98": 0.00199
      },
      "maj_gouv": {
        "Gazole": "2026-06-15 00:01:00",
        "E85": "2026-06-15 00:01:00",
        "E10": "2026-06-15 00:01:00",
        "SP98": "2026-06-15 00:01:00"
      }
    },
    {
      "id": "78840004",
      "lat": 49.037,
      "lon": 1.593,
      "cp": "78840",
      "ville": "Freneuse",
      "prix": {
        "Gazole": 0.0020099999999999996,
        "SP95": 0.001999,
        "SP98": 0.002079
      },
      "maj_gouv": {
        "Gazole": "2026-06-13 15:33:09",
        "SP95": "2026-06-13 15:33:09",
        "SP98": "2026-06-13 15:33:09"
      }
    },
    {
      "id": "78140008",
      "lat": 48.781,
      "lon": 2.173,
      "cp": "78140",
      "ville": "Vélizy-Villacoublay",
      "prix": {
        "Gazole": 0.0020369999999999997,
        "GPLc": 0.001019,
        "E10": 0.00199,
        "SP98": 0.00199
      },
      "maj_gouv": {
        "Gazole": "2026-06-15 00:01:00",
        "GPLc": "2026-06-15 00:01:00",
        "E10": "2026-06-15 00:01:00",
        "SP98": "2026-06-15 00:01:00"
      }
    },
    {
      "id": "78580001",
      "lat": 48.912,
      "lon": 1.852,
      "cp": "78580",
      "ville": "MAULE",
      "prix": {
        "Gazole": 0.002227,
        "SP95": 0.002195,
        "SP98": 0.002264
      },
      "maj_gouv": {
        "Gazole": "2026-05-19 11:21:02",
        "SP95": "2026-05-19 11:21:02",
        "SP98": "2026-05-19 11:21:02"
      }
    },
    {
      "id": "78820001",
      "lat": 48.98981,
      "lon": 1.83454,
      "cp": "78820",
      "ville": "Juziers",
      "prix": {
        "Gazole": 0.001999,
        "E10": 0.001939,
        "SP98": 0.002049
      },
      "maj_gouv": {
        "Gazole": "2026-06-06 08:47:44",
        "E10": "2026-06-13 08:53:08",
        "SP98": "2026-06-06 08:47:45"
      }
    },
    {
      "id": "78190012",
      "lat": 48.773,
      "lon": 1.991,
      "cp": "78190",
      "ville": "TRAPPES",
      "prix": {
        "Gazole": 0.002019,
        "E85": 0.000969,
        "GPLc": 0.0011790000000000001,
        "E10": 0.001999,
        "SP98": 0.002089
      },
      "maj_gouv": {
        "Gazole": "2026-06-15 06:25:05",
        "E85": "2026-06-15 06:25:05",
        "GPLc": "2026-06-15 06:25:05",
        "E10": "2026-06-15 06:25:05",
        "SP98": "2026-06-15 06:25:05"
      }
    },
    {
      "id": "78000021",
      "lat": 48.805,
      "lon": 2.153,
      "cp": "78000",
      "ville": "VERSAILLES",
      "prix": {
        "Gazole": 0.002059,
        "E10": 0.002029,
        "SP98": 0.002159
      },
      "maj_gouv": {
        "Gazole": "2026-06-12 11:06:25",
        "E10": "2026-06-12 11:06:24",
        "SP98": "2026-06-12 11:06:25"
      }
    },
    {
      "id": "78120003",
      "lat": 48.625,
      "lon": 1.83,
      "cp": "78120",
      "ville": "RAMBOUILLET",
      "prix": {
        "Gazole": 0.001983,
        "SP95": 0.001971,
        "GPLc": 0.000923,
        "E10": 0.001932,
        "SP98": 0.002068
      },
      "maj_gouv": {
        "Gazole": "2026-06-08 22:44:00",
        "SP95": "2026-06-08 22:44:00",
        "GPLc": "2026-06-08 22:44:00",
        "E10": "2026-06-08 22:44:00",
        "SP98": "2026-06-08 22:44:00"
      }
    },
    {
      "id": "78940001",
      "lat": 48.80349960666899,
      "lon": 1.782318988474,
      "cp": "78940",
      "ville": "La Queue-lez-Yvelines",
      "prix": {
        "Gazole": 0.00196,
        "E10": 0.0019590000000000002,
        "SP98": 0.002099
      },
      "maj_gouv": {
        "Gazole": "2026-06-11 09:20:42",
        "E10": "2026-06-11 09:20:43",
        "SP98": "2026-06-11 09:20:43"
      }
    },
    {
      "id": "78960001",
      "lat": 48.756,
      "lon": 2.055,
      "cp": "78960",
      "ville": "Voisins-le-Bretonneux",
      "prix": {
        "Gazole": 0.001987,
        "E85": 0.000742,
        "E10": 0.001934,
        "SP98": 0.002052
      },
      "maj_gouv": {
        "Gazole": "2026-06-12 07:18:21",
        "E85": "2026-06-12 07:18:22",
        "E10": "2026-06-12 07:18:22",
        "SP98": "2026-06-12 07:18:22"
      }
    },
    {
      "id": "78980001",
      "lat": 48.945,
      "lon": 1.524,
      "cp": "78980",
      "ville": "Bréval",
      "prix": {
        "Gazole": 0.00196,
        "E10": 0.0019299999999999999,
        "SP98": 0.00202
      },
      "maj_gouv": {
        "Gazole": "2026-06-12 09:59:31",
        "E10": "2026-06-12 09:59:31",
        "SP98": "2026-06-12 10:00:40"
      }
    },
    {
      "id": "78700001",
      "lat": 49.011,
      "lon": 2.097,
      "cp": "78700",
      "ville": "CONFLANS-SAINTE-HONORINE",
      "prix": {
        "Gazole": 0.001955,
        "E85": 0.000745,
        "E10": 0.001906,
        "SP98": 0.0019950000000000002
      },
      "maj_gouv": {
        "Gazole": "2026-06-12 09:30:00",
        "E85": "2026-06-12 09:30:00",
        "E10": "2026-06-12 09:30:00",
        "SP98": "2026-06-12 09:30:00"
      }
    },
    {
      "id": "78990004",
      "lat": 48.776,
      "lon": 1.954,
      "cp": "78990",
      "ville": "ÉLANCOURT",
      "prix": {},
      "maj_gouv": {}
    },
    {
      "id": "78300003",
      "lat": 48.942,
      "lon": 2.029,
      "cp": "78955",
      "ville": "Carrières-sous-Poissy",
      "prix": {
        "Gazole": 0.001958,
        "E85": 0.000759,
        "E10": 0.001908,
        "SP98": 0.001998
      },
      "maj_gouv": {
        "Gazole": "2026-06-12 11:26:28",
        "E85": "2026-06-12 11:26:28",
        "E10": "2026-06-12 11:26:28",
        "SP98": "2026-06-12 11:26:29"
      }
    },
    {
      "id": "78290001",
      "lat": 48.88112,
      "lon": 2.13987,
      "cp": "78290",
      "ville": "Croissy-sur-Seine",
      "prix": {
        "Gazole": 0.0020440000000000002,
        "E85": 0.000866,
        "E10": 0.001983,
        "SP98": 0.0020670000000000003
      },
      "maj_gouv": {
        "Gazole": "2026-06-15 07:51:56",
        "E85": "2026-06-15 07:51:56",
        "E10": "2026-06-15 07:51:56",
        "SP98": "2026-06-15 07:51:56"
      }
    },
    {
      "id": "78910001",
      "lat": 48.834468619511,
      "lon": 1.70957925703,
      "cp": "78910",
      "ville": "Orgerus",
      "prix": {
        "Gazole": 0.001999,
        "E10": 0.001998,
        "SP98": 0.0020800000000000003
      },
      "maj_gouv": {
        "Gazole": "2026-06-09 16:45:35",
        "E10": "2026-06-03 12:29:07",
        "SP98": "2026-06-04 12:40:01"
      }
    },
    {
      "id": "78140001",
      "lat": 48.783,
      "lon": 2.215,
      "cp": "78140",
      "ville": "VéLIZY-VILLACOUBLAY",
      "prix": {
        "Gazole": 0.001988,
        "E85": 0.000925,
        "GPLc": 0.001055,
        "E10": 0.0019690000000000003,
        "SP98": 0.002049
      },
      "maj_gouv": {
        "Gazole": "2026-06-13 08:31:20",
        "E85": "2026-06-08 11:21:07",
        "GPLc": "2026-05-27 06:52:14",
        "E10": "2026-06-13 08:31:21",
        "SP98": "2026-06-13 08:31:21"
      }
    },
    {
      "id": "78440001",
      "lat": 48.99,
      "lon": 1.835,
      "cp": "78440",
      "ville": "GARGENVILLE",
      "prix": {
        "Gazole": 0.002018,
        "SP95": 0.002003,
        "SP98": 0.002069
      },
      "maj_gouv": {
        "Gazole": "2026-06-10 09:29:43",
        "SP95": "2026-06-10 09:29:43",
        "SP98": "2026-06-10 09:29:43"
      }
    },
    {
      "id": "78650002",
      "lat": 48.85,
      "lon": 1.877,
      "cp": "78650",
      "ville": "Beynes",
      "prix": {
        "Gazole": 0.002016,
        "E10": 0.00199,
        "SP98": 0.00199
      },
      "maj_gouv": {
        "Gazole": "2026-06-13 07:57:55",
        "E10": "2026-06-13 07:57:55",
        "SP98": "2026-06-13 07:57:55"
      }
    },
    {
      "id": "78124001",
      "lat": 48.8932373,
      "lon": 1.8738757000000001,
      "cp": "78124",
      "ville": "Mareil sur Mauldre",
      "prix": {
        "Gazole": 0.0019890000000000003,
        "E85": 0.000809,
        "E10": 0.001949,
        "SP98": 0.002049
      },
      "maj_gouv": {
        "Gazole": "2026-06-12 07:56:02",
        "E85": "2026-06-12 07:56:02",
        "E10": "2026-06-12 07:56:02",
        "SP98": "2026-06-12 07:56:03"
      }
    },
    {
      "id": "78470001",
      "lat": 48.716,
      "lon": 2.085,
      "cp": "78470",
      "ville": "SAINT-RéMY-LèS-CHEVREUSE",
      "prix": {
        "Gazole": 0.001977,
        "SP95": 0.001977,
        "E85": 0.0008179999999999999,
        "E10": 0.0019270000000000001,
        "SP98": 0.002027
      },
      "maj_gouv": {
        "Gazole": "2026-06-13 19:06:07",
        "SP95": "2026-06-13 19:06:07",
        "E85": "2026-06-05 14:54:02",
        "E10": "2026-06-13 19:06:07",
        "SP98": "2026-06-13 19:06:07"
      }
    },
    {
      "id": "78230006",
      "lat": 48.879081594009,
      "lon": 2.0969036115051,
      "cp": "78230",
      "ville": "Le Pecq",
      "prix": {
        "Gazole": 0.001929,
        "E10": 0.001946,
        "SP98": 0.00199
      },
      "maj_gouv": {
        "Gazole": "2026-06-15 00:01:00",
        "E10": "2026-06-15 00:01:00",
        "SP98": "2026-06-15 00:01:00"
      }
    },
    {
      "id": "78380004",
      "lat": 48.868490000799994,
      "lon": 2.13183308716,
      "cp": "78380",
      "ville": "BOUGIVAL",
      "prix": {
        "Gazole": 0.001938,
        "E85": 0.0009040000000000001,
        "E10": 0.001951,
        "SP98": 0.00199
      },
      "maj_gouv": {
        "Gazole": "2026-06-15 00:01:00",
        "E85": "2026-06-15 00:01:00",
        "E10": "2026-06-15 00:01:00",
        "SP98": "2026-06-15 00:01:00"
      }
    },
    {
      "id": "78600004",
      "lat": 48.943,
      "lon": 2.129,
      "cp": "78600",
      "ville": "Le Mesnil-le-Roi",
      "prix": {
        "Gazole": 0.0019270000000000001,
        "E85": 0.0008449999999999999
      },
      "maj_gouv": {
        "Gazole": "2026-06-15 00:01:00",
        "E85": "2026-06-15 00:01:00"
      }
    },
    {
      "id": "78980002",
      "lat": 48.923,
      "lon": 1.591,
      "cp": "78980",
      "ville": "LONGNES",
      "prix": {
        "Gazole": 0.002012,
        "E10": 0.00199
      },
      "maj_gouv": {
        "Gazole": "2026-06-13 10:23:29",
        "E10": "2026-06-13 10:23:29"
      }
    },
    {
      "id": "78540001",
      "lat": 48.976,
      "lon": 1.995,
      "cp": "78540",
      "ville": "VERNOUILLET",
      "prix": {
        "Gazole": 0.002011,
        "SP95": 0.002006,
        "E10": 0.001961
      },
      "maj_gouv": {
        "Gazole": "2026-06-14 07:28:21",
        "SP95": "2026-06-14 07:28:21",
        "E10": "2026-06-14 07:28:21"
      }
    },
    {
      "id": "78114001",
      "lat": 48.725,
      "lon": 2.083,
      "cp": "78114",
      "ville": "MAGNY-LES-HAMEAUX",
      "prix": {
        "Gazole": 0.0019790000000000003,
        "SP95": 0.002016,
        "E85": 0.000809,
        "E10": 0.001946,
        "SP98": 0.002059
      },
      "maj_gouv": {
        "Gazole": "2026-06-13 06:39:06",
        "SP95": "2026-06-15 06:08:16",
        "E85": "2026-06-15 06:08:17",
        "E10": "2026-06-15 06:08:17",
        "SP98": "2026-06-15 06:08:17"
      }
    },
    {
      "id": "78200001",
      "lat": 48.981,
      "lon": 1.689,
      "cp": "78200",
      "ville": "Buchelay",
      "prix": {
        "Gazole": 0.0019790000000000003,
        "E85": 0.000789,
        "GPLc": 0.001019,
        "E10": 0.001929,
        "SP98": 0.002029
      },
      "maj_gouv": {
        "Gazole": "2026-06-12 09:15:00",
        "E85": "2026-06-12 09:15:00",
        "GPLc": "2026-06-12 09:15:00",
        "E10": "2026-06-12 09:15:00",
        "SP98": "2026-06-12 09:15:00"
      }
    },
    {
      "id": "78360002",
      "lat": 48.90666,
      "lon": 2.11625,
      "cp": "78360",
      "ville": "MONTESSON",
      "prix": {
        "Gazole": 0.002039,
        "E10": 0.0019850000000000002,
        "SP98": 0.0021219999999999998
      },
      "maj_gouv": {
        "Gazole": "2026-06-15 07:45:51",
        "E10": "2026-06-15 07:45:51",
        "SP98": "2026-06-15 07:45:51"
      }
    },
    {
      "id": "78000008",
      "lat": 48.8,
      "lon": 2.133,
      "cp": "78000",
      "ville": "VERSAILLES",
      "prix": {
        "Gazole": 0.002043,
        "E85": 0.000889,
        "E10": 0.00199,
        "SP98": 0.00199
      },
      "maj_gouv": {
        "Gazole": "2026-06-15 07:16:02",
        "E85": "2026-06-13 11:02:50",
        "E10": "2026-06-13 11:02:50",
        "SP98": "2026-06-13 12:42:07"
      }
    },
    {
      "id": "78570005",
      "lat": 48.976091,
      "lon": 2.046134,
      "cp": "78570",
      "ville": "ANDRESY",
      "prix": {
        "Gazole": 0.0019590000000000002,
        "E10": 0.001909,
        "SP98": 0.002009
      },
      "maj_gouv": {
        "Gazole": "2026-06-09 13:17:24",
        "E10": "2026-06-09 13:17:25",
        "SP98": "2026-06-09 13:17:25"
      }
    },
    {
      "id": "78630011",
      "lat": 48.925090170131995,
      "lon": 1.9930666183828,
      "cp": "78630",
      "ville": "ORGEVAL",
      "prix": {
        "Gazole": 0.0019219999999999999,
        "GPLc": 0.000998,
        "E10": 0.001929,
        "SP98": 0.00199
      },
      "maj_gouv": {
        "Gazole": "2026-06-15 00:01:00",
        "GPLc": "2026-06-15 00:01:00",
        "E10": "2026-06-15 00:01:00",
        "SP98": "2026-06-15 00:01:00"
      }
    },
    {
      "id": "78480001",
      "lat": 48.986,
      "lon": 1.969,
      "cp": "78480",
      "ville": "Verneuil-sur-Seine",
      "prix": {
        "Gazole": 0.00204,
        "E85": 0.000864,
        "E10": 0.001931,
        "SP98": 0.0019890000000000003
      },
      "maj_gouv": {
        "Gazole": "2026-06-11 12:16:46",
        "E85": "2026-06-11 12:16:46",
        "E10": "2026-06-11 12:16:46",
        "SP98": "2026-06-11 12:16:46"
      }
    },
    {
      "id": "78410002",
      "lat": 48.96631638097001,
      "lon": 1.8667049841285,
      "cp": "78410",
      "ville": "FLINS-SUR-SEINE",
      "prix": {
        "Gazole": 0.001997,
        "SP95": 0.002019,
        "GPLc": 0.001019,
        "E10": 0.0019790000000000003,
        "SP98": 0.002125
      },
      "maj_gouv": {
        "Gazole": "2026-06-14 22:29:00",
        "SP95": "2026-06-14 22:29:00",
        "GPLc": "2026-05-29 22:49:00",
        "E10": "2026-06-14 22:29:00",
        "SP98": "2026-06-14 22:29:00"
      }
    },
    {
      "id": "78690002",
      "lat": 48.714,
      "lon": 1.926,
      "cp": "78690",
      "ville": "Les Essarts-le-Roi",
      "prix": {
        "Gazole": 0.001975
      },
      "maj_gouv": {
        "Gazole": "2026-06-12 10:38:10"
      }
    },
    {
      "id": "78680002",
      "lat": 48.979,
      "lon": 1.955,
      "cp": "78680",
      "ville": "ÉPôNE",
      "prix": {
        "Gazole": 0.002018,
        "E10": 0.00199,
        "SP98": 0.00199
      },
      "maj_gouv": {
        "Gazole": "2026-06-13 07:00:00",
        "E10": "2026-06-12 19:15:15",
        "SP98": "2026-06-12 19:15:15"
      }
    },
    {
      "id": "78180002",
      "lat": 48.798,
      "lon": 2.048,
      "cp": "78180",
      "ville": "MONTIGNY-LE-BRETONNEUX",
      "prix": {
        "Gazole": 0.002013
      },
      "maj_gouv": {
        "Gazole": "2026-06-15 07:43:19"
      }
    },
    {
      "id": "78175001",
      "lat": 48.903,
      "lon": 2.084,
      "cp": "78100",
      "ville": "SAINT-GERMAIN-EN-LAYE",
      "prix": {},
      "maj_gouv": {}
    },
    {
      "id": "78700002",
      "lat": 49.00644751,
      "lon": 2.11854078,
      "cp": "78700",
      "ville": "Conflans-Sainte-Honorine",
      "prix": {
        "Gazole": 0.001993,
        "SP95": 0.0019690000000000003,
        "SP98": 0.002039
      },
      "maj_gouv": {
        "Gazole": "2026-06-10 14:03:33",
        "SP95": "2026-06-10 14:03:33",
        "SP98": "2026-06-10 14:03:34"
      }
    },
    {
      "id": "78110002",
      "lat": 48.896,
      "lon": 2.126,
      "cp": "78110",
      "ville": "Le Vésinet",
      "prix": {
        "Gazole": 0.001974,
        "E10": 0.001965,
        "SP98": 0.002045
      },
      "maj_gouv": {
        "Gazole": "2026-06-13 07:41:00",
        "E10": "2026-06-13 07:41:00",
        "SP98": "2026-06-13 07:41:00"
      }
    },
    {
      "id": "78550006",
      "lat": 48.791,
      "lon": 1.628,
      "cp": "78550",
      "ville": "Maulette",
      "prix": {
        "Gazole": 0.00197,
        "SP95": 0.002089,
        "E85": 0.000809,
        "E10": 0.0019590000000000002,
        "SP98": 0.002099
      },
      "maj_gouv": {
        "Gazole": "2026-06-12 08:55:53",
        "SP95": "2026-06-04 08:16:39",
        "E85": "2026-06-11 09:13:43",
        "E10": "2026-06-10 08:54:37",
        "SP98": "2026-06-04 08:16:39"
      }
    },
    {
      "id": "78250005",
      "lat": 49.010748106364005,
      "lon": 1.89970605751,
      "cp": "78250",
      "ville": "HARDRICOURT",
      "prix": {
        "Gazole": 0.0019890000000000003,
        "E10": 0.001949,
        "SP98": 0.002049
      },
      "maj_gouv": {
        "Gazole": "2026-06-15 07:50:30",
        "E10": "2026-06-15 07:50:31",
        "SP98": "2026-06-15 07:50:31"
      }
    },
    {
      "id": "78610002",
      "lat": 48.684,
      "lon": 1.845,
      "cp": "78610",
      "ville": "LE PERRAY-EN-YVELINES",
      "prix": {
        "Gazole": 0.001983,
        "SP95": 0.001971,
        "E10": 0.001932,
        "SP98": 0.002068
      },
      "maj_gouv": {
        "Gazole": "2026-06-12 14:20:18",
        "SP95": "2026-06-12 14:20:18",
        "E10": "2026-06-12 14:20:18",
        "SP98": "2026-06-12 14:20:19"
      }
    },
    {
      "id": "78100002",
      "lat": 48.89957,
      "lon": 2.07564,
      "cp": "78100",
      "ville": "Saint-Germain-en-Laye",
      "prix": {
        "Gazole": 0.002025,
        "E10": 0.00199
      },
      "maj_gouv": {
        "Gazole": "2026-06-15 00:01:00",
        "E10": "2026-06-15 00:01:00"
      }
    },
    {
      "id": "78590003",
      "lat": 48.842,
      "lon": 2.068,
      "cp": "78590",
      "ville": "NOISY-LE-ROI",
      "prix": {
        "Gazole": 0.001949,
        "E85": 0.000789,
        "E10": 0.001939,
        "SP98": 0.001999
      },
      "maj_gouv": {
        "Gazole": "2026-06-13 11:15:00",
        "E85": "2026-06-13 11:15:00",
        "E10": "2026-06-13 11:15:00",
        "SP98": "2026-06-13 11:15:00"
      }
    },
    {
      "id": "78890005",
      "lat": 48.811745544633,
      "lon": 1.7636981628975,
      "cp": "78890",
      "ville": "GARANCIERES",
      "prix": {
        "Gazole": 0.001949,
        "E85": 0.000809,
        "E10": 0.0019690000000000003,
        "SP98": 0.002079
      },
      "maj_gouv": {
        "Gazole": "2026-06-11 14:47:26",
        "E85": "2026-06-11 14:47:26",
        "E10": "2026-06-11 14:47:26",
        "SP98": "2026-06-11 14:47:26"
      }
    },
    {
      "id": "78520002",
      "lat": 48.995,
      "lon": 1.729,
      "cp": "78520",
      "ville": "LIMAY",
      "prix": {
        "Gazole": 0.001999,
        "SP95": 0.002032,
        "E10": 0.001958,
        "SP98": 0.002093
      },
      "maj_gouv": {
        "Gazole": "2026-06-12 09:11:34",
        "SP95": "2026-06-12 09:11:35",
        "E10": "2026-06-12 09:11:35",
        "SP98": "2026-06-12 09:11:35"
      }
    },
    {
      "id": "78200008",
      "lat": 48.997,
      "lon": 1.711,
      "cp": "78200",
      "ville": "Mantes-la-Jolie",
      "prix": {
        "Gazole": 0.0019850000000000002,
        "SP95": 0.0019850000000000002,
        "E85": 0.000798,
        "E10": 0.001921,
        "SP98": 0.0020310000000000003
      },
      "maj_gouv": {
        "Gazole": "2026-06-13 08:25:54",
        "SP95": "2026-06-13 08:25:54",
        "E85": "2026-06-13 08:25:54",
        "E10": "2026-06-13 08:25:55",
        "SP98": "2026-06-13 08:25:55"
      }
    },
    {
      "id": "78150013",
      "lat": 48.836,
      "lon": 2.098,
      "cp": "78150",
      "ville": "ROCQUENCOURT",
      "prix": {
        "Gazole": 0.001928,
        "E85": 0.000879,
        "GPLc": 0.001009,
        "E10": 0.0019370000000000001,
        "SP98": 0.00199
      },
      "maj_gouv": {
        "Gazole": "2026-06-15 00:01:00",
        "E85": "2026-06-15 00:01:00",
        "GPLc": "2026-06-15 00:01:00",
        "E10": "2026-06-15 00:01:00",
        "SP98": "2026-06-15 00:01:00"
      }
    },
    {
      "id": "78190010",
      "lat": 48.78205422,
      "lon": 2.02329658,
      "cp": "78190",
      "ville": "TRAPPES",
      "prix": {
        "Gazole": 0.0019190000000000001,
        "E85": 0.0008489999999999999,
        "GPLc": 0.000999,
        "E10": 0.001924,
        "SP98": 0.00199
      },
      "maj_gouv": {
        "Gazole": "2026-06-15 00:01:00",
        "E85": "2026-06-15 00:01:00",
        "GPLc": "2026-06-15 00:01:00",
        "E10": "2026-06-15 00:01:00",
        "SP98": "2026-06-15 00:01:00"
      }
    },
    {
      "id": "78730001",
      "lat": 48.582,
      "lon": 1.937,
      "cp": "78730",
      "ville": "Saint-Arnoult-en-Yvelines",
      "prix": {
        "Gazole": 0.001999,
        "E10": 0.001949,
        "SP98": 0.002068
      },
      "maj_gouv": {
        "Gazole": "2026-06-10 09:11:30",
        "E10": "2026-06-10 09:11:31",
        "SP98": "2026-06-10 09:11:31"
      }
    }
  ]
}