{
  "departement": "93",
  "date": "2026-06-15",
  "stations": [
    {
      "id": "93380009",
      "lat": 48.9660970452,
      "lon": 2.36413094302,
      "cp": "93380",
      "ville": "Pierrefitte-sur-Seine",
      "prix": {
        "Gazole": 0.001935,
        "E85": 0.000839,
        "E10": 0.0019470000000000002,
        "SP98": 0.00199
      },
      "maj_gouv": {
        "Gazole": "2026-06-15 00:01:00",
        "E85": "2026-06-15 00:01:00",
        "E10": "2026-06-15 00:01:00",
        "SP98": "2026-06-15 00:01:00"
      }
    },
    {
      "id": "93150009",
      "lat": 48.935,
      "lon": 2.473,
      "cp": "93150",
      "ville": "Le Blanc-Mesnil",
      "prix": {
        "Gazole": 0.002034,
        "E85": 0.000884,
        "E10": 0.00199,
        "SP98": 0.00199
      },
      "maj_gouv": {
        "Gazole": "2026-06-15 00:01:00",
        "E85": "2026-06-15 00:01:00",
        "E10": "2026-06-15 00:01:00",
        "SP98": "2026-06-15 00:01:00"
      }
    },
    {
      "id": "93160006",
      "lat": 48.845,
      "lon": 2.528,
      "cp": "93160",
      "ville": "Noisy-le-Grand",
      "prix": {
        "Gazole": 0.002032,
        "SP95": 0.002019,
        "E10": 0.0019690000000000003,
        "SP98": 0.002049
      },
      "maj_gouv": {
        "Gazole": "2026-06-10 08:00:00",
        "SP95": "2026-06-10 08:00:00",
        "E10": "2026-06-10 08:00:00",
        "SP98": "2026-06-10 08:00:00"
      }
    },
    {
      "id": "93160004",
      "lat": 48.843,
      "lon": 2.577,
      "cp": "93160",
      "ville": "Noisy-le-Grand",
      "prix": {
        "Gazole": 0.00225,
        "E10": 0.00199,
        "SP98": 0.00207
      },
      "maj_gouv": {
        "Gazole": "2026-06-01 06:31:00",
        "E10": "2026-06-01 06:31:00",
        "SP98": "2026-06-01 06:31:00"
      }
    },
    {
      "id": "93140003",
      "lat": 48.907,
      "lon": 2.489,
      "cp": "93140",
      "ville": "Bondy",
      "prix": {
        "Gazole": 0.001982,
        "E10": 0.0019690000000000003,
        "SP98": 0.002049
      },
      "maj_gouv": {
        "Gazole": "2026-06-13 07:41:00",
        "E10": "2026-06-13 07:41:00",
        "SP98": "2026-06-13 07:41:00"
      }
    },
    {
      "id": "93160005",
      "lat": 48.851,
      "lon": 2.535,
      "cp": "93160",
      "ville": "Noisy-le-Grand",
      "prix": {
        "Gazole": 0.0019690000000000003,
        "E10": 0.001951,
        "SP98": 0.0020310000000000003
      },
      "maj_gouv": {
        "Gazole": "2026-06-15 06:31:00",
        "E10": "2026-06-15 06:31:00",
        "SP98": "2026-06-15 06:31:00"
      }
    },
    {
      "id": "93800003",
      "lat": 48.96,
      "lon": 2.304,
      "cp": "93800",
      "ville": "Épinay-sur-Seine",
      "prix": {
        "Gazole": 0.001951,
        "E10": 0.00195,
        "SP98": 0.0020299999999999997
      },
      "maj_gouv": {
        "Gazole": "2026-06-15 06:31:00",
        "E10": "2026-06-15 06:31:00",
        "SP98": "2026-06-15 06:31:00"
      }
    },
    {
      "id": "93410002",
      "lat": 48.935,
      "lon": 2.567,
      "cp": "93410",
      "ville": "Vaujours",
      "prix": {
        "Gazole": 0.0021190000000000002,
        "GPLc": 0.0012490000000000001,
        "E10": 0.001999,
        "SP98": 0.002149
      },
      "maj_gouv": {
        "Gazole": "2026-06-12 10:59:25",
        "GPLc": "2026-06-12 10:59:25",
        "E10": "2026-06-12 10:59:25",
        "SP98": "2026-06-12 10:59:25"
      }
    },
    {
      "id": "93300001",
      "lat": 48.918,
      "lon": 2.379,
      "cp": "93300",
      "ville": "Aubervilliers",
      "prix": {
        "Gazole": 0.002059,
        "E10": 0.0019790000000000003,
        "SP98": 0.002129
      },
      "maj_gouv": {
        "Gazole": "2026-06-15 06:19:11",
        "E10": "2026-06-15 06:19:11",
        "SP98": "2026-06-15 06:19:11"
      }
    },
    {
      "id": "93140002",
      "lat": 48.905736767977004,
      "lon": 2.4814502497433,
      "cp": "93140",
      "ville": "Bondy",
      "prix": {
        "Gazole": 0.0019590000000000002,
        "E10": 0.001961,
        "SP98": 0.002041
      },
      "maj_gouv": {
        "Gazole": "2026-06-15 06:31:00",
        "E10": "2026-06-15 06:31:00",
        "SP98": "2026-06-15 06:31:00"
      }
    },
    {
      "id": "93290003",
      "lat": 48.9467460327,
      "lon": 2.57048818541,
      "cp": "93290",
      "ville": "TREMBLAY-EN-FRANCE",
      "prix": {
        "Gazole": 0.001999,
        "SP95": 0.0019950000000000002,
        "E10": 0.001949
      },
      "maj_gouv": {
        "Gazole": "2026-06-12 09:03:59",
        "SP95": "2026-06-12 09:04:00",
        "E10": "2026-06-12 09:04:00"
      }
    },
    {
      "id": "93210003",
      "lat": 48.912,
      "lon": 2.358,
      "cp": "93210",
      "ville": "La plaine-saint-denis",
      "prix": {
        "Gazole": 0.0020440000000000002,
        "E10": 0.00199
      },
      "maj_gouv": {
        "Gazole": "2026-06-15 00:01:00",
        "E10": "2026-06-15 00:01:00"
      }
    },
    {
      "id": "93150012",
      "lat": 48.928,
      "lon": 2.474,
      "cp": "93150",
      "ville": "Le Blanc-Mesnil",
      "prix": {
        "Gazole": 0.002069,
        "E10": 0.002029,
        "SP98": 0.002179
      },
      "maj_gouv": {
        "Gazole": "2026-06-12 11:10:45",
        "E10": "2026-06-12 11:10:45",
        "SP98": "2026-06-12 11:10:45"
      }
    },
    {
      "id": "93110005",
      "lat": 48.878,
      "lon": 2.482,
      "cp": "93110",
      "ville": "Rosny-sous-Bois",
      "prix": {
        "Gazole": 0.0020729999999999998,
        "E85": 0.000919,
        "GPLc": 0.001039,
        "E10": 0.00199,
        "SP98": 0.00199
      },
      "maj_gouv": {
        "Gazole": "2026-06-15 00:01:00",
        "E85": "2026-06-15 00:01:00",
        "GPLc": "2026-06-15 00:01:00",
        "E10": "2026-06-15 00:01:00",
        "SP98": "2026-06-15 00:01:00"
      }
    },
    {
      "id": "93290005",
      "lat": 48.984,
      "lon": 2.55,
      "cp": "93290",
      "ville": "Tremblay-en-France",
      "prix": {
        "Gazole": 0.002048,
        "SP98": 0.00199
      },
      "maj_gouv": {
        "Gazole": "2026-06-15 06:00:00",
        "SP98": "2026-06-15 06:00:00"
      }
    },
    {
      "id": "93360002",
      "lat": 48.862,
      "lon": 2.51,
      "cp": "93360",
      "ville": "Neuilly-Plaisance",
      "prix": {
        "Gazole": 0.00218,
        "SP98": 0.00199
      },
      "maj_gouv": {
        "Gazole": "2026-06-12 08:26:21",
        "SP98": "2026-04-23 17:44:52"
      }
    },
    {
      "id": "93190006",
      "lat": 48.912,
      "lon": 2.519,
      "cp": "93190",
      "ville": "LIVRY GARGAN",
      "prix": {
        "Gazole": 0.002089,
        "GPLc": 0.0011690000000000001,
        "SP98": 0.0021190000000000002
      },
      "maj_gouv": {
        "Gazole": "2026-06-11 11:45:10",
        "GPLc": "2026-06-11 11:45:09",
        "SP98": "2026-06-11 11:45:09"
      }
    },
    {
      "id": "93300003",
      "lat": 48.919,
      "lon": 2.394,
      "cp": "93300",
      "ville": "AUBERVILLIERS",
      "prix": {
        "Gazole": 0.002139,
        "E10": 0.002019,
        "SP98": 0.002219
      },
      "maj_gouv": {
        "Gazole": "2026-06-12 11:03:43",
        "E10": "2026-06-12 11:03:44",
        "SP98": "2026-06-12 11:03:43"
      }
    },
    {
      "id": "93140004",
      "lat": 48.907,
      "lon": 2.485,
      "cp": "93140",
      "ville": "BONDY",
      "prix": {
        "Gazole": 0.002099,
        "E10": 0.001999,
        "SP98": 0.002149
      },
      "maj_gouv": {
        "Gazole": "2026-06-15 06:24:07",
        "E10": "2026-06-15 06:24:07",
        "SP98": "2026-06-15 06:24:07"
      }
    },
    {
      "id": "93800005",
      "lat": 48.954,
      "lon": 2.335,
      "cp": "93800",
      "ville": "EPINAY SUR SEINE",
      "prix": {
        "Gazole": 0.001987,
        "E85": 0.000756,
        "E10": 0.001928,
        "SP98": 0.001975
      },
      "maj_gouv": {
        "Gazole": "2026-06-15 01:15:00",
        "E85": "2026-06-15 01:15:00",
        "E10": "2026-06-15 01:15:00",
        "SP98": "2026-06-15 01:15:00"
      }
    },
    {
      "id": "93120004",
      "lat": 48.934,
      "lon": 2.39,
      "cp": "93120",
      "ville": "LA COURNEUVE",
      "prix": {
        "Gazole": 0.002028,
        "E85": 0.000969,
        "GPLc": 0.001039,
        "E10": 0.00199
      },
      "maj_gouv": {
        "Gazole": "2026-06-15 00:01:00",
        "E85": "2026-06-15 00:01:00",
        "GPLc": "2026-06-15 00:01:00",
        "E10": "2026-06-15 00:01:00"
      }
    },
    {
      "id": "93200008",
      "lat": 48.935,
      "lon": 2.368,
      "cp": "93200",
      "ville": "Saint-Denis",
      "prix": {
        "Gazole": 0.002159,
        "E85": 0.000999,
        "E10": 0.002079,
        "SP98": 0.002249
      },
      "maj_gouv": {
        "Gazole": "2026-06-15 06:24:05",
        "E85": "2026-06-15 06:24:05",
        "E10": "2026-06-15 06:24:05",
        "SP98": "2026-06-15 06:24:05"
      }
    },
    {
      "id": "93420004",
      "lat": 48.975,
      "lon": 2.496,
      "cp": "93420",
      "ville": "Villepinte",
      "prix": {
        "Gazole": 0.002009,
        "E10": 0.0019690000000000003,
        "SP98": 0.002139
      },
      "maj_gouv": {
        "Gazole": "2026-06-15 06:23:48",
        "E10": "2026-06-15 06:23:48",
        "SP98": "2026-06-15 06:23:47"
      }
    },
    {
      "id": "93600016",
      "lat": 48.951444,
      "lon": 2.48951,
      "cp": "93600",
      "ville": "Aulnay-sous-Bois",
      "prix": {
        "Gazole": 0.002059,
        "E10": 0.00199,
        "SP98": 0.00199
      },
      "maj_gouv": {
        "Gazole": "2026-06-15 00:01:00",
        "E10": "2026-06-15 00:01:00",
        "SP98": "2026-06-15 00:01:00"
      }
    },
    {
      "id": "93260007",
      "lat": 48.88021,
      "lon": 2.41759,
      "cp": "93260",
      "ville": "LES LILAS",
      "prix": {},
      "maj_gouv": {}
    },
    {
      "id": "93270006",
      "lat": 48.939,
      "lon": 2.527,
      "cp": "93270",
      "ville": "SEVRAN",
      "prix": {
        "Gazole": 0.002099,
        "E10": 0.002069,
        "SP98": 0.002219
      },
      "maj_gouv": {
        "Gazole": "2026-06-12 11:01:05",
        "E10": "2026-06-12 11:01:05",
        "SP98": "2026-06-12 11:01:05"
      }
    },
    {
      "id": "93800006",
      "lat": 48.949,
      "lon": 2.343,
      "cp": "93800",
      "ville": "Épinay-sur-Seine",
      "prix": {
        "Gazole": 0.002056,
        "E85": 0.0008539999999999999,
        "GPLc": 0.001019,
        "E10": 0.00199,
        "SP98": 0.00199
      },
      "maj_gouv": {
        "Gazole": "2026-06-15 00:01:00",
        "E85": "2026-06-15 00:01:00",
        "GPLc": "2026-06-15 00:01:00",
        "E10": "2026-06-15 00:01:00",
        "SP98": "2026-06-15 00:01:00"
      }
    },
    {
      "id": "93290006",
      "lat": 48.964,
      "lon": 2.564,
      "cp": "93290",
      "ville": "Tremblay-en-France",
      "prix": {
        "Gazole": 0.001931,
        "E85": 0.000879,
        "E10": 0.0019450000000000001,
        "SP98": 0.00199
      },
      "maj_gouv": {
        "Gazole": "2026-06-15 00:01:00",
        "E85": "2026-06-15 00:01:00",
        "E10": "2026-06-15 00:01:00",
        "SP98": "2026-06-15 00:01:00"
      }
    },
    {
      "id": "93000011",
      "lat": 48.906,
      "lon": 2.445,
      "cp": "93000",
      "ville": "BOBIGNY",
      "prix": {
        "Gazole": 0.002009,
        "E85": 0.000979,
        "E10": 0.0019890000000000003,
        "SP98": 0.002139
      },
      "maj_gouv": {
        "Gazole": "2026-06-15 06:20:29",
        "E85": "2026-06-15 06:20:29",
        "E10": "2026-06-15 06:20:29",
        "SP98": "2026-06-15 06:20:29"
      }
    },
    {
      "id": "93130011",
      "lat": 48.888,
      "lon": 2.46,
      "cp": "93130",
      "ville": "Noisy-le-Sec",
      "prix": {
        "Gazole": 0.002139,
        "E85": 0.000979,
        "E10": 0.0019890000000000003,
        "SP98": 0.002139
      },
      "maj_gouv": {
        "Gazole": "2026-06-12 11:11:03",
        "E85": "2026-06-12 11:11:04",
        "E10": "2026-06-12 11:11:03",
        "SP98": "2026-06-12 11:11:03"
      }
    },
    {
      "id": "93190004",
      "lat": 48.914,
      "lon": 2.526,
      "cp": "93190",
      "ville": "LIVRY-GARGAN",
      "prix": {
        "Gazole": 0.002109,
        "E85": 0.000969,
        "E10": 0.0019890000000000003,
        "SP98": 0.002159
      },
      "maj_gouv": {
        "Gazole": "2026-06-15 06:22:06",
        "E85": "2026-06-15 06:22:07",
        "E10": "2026-06-15 06:22:06",
        "SP98": "2026-06-15 06:22:07"
      }
    },
    {
      "id": "93130007",
      "lat": 48.88,
      "lon": 2.457,
      "cp": "93130",
      "ville": "Noisy-le-Sec",
      "prix": {
        "Gazole": 0.002089,
        "SP95": 0.001849,
        "GPLc": 0.001349,
        "E10": 0.002039,
        "SP98": 0.002189
      },
      "maj_gouv": {
        "Gazole": "2026-06-15 06:27:03",
        "SP95": "2025-07-28 16:12:00",
        "GPLc": "2026-06-15 06:27:04",
        "E10": "2026-06-15 06:27:03",
        "SP98": "2026-06-15 06:27:03"
      }
    },
    {
      "id": "93600018",
      "lat": 48.953,
      "lon": 2.486,
      "cp": "93600",
      "ville": "Aulnay-sous-Bois",
      "prix": {
        "Gazole": 0.002109,
        "GPLc": 0.0011690000000000001,
        "E10": 0.0019890000000000003,
        "SP98": 0.002189
      },
      "maj_gouv": {
        "Gazole": "2026-06-15 06:22:25",
        "GPLc": "2026-06-15 06:22:25",
        "E10": "2026-06-15 06:22:25",
        "SP98": "2026-06-15 06:22:25"
      }
    },
    {
      "id": "93270008",
      "lat": 48.936,
      "lon": 2.515,
      "cp": "93270",
      "ville": "SEVRAN",
      "prix": {
        "Gazole": 0.002159,
        "SP95": 0.002099,
        "E10": 0.002099,
        "SP98": 0.002229
      },
      "maj_gouv": {
        "Gazole": "2026-06-02 20:01:05",
        "SP95": "2026-06-02 20:01:05",
        "E10": "2026-06-02 20:01:06",
        "SP98": "2026-06-02 20:01:06"
      }
    },
    {
      "id": "93500008",
      "lat": 48.9,
      "lon": 2.411,
      "cp": "93500",
      "ville": "PANTIN",
      "prix": {
        "Gazole": 0.001943,
        "E10": 0.001953,
        "SP98": 0.00199
      },
      "maj_gouv": {
        "Gazole": "2026-06-15 00:01:00",
        "E10": "2026-06-15 00:01:00",
        "SP98": "2026-06-15 00:01:00"
      }
    },
    {
      "id": "93390001",
      "lat": 48.907,
      "lon": 2.532,
      "cp": "93390",
      "ville": "CLICHY-SOUS-BOIS",
      "prix": {
        "Gazole": 0.001958,
        "SP95": 0.001976,
        "E10": 0.0019190000000000001,
        "SP98": 0.001986
      },
      "maj_gouv": {
        "Gazole": "2026-06-15 01:15:00",
        "SP95": "2026-06-15 01:15:00",
        "E10": "2026-06-15 01:15:00",
        "SP98": "2026-06-15 01:15:00"
      }
    },
    {
      "id": "93420008",
      "lat": 48.957,
      "lon": 2.56,
      "cp": "93420",
      "ville": "VILLEPINTE",
      "prix": {
        "Gazole": 0.001999,
        "GPLc": 0.0011790000000000001,
        "E10": 0.0019690000000000003,
        "SP98": 0.0021190000000000002
      },
      "maj_gouv": {
        "Gazole": "2026-06-15 06:25:07",
        "GPLc": "2026-06-15 06:25:07",
        "E10": "2026-06-15 06:25:07",
        "SP98": "2026-06-15 06:25:07"
      }
    },
    {
      "id": "93160008",
      "lat": 48.838125330120995,
      "lon": 2.547563329687,
      "cp": "93160",
      "ville": "Noisy-le-Grand",
      "prix": {
        "Gazole": 0.002062,
        "E85": 0.000884
      },
      "maj_gouv": {
        "Gazole": "2026-06-15 00:01:00",
        "E85": "2026-06-15 00:01:00"
      }
    },
    {
      "id": "93320002",
      "lat": 48.91,
      "lon": 2.51,
      "cp": "93320",
      "ville": "Les Pavillons-sous-Bois",
      "prix": {
        "Gazole": 0.002059,
        "E85": 0.000879,
        "E10": 0.00199,
        "SP98": 0.00199
      },
      "maj_gouv": {
        "Gazole": "2026-06-15 00:01:00",
        "E85": "2026-06-15 00:01:00",
        "E10": "2026-06-15 00:01:00",
        "SP98": "2026-06-15 00:01:00"
      }
    },
    {
      "id": "93170002",
      "lat": 48.86205,
      "lon": 2.4165,
      "cp": "93170",
      "ville": "BAGNOLET",
      "prix": {
        "Gazole": 0.00207,
        "E10": 0.00199,
        "SP98": 0.00199
      },
      "maj_gouv": {
        "Gazole": "2026-06-15 00:01:00",
        "E10": "2026-06-15 00:01:00",
        "SP98": "2026-06-15 00:01:00"
      }
    },
    {
      "id": "93350003",
      "lat": 48.942,
      "lon": 2.432,
      "cp": "93350",
      "ville": "LE BOURGET",
      "prix": {
        "Gazole": 0.001923,
        "E85": 0.0008990000000000001,
        "E10": 0.001938,
        "SP98": 0.00199
      },
      "maj_gouv": {
        "Gazole": "2026-06-15 00:01:00",
        "E85": "2026-06-15 00:01:00",
        "E10": "2026-06-15 00:01:00",
        "SP98": "2026-06-15 00:01:00"
      }
    },
    {
      "id": "93380010",
      "lat": 48.973,
      "lon": 2.366,
      "cp": "93380",
      "ville": "Pierrefitte-sur-Seine",
      "prix": {
        "Gazole": 0.0019299999999999999,
        "E85": 0.000839,
        "GPLc": 0.001014,
        "E10": 0.001942,
        "SP98": 0.00199
      },
      "maj_gouv": {
        "Gazole": "2026-06-15 00:01:00",
        "E85": "2026-06-15 00:01:00",
        "GPLc": "2026-06-15 00:01:00",
        "E10": "2026-06-15 00:01:00",
        "SP98": "2026-06-15 00:01:00"
      }
    },
    {
      "id": "93400010",
      "lat": 48.908,
      "lon": 2.344,
      "cp": "93400",
      "ville": "Saint-Ouen",
      "prix": {
        "Gazole": 0.002042,
        "E10": 0.00199
      },
      "maj_gouv": {
        "Gazole": "2026-06-15 00:01:00",
        "E10": "2026-06-15 00:01:00"
      }
    },
    {
      "id": "93100015",
      "lat": 48.857,
      "lon": 2.43,
      "cp": "93100",
      "ville": "MONTREUIL",
      "prix": {
        "Gazole": 0.002047,
        "E85": 0.000919,
        "E10": 0.00199,
        "SP98": 0.00199
      },
      "maj_gouv": {
        "Gazole": "2026-06-15 00:01:00",
        "E85": "2026-06-15 00:01:00",
        "E10": "2026-06-15 00:01:00",
        "SP98": "2026-06-15 00:01:00"
      }
    },
    {
      "id": "93160001",
      "lat": 48.83,
      "lon": 2.561,
      "cp": "93160",
      "ville": "Noisy-le-Grand",
      "prix": {
        "Gazole": 0.002065,
        "E10": 0.00199,
        "SP98": 0.00199
      },
      "maj_gouv": {
        "Gazole": "2026-06-15 08:02:54",
        "E10": "2026-06-15 08:02:55",
        "SP98": "2026-06-15 08:02:55"
      }
    },
    {
      "id": "93000010",
      "lat": 48.914,
      "lon": 2.441,
      "cp": "93000",
      "ville": "BOBIGNY",
      "prix": {
        "Gazole": 0.0019399999999999999,
        "E10": 0.001954,
        "SP98": 0.00199
      },
      "maj_gouv": {
        "Gazole": "2026-06-15 00:01:00",
        "E10": "2026-06-15 00:01:00",
        "SP98": "2026-06-15 00:01:00"
      }
    },
    {
      "id": "93250009",
      "lat": 48.885,
      "lon": 2.505,
      "cp": "93250",
      "ville": "VILLEMOMBLE",
      "prix": {
        "Gazole": 0.002199,
        "E85": 0.000999,
        "E10": 0.002059,
        "SP98": 0.002229
      },
      "maj_gouv": {
        "Gazole": "2026-06-15 06:23:34",
        "E85": "2026-06-15 06:23:35",
        "E10": "2026-06-15 06:23:35",
        "SP98": "2026-06-15 06:23:34"
      }
    },
    {
      "id": "93300010",
      "lat": 48.912,
      "lon": 2.38,
      "cp": "93300",
      "ville": "Aubervilliers",
      "prix": {
        "Gazole": 0.002129,
        "E10": 0.002019,
        "SP98": 0.002219
      },
      "maj_gouv": {
        "Gazole": "2026-06-12 17:22:03",
        "E10": "2026-06-12 17:22:03",
        "SP98": "2026-06-12 17:22:03"
      }
    },
    {
      "id": "93330005",
      "lat": 48.85427,
      "lon": 2.52019,
      "cp": "93330",
      "ville": "Neuilly-sur-Marne",
      "prix": {
        "Gazole": 0.0020459999999999996,
        "E85": 0.0008990000000000001,
        "E10": 0.00199
      },
      "maj_gouv": {
        "Gazole": "2026-06-15 00:01:00",
        "E85": "2026-06-15 00:01:00",
        "E10": "2026-06-15 00:01:00"
      }
    },
    {
      "id": "93330004",
      "lat": 48.865836168664,
      "lon": 2.56269534165,
      "cp": "93330",
      "ville": "Neuilly-sur-Marne",
      "prix": {
        "Gazole": 0.0019370000000000001,
        "SP95": 0.00199,
        "E10": 0.001915,
        "SP98": 0.00199
      },
      "maj_gouv": {
        "Gazole": "2026-06-14 07:53:50",
        "SP95": "2026-06-10 16:10:57",
        "E10": "2026-06-14 07:53:51",
        "SP98": "2026-06-10 16:10:57"
      }
    },
    {
      "id": "93420007",
      "lat": 48.953965389285,
      "lon": 2.533686306402,
      "cp": "93420",
      "ville": "VILLEPINTE",
      "prix": {
        "Gazole": 0.001936,
        "GPLc": 0.001014,
        "E10": 0.0019479999999999999,
        "SP98": 0.00199
      },
      "maj_gouv": {
        "Gazole": "2026-06-15 00:01:00",
        "GPLc": "2026-06-15 00:01:00",
        "E10": "2026-06-15 00:01:00",
        "SP98": "2026-06-15 00:01:00"
      }
    },
    {
      "id": "93700004",
      "lat": 48.91625,
      "lon": 2.44355,
      "cp": "93700",
      "ville": "DRANCY",
      "prix": {
        "Gazole": 0.002053,
        "E85": 0.0008990000000000001,
        "SP98": 0.00199
      },
      "maj_gouv": {
        "Gazole": "2026-06-15 00:01:00",
        "E85": "2026-06-15 00:01:00",
        "SP98": "2026-06-15 00:01:00"
      }
    },
    {
      "id": "93300009",
      "lat": 48.909,
      "lon": 2.386,
      "cp": "93300",
      "ville": "AUBERVILLIERS",
      "prix": {
        "Gazole": 0.0020710000000000004,
        "E85": 0.0009040000000000001,
        "E10": 0.00199
      },
      "maj_gouv": {
        "Gazole": "2026-06-15 00:01:00",
        "E85": "2026-06-15 00:01:00",
        "E10": "2026-06-15 00:01:00"
      }
    },
    {
      "id": "93100017",
      "lat": 48.863,
      "lon": 2.464,
      "cp": "93100",
      "ville": "MONTREUIL",
      "prix": {
        "Gazole": 0.002019,
        "E10": 0.0019790000000000003,
        "SP98": 0.002129
      },
      "maj_gouv": {
        "Gazole": "2026-06-12 11:11:25",
        "E10": "2026-06-12 11:11:25",
        "SP98": "2026-06-12 11:11:24"
      }
    },
    {
      "id": "93240007",
      "lat": 48.9487499536,
      "lon": 2.3798807028,
      "cp": "93240",
      "ville": "STAINS",
      "prix": {
        "Gazole": 0.002036,
        "E10": 0.00199,
        "SP98": 0.00199
      },
      "maj_gouv": {
        "Gazole": "2026-06-15 00:01:00",
        "E10": "2026-06-15 00:01:00",
        "SP98": "2026-06-15 00:01:00"
      }
    },
    {
      "id": "93270001",
      "lat": 48.951,
      "lon": 2.528,
      "cp": "93270",
      "ville": "Sevran",
      "prix": {
        "Gazole": 0.001986,
        "SP95": 0.002002,
        "E10": 0.001939,
        "SP98": 0.00207
      },
      "maj_gouv": {
        "Gazole": "2026-06-12 22:46:00",
        "SP95": "2026-06-12 22:46:00",
        "E10": "2026-06-12 22:46:00",
        "SP98": "2026-06-12 22:46:00"
      }
    },
    {
      "id": "93300008",
      "lat": 48.91,
      "lon": 2.38,
      "cp": "93300",
      "ville": "AUBERVILLIERS",
      "prix": {
        "Gazole": 0.002024,
        "SP95": 0.002024,
        "E10": 0.001967,
        "SP98": 0.002113
      },
      "maj_gouv": {
        "Gazole": "2026-06-12 11:23:52",
        "SP95": "2026-06-12 11:23:52",
        "E10": "2026-06-12 11:23:52",
        "SP98": "2026-06-12 11:23:52"
      }
    },
    {
      "id": "93700003",
      "lat": 48.918,
      "lon": 2.418,
      "cp": "93700",
      "ville": "DRANCY",
      "prix": {
        "Gazole": 0.002022,
        "SP95": 0.002036,
        "E85": 0.0009170000000000001,
        "GPLc": 0.000923,
        "E10": 0.0019790000000000003,
        "SP98": 0.002125
      },
      "maj_gouv": {
        "Gazole": "2026-06-14 22:29:00",
        "SP95": "2026-06-14 22:29:00",
        "E85": "2026-06-14 22:29:00",
        "GPLc": "2026-06-14 22:29:00",
        "E10": "2026-06-14 22:29:00",
        "SP98": "2026-06-14 22:29:00"
      }
    },
    {
      "id": "93190002",
      "lat": 48.9055105953,
      "lon": 2.52200168155,
      "cp": "93190",
      "ville": "LIVRY-GARGAN",
      "prix": {
        "Gazole": 0.002059,
        "SP95": 0.002029,
        "E10": 0.0019890000000000003
      },
      "maj_gouv": {
        "Gazole": "2026-06-09 09:49:22",
        "SP95": "2026-06-09 09:49:22",
        "E10": "2026-06-09 09:49:23"
      }
    },
    {
      "id": "93130009",
      "lat": 48.888,
      "lon": 2.455,
      "cp": "93130",
      "ville": "Noisy-le-Sec",
      "prix": {
        "Gazole": 0.001943,
        "E10": 0.001955,
        "SP98": 0.00199
      },
      "maj_gouv": {
        "Gazole": "2026-06-15 00:01:00",
        "E10": "2026-06-15 00:01:00",
        "SP98": "2026-06-15 00:01:00"
      }
    },
    {
      "id": "93150011",
      "lat": 48.940912442423006,
      "lon": 2.4458337339048,
      "cp": "93150",
      "ville": "Le Blanc-Mesnil",
      "prix": {
        "Gazole": 0.0019890000000000003,
        "SP95": 0.002011,
        "E10": 0.001961,
        "SP98": 0.002042
      },
      "maj_gouv": {
        "Gazole": "2026-06-12 09:52:31",
        "SP95": "2026-06-12 09:52:31",
        "E10": "2026-06-12 09:52:31",
        "SP98": "2026-06-12 09:52:31"
      }
    },
    {
      "id": "93420001",
      "lat": 48.96009900000001,
      "lon": 2.553483,
      "cp": "93420",
      "ville": "VILLEPINTE",
      "prix": {
        "Gazole": 0.0020139999999999997,
        "E85": 0.000879,
        "E10": 0.001929,
        "SP98": 0.00207
      },
      "maj_gouv": {
        "Gazole": "2026-06-12 09:05:00",
        "E85": "2026-06-12 08:49:54",
        "E10": "2026-06-12 09:05:00",
        "SP98": "2026-06-12 09:05:00"
      }
    },
    {
      "id": "93600006",
      "lat": 48.93022,
      "lon": 2.51132,
      "cp": "93600",
      "ville": "Aulnay-sous-Bois",
      "prix": {
        "Gazole": 0.001999,
        "E85": 0.000798,
        "E10": 0.001949,
        "SP98": 0.002069
      },
      "maj_gouv": {
        "Gazole": "2026-06-09 08:57:04",
        "E85": "2026-05-19 09:10:16",
        "E10": "2026-06-04 09:19:18",
        "SP98": "2026-06-08 09:12:50"
      }
    },
    {
      "id": "93190001",
      "lat": 48.929,
      "lon": 2.555,
      "cp": "93190",
      "ville": "LIVRY-GARGAN",
      "prix": {
        "Gazole": 0.001967,
        "E85": 0.000798,
        "GPLc": 0.000999,
        "E10": 0.001929,
        "SP98": 0.0020440000000000002
      },
      "maj_gouv": {
        "Gazole": "2026-06-12 10:45:48",
        "E85": "2026-06-10 11:39:08",
        "GPLc": "2026-06-10 11:39:08",
        "E10": "2026-06-12 10:45:48",
        "SP98": "2026-06-12 10:45:48"
      }
    },
    {
      "id": "93190007",
      "lat": 48.928,
      "lon": 2.549,
      "cp": "93190",
      "ville": "Livry-Gargan",
      "prix": {
        "Gazole": 0.0019890000000000003,
        "E85": 0.000809,
        "E10": 0.001939,
        "SP98": 0.002039
      },
      "maj_gouv": {
        "Gazole": "2026-06-10 09:49:44",
        "E85": "2026-06-12 08:10:59",
        "E10": "2026-06-12 08:10:59",
        "SP98": "2026-06-10 09:49:44"
      }
    },
    {
      "id": "93160009",
      "lat": 48.829,
      "lon": 2.569,
      "cp": "93160",
      "ville": "Noisy-le-Grand",
      "prix": {
        "Gazole": 0.002061,
        "E85": 0.000884,
        "E10": 0.00199,
        "SP98": 0.00199
      },
      "maj_gouv": {
        "Gazole": "2026-06-15 00:01:00",
        "E85": "2026-06-15 00:01:00",
        "E10": "2026-06-15 00:01:00",
        "SP98": "2026-06-15 00:01:00"
      }
    },
    {
      "id": "93606001",
      "lat": 48.955,
      "lon": 2.476,
      "cp": "93600",
      "ville": "Aulnay-sous-Bois",
      "prix": {
        "Gazole": 0.001988,
        "SP95": 0.001975,
        "E85": 0.00083,
        "GPLc": 0.00098,
        "E10": 0.001938,
        "SP98": 0.00204
      },
      "maj_gouv": {
        "Gazole": "2026-06-12 15:10:59",
        "SP95": "2026-06-11 14:16:57",
        "E85": "2026-06-12 15:10:59",
        "GPLc": "2026-06-09 15:09:46",
        "E10": "2026-06-12 15:10:59",
        "SP98": "2026-06-12 15:10:59"
      }
    },
    {
      "id": "93150008",
      "lat": 48.948,
      "lon": 2.467,
      "cp": "93150",
      "ville": "LE BLANC-MESNIL",
      "prix": {
        "Gazole": 0.0019890000000000003,
        "SP95": 0.002011,
        "E10": 0.001961,
        "SP98": 0.002042
      },
      "maj_gouv": {
        "Gazole": "2026-06-12 09:53:06",
        "SP95": "2026-06-12 09:53:06",
        "E10": "2026-06-12 09:53:06",
        "SP98": "2026-06-12 09:53:07"
      }
    },
    {
      "id": "93240001",
      "lat": 48.949,
      "lon": 2.385,
      "cp": "93240",
      "ville": "STAINS",
      "prix": {
        "Gazole": 0.001949,
        "SP95": 0.001977,
        "E85": 0.000839,
        "E10": 0.0019479999999999999,
        "SP98": 0.002033
      },
      "maj_gouv": {
        "Gazole": "2026-06-15 08:08:52",
        "SP95": "2026-06-15 08:08:52",
        "E85": "2026-06-15 08:08:52",
        "E10": "2026-06-15 08:08:52",
        "SP98": "2026-06-15 08:08:52"
      }
    },
    {
      "id": "93150007",
      "lat": 48.948,
      "lon": 2.438,
      "cp": "93150",
      "ville": "Le Blanc-Mesnil",
      "prix": {
        "Gazole": 0.001943,
        "E85": 0.000924,
        "E10": 0.00195,
        "SP98": 0.002012
      },
      "maj_gouv": {
        "Gazole": "2026-06-15 06:31:00",
        "E85": "2026-06-15 06:31:00",
        "E10": "2026-06-15 06:31:00",
        "SP98": "2026-06-15 06:31:00"
      }
    },
    {
      "id": "93100011",
      "lat": 48.869,
      "lon": 2.448,
      "cp": "93100",
      "ville": "Montreuil",
      "prix": {
        "Gazole": 0.002019,
        "E10": 0.0019790000000000003,
        "SP98": 0.002129
      },
      "maj_gouv": {
        "Gazole": "2026-06-12 11:10:05",
        "E10": "2026-06-12 11:10:05",
        "SP98": "2026-06-12 11:10:05"
      }
    },
    {
      "id": "93240009",
      "lat": 48.959,
      "lon": 2.398,
      "cp": "93240",
      "ville": "Stains",
      "prix": {
        "Gazole": 0.002099,
        "E10": 0.00199,
        "SP98": 0.002139
      },
      "maj_gouv": {
        "Gazole": "2026-06-13 11:41:38",
        "E10": "2026-06-13 11:41:38",
        "SP98": "2026-06-13 11:41:38"
      }
    },
    {
      "id": "93120005",
      "lat": 48.935,
      "lon": 2.394,
      "cp": "93120",
      "ville": "LA COURNEUVE",
      "prix": {
        "Gazole": 0.0019119999999999999,
        "E85": 0.000958,
        "E10": 0.001929,
        "SP98": 0.00199
      },
      "maj_gouv": {
        "Gazole": "2026-06-15 00:01:00",
        "E85": "2026-06-15 00:01:00",
        "E10": "2026-06-15 00:01:00",
        "SP98": "2026-06-15 00:01:00"
      }
    },
    {
      "id": "93330006",
      "lat": 48.855,
      "lon": 2.525,
      "cp": "93330",
      "ville": "Neuilly-sur-Marne",
      "prix": {
        "Gazole": 0.0019370000000000001
      },
      "maj_gouv": {
        "Gazole": "2026-06-15 00:01:00"
      }
    },
    {
      "id": "93600019",
      "lat": 48.94482,
      "lon": 2.49526,
      "cp": "93600",
      "ville": "Aulnay-sous-Bois",
      "prix": {
        "Gazole": 0.002069,
        "E10": 0.001999,
        "SP98": 0.002099
      },
      "maj_gouv": {
        "Gazole": "2026-06-15 06:28:23",
        "E10": "2026-06-15 06:28:23",
        "SP98": "2026-06-15 06:28:23"
      }
    },
    {
      "id": "93240008",
      "lat": 48.95763,
      "lon": 2.38253,
      "cp": "93240",
      "ville": "STAINS",
      "prix": {
        "Gazole": 0.001939,
        "E10": 0.0019479999999999999,
        "SP98": 0.00199
      },
      "maj_gouv": {
        "Gazole": "2026-06-15 00:01:00",
        "E10": "2026-06-15 00:01:00",
        "SP98": "2026-06-15 00:01:00"
      }
    },
    {
      "id": "93230005",
      "lat": 48.884,
      "lon": 2.43,
      "cp": "93230",
      "ville": "ROMAINVILLE",
      "prix": {
        "Gazole": 0.002045,
        "E10": 0.00199,
        "SP98": 0.00199
      },
      "maj_gouv": {
        "Gazole": "2026-06-15 00:01:00",
        "E10": "2026-06-15 00:01:00",
        "SP98": "2026-06-15 00:01:00"
      }
    },
    {
      "id": "93130006",
      "lat": 48.902,
      "lon": 2.462,
      "cp": "93130",
      "ville": "NOISY-LE-SEC",
      "prix": {},
      "maj_gouv": {}
    },
    {
      "id": "93600020",
      "lat": 48.924,
      "lon": 2.486,
      "cp": "93600",
      "ville": "Aulnay-sous-Bois",
      "prix": {
        "Gazole": 0.00219,
        "E10": 0.00215,
        "SP98": 0.00219
      },
      "maj_gouv": {
        "Gazole": "2026-06-02 17:34:18",
        "E10": "2026-06-02 17:34:18",
        "SP98": "2026-06-02 17:34:18"
      }
    },
    {
      "id": "93370001",
      "lat": 48.899,
      "lon": 2.549,
      "cp": "93370",
      "ville": "MONTFERMEIL",
      "prix": {
        "Gazole": 0.001964,
        "SP95": 0.001977,
        "E10": 0.001928,
        "SP98": 0.001987
      },
      "maj_gouv": {
        "Gazole": "2026-06-11 10:44:48",
        "SP95": "2026-06-11 10:44:48",
        "E10": "2026-06-11 10:44:48",
        "SP98": "2026-06-11 10:44:48"
      }
    },
    {
      "id": "93100014",
      "lat": 48.86885,
      "lon": 2.47055,
      "cp": "93100",
      "ville": "MONTREUIL",
      "prix": {
        "Gazole": 0.001942,
        "E85": 0.000894,
        "E10": 0.001949,
        "SP98": 0.00199
      },
      "maj_gouv": {
        "Gazole": "2026-06-15 00:01:00",
        "E85": "2026-06-15 00:01:00",
        "E10": "2026-06-15 00:01:00",
        "SP98": "2026-06-15 00:01:00"
      }
    },
    {
      "id": "93470002",
      "lat": 48.915,
      "lon": 2.589,
      "cp": "93470",
      "ville": "COUBRON",
      "prix": {
        "Gazole": 0.0019790000000000003,
        "E85": 0.000809,
        "E10": 0.001949,
        "SP98": 0.002049
      },
      "maj_gouv": {
        "Gazole": "2026-06-12 11:24:31",
        "E85": "2026-06-13 08:13:27",
        "E10": "2026-06-12 11:24:32",
        "SP98": "2026-06-06 11:33:04"
      }
    }
  ]
}