{
  "departement": "10",
  "date": "2026-05-08",
  "stations": [
    {
      "id": "10110001",
      "lat": 48.106,
      "lon": 4.377,
      "cp": "10110",
      "ville": "Bar-sur-Seine",
      "prix": {
        "Gazole": 0.0022429999999999998,
        "E85": 0.0009130000000000001,
        "E10": 0.0020670000000000003,
        "SP98": 0.0021720000000000003
      },
      "maj_gouv": {
        "Gazole": "2026-05-06 11:25:00",
        "E85": "2026-05-06 11:25:00",
        "E10": "2026-05-06 11:25:00",
        "SP98": "2026-05-06 11:25:00"
      }
    },
    {
      "id": "10340001",
      "lat": 47.99651,
      "lon": 4.36718,
      "cp": "10340",
      "ville": "Les Riceys",
      "prix": {
        "Gazole": 0.0022890000000000002,
        "SP95": 0.002169,
        "SP98": 0.002199
      },
      "maj_gouv": {
        "Gazole": "2026-04-22 18:11:00",
        "SP95": "2026-04-14 17:53:04",
        "SP98": "2026-04-14 17:53:04"
      }
    },
    {
      "id": "10360001",
      "lat": 48.0606395,
      "lon": 4.5380332,
      "cp": "10360",
      "ville": "essoyes",
      "prix": {
        "Gazole": 0.0022890000000000002,
        "SP95": 0.002169,
        "SP98": 0.002199
      },
      "maj_gouv": {
        "Gazole": "2026-04-23 10:22:09",
        "SP95": "2026-04-23 10:22:09",
        "SP98": "2026-04-23 10:22:09"
      }
    },
    {
      "id": "10500002",
      "lat": 48.399,
      "lon": 4.518,
      "cp": "10500",
      "ville": "Brienne-le-Château",
      "prix": {
        "Gazole": 0.002232,
        "E85": 0.000819,
        "E10": 0.002079,
        "SP98": 0.00219
      },
      "maj_gouv": {
        "Gazole": "2026-05-07 08:38:08",
        "E85": "2026-04-16 09:00:00",
        "E10": "2026-05-07 08:38:08",
        "SP98": "2026-05-07 08:38:09"
      }
    },
    {
      "id": "10000006",
      "lat": 48.289,
      "lon": 4.076,
      "cp": "10000",
      "ville": "TROYES",
      "prix": {
        "Gazole": 0.0024460000000000003,
        "E10": 0.002012,
        "SP98": 0.0021379999999999997
      },
      "maj_gouv": {
        "Gazole": "2026-04-22 15:47:28",
        "E10": "2026-04-22 15:47:28",
        "SP98": "2026-04-22 15:47:28"
      }
    },
    {
      "id": "10700002",
      "lat": 48.534,
      "lon": 4.156,
      "cp": "10700",
      "ville": "ARCIS-SUR-AUBE",
      "prix": {
        "Gazole": 0.002199,
        "E85": 0.000889,
        "E10": 0.002019,
        "SP98": 0.002169
      },
      "maj_gouv": {
        "Gazole": "2026-05-07 09:20:06",
        "E85": "2026-04-28 07:56:42",
        "E10": "2026-05-07 09:20:06",
        "SP98": "2026-05-07 09:20:06"
      }
    },
    {
      "id": "10200002",
      "lat": 48.238,
      "lon": 4.701,
      "cp": "10200",
      "ville": "Bar-sur-Aube",
      "prix": {
        "Gazole": 0.002219,
        "SP95": 0.002139,
        "E85": 0.000799,
        "E10": 0.002099
      },
      "maj_gouv": {
        "Gazole": "2026-05-07 08:30:00",
        "SP95": "2026-05-04 08:30:00",
        "E85": "2026-05-04 08:30:00",
        "E10": "2026-05-05 09:19:24"
      }
    },
    {
      "id": "10160001",
      "lat": 48.216,
      "lon": 3.741,
      "cp": "10160",
      "ville": "AIX-EN-OTHE",
      "prix": {
        "Gazole": 0.002199,
        "E10": 0.002019,
        "SP98": 0.002129
      },
      "maj_gouv": {
        "Gazole": "2026-05-05 08:43:27",
        "E10": "2026-05-05 08:43:27",
        "SP98": "2026-05-05 08:43:27"
      }
    },
    {
      "id": "10400003",
      "lat": 48.48593,
      "lon": 3.49118,
      "cp": "10400",
      "ville": "Nogent-sur-Seine",
      "prix": {
        "Gazole": 0.0021939999999999998,
        "SP95": 0.002063,
        "E10": 0.002009,
        "SP98": 0.00206
      },
      "maj_gouv": {
        "Gazole": "2026-05-04 10:06:53",
        "SP95": "2026-05-04 10:06:53",
        "E10": "2026-05-04 10:06:53",
        "SP98": "2026-04-30 08:10:56"
      }
    },
    {
      "id": "10190001",
      "lat": 48.274,
      "lon": 3.804,
      "cp": "10190",
      "ville": "ESTISSAC",
      "prix": {
        "Gazole": 0.0022890000000000002,
        "SP95": 0.002099
      },
      "maj_gouv": {
        "Gazole": "2026-04-23 00:00:00",
        "SP95": "2026-04-15 00:00:00"
      }
    },
    {
      "id": "10800006",
      "lat": 48.237,
      "lon": 4.109,
      "cp": "10800",
      "ville": "Buchères",
      "prix": {
        "Gazole": 0.002219,
        "E10": 0.002079,
        "SP98": 0.002149
      },
      "maj_gouv": {
        "Gazole": "2026-05-06 10:32:03",
        "E10": "2026-05-05 10:41:36",
        "SP98": "2026-05-07 10:03:30"
      }
    },
    {
      "id": "10230001",
      "lat": 48.668,
      "lon": 4.192,
      "cp": "10230",
      "ville": "MAILLY-LE-CAMP",
      "prix": {
        "Gazole": 0.0022890000000000002,
        "SP95": 0.002099,
        "SP98": 0.002199
      },
      "maj_gouv": {
        "Gazole": "2026-04-23 00:00:00",
        "SP95": "2026-04-15 00:00:00",
        "SP98": "2026-04-15 00:00:00"
      }
    },
    {
      "id": "10170001",
      "lat": 48.50802136869999,
      "lon": 3.87881675396,
      "cp": "10170",
      "ville": "MERY-SUR-SEINE",
      "prix": {
        "Gazole": 0.0022589999999999997,
        "E85": 0.0008179999999999999,
        "E10": 0.002074,
        "SP98": 0.0021869999999999997
      },
      "maj_gouv": {
        "Gazole": "2026-05-04 08:49:58",
        "E85": "2026-04-24 10:37:43",
        "E10": "2026-05-04 08:49:58",
        "SP98": "2026-05-04 08:49:58"
      }
    },
    {
      "id": "10600002",
      "lat": 48.305,
      "lon": 4.027,
      "cp": "10300",
      "ville": "Sainte-Savine",
      "prix": {
        "Gazole": 0.002219,
        "SP95": 0.002139,
        "GPLc": 0.000989,
        "E10": 0.002089,
        "SP98": 0.002229
      },
      "maj_gouv": {
        "Gazole": "2026-05-07 10:14:31",
        "SP95": "2026-05-07 10:14:31",
        "GPLc": "2026-05-07 10:14:31",
        "E10": "2026-05-07 10:14:32",
        "SP98": "2026-05-07 10:14:32"
      }
    },
    {
      "id": "10140001",
      "lat": 48.237,
      "lon": 4.467,
      "cp": "10140",
      "ville": "VENDEUVRE-SUR-BARSE",
      "prix": {
        "Gazole": 0.0022890000000000002,
        "SP95": 0.002099
      },
      "maj_gouv": {
        "Gazole": "2026-04-23 00:00:00",
        "SP95": "2026-04-15 00:00:00"
      }
    },
    {
      "id": "10500001",
      "lat": 48.428,
      "lon": 4.421,
      "cp": "10500",
      "ville": "LESMONT",
      "prix": {
        "Gazole": 0.002202,
        "E10": 0.00199,
        "SP98": 0.00199
      },
      "maj_gouv": {
        "Gazole": "2026-05-07 09:36:38",
        "E10": "2026-04-23 08:05:25",
        "SP98": "2026-05-07 09:56:26"
      }
    },
    {
      "id": "10210001",
      "lat": 48.066,
      "lon": 4.141,
      "cp": "10210",
      "ville": "CHAOURCE",
      "prix": {
        "Gazole": 0.0022389999999999997,
        "SP95": 0.002099,
        "SP98": 0.002139
      },
      "maj_gouv": {
        "Gazole": "2026-04-22 08:40:24",
        "SP95": "2026-04-30 08:27:09",
        "SP98": "2026-04-30 08:27:09"
      }
    },
    {
      "id": "10800003",
      "lat": 48.268,
      "lon": 4.089,
      "cp": "10800",
      "ville": "Saint-Julien-les-Villas",
      "prix": {
        "Gazole": 0.002219,
        "E10": 0.002049,
        "SP98": 0.002129
      },
      "maj_gouv": {
        "Gazole": "2026-05-04 09:29:41",
        "E10": "2026-05-06 13:12:07",
        "SP98": "2026-05-06 10:56:44"
      }
    },
    {
      "id": "10400002",
      "lat": 48.49240759359999,
      "lon": 3.51288606446,
      "cp": "10400",
      "ville": "NOGENT-SUR-SEINE",
      "prix": {
        "Gazole": 0.0022080000000000003,
        "SP95": 0.002089,
        "SP98": 0.0021739999999999997
      },
      "maj_gouv": {
        "Gazole": "2026-05-05 08:12:08",
        "SP95": "2026-05-05 08:12:08",
        "SP98": "2026-05-05 08:12:08"
      }
    },
    {
      "id": "10350001",
      "lat": 48.406,
      "lon": 3.738,
      "cp": "10350",
      "ville": "Marigny-le-Châtel",
      "prix": {
        "Gazole": 0.002196,
        "E85": 0.0008179999999999999,
        "E10": 0.002025,
        "SP98": 0.002141
      },
      "maj_gouv": {
        "Gazole": "2026-05-05 09:50:00",
        "E85": "2026-04-30 12:40:09",
        "E10": "2026-05-05 09:50:00",
        "SP98": "2026-05-05 09:50:01"
      }
    },
    {
      "id": "10370001",
      "lat": 48.585,
      "lon": 3.561,
      "cp": "10370",
      "ville": "VILLENAUXE-LA-GRANDE",
      "prix": {
        "Gazole": 0.002209,
        "SP95": 0.002089,
        "E10": 0.002039
      },
      "maj_gouv": {
        "Gazole": "2026-05-05 07:41:35",
        "SP95": "2026-05-05 07:41:35",
        "E10": "2026-05-05 07:41:35"
      }
    },
    {
      "id": "10000019",
      "lat": 48.288,
      "lon": 4.08,
      "cp": "10000",
      "ville": "TROYES",
      "prix": {
        "Gazole": 0.00207,
        "E85": 0.000819,
        "E10": 0.001978
      },
      "maj_gouv": {
        "Gazole": "2026-05-08 00:01:00",
        "E85": "2026-05-08 00:01:00",
        "E10": "2026-05-08 00:01:00"
      }
    },
    {
      "id": "10150002",
      "lat": 48.328,
      "lon": 4.113,
      "cp": "10150",
      "ville": "PONT-SAINTE-MARIE",
      "prix": {
        "Gazole": 0.0021669999999999997,
        "SP95": 0.002117,
        "E85": 0.0008179999999999999,
        "E10": 0.002027,
        "SP98": 0.002129
      },
      "maj_gouv": {
        "Gazole": "2026-05-07 09:05:27",
        "SP95": "2026-05-07 09:05:27",
        "E85": "2026-04-20 09:01:57",
        "E10": "2026-05-06 11:31:43",
        "SP98": "2026-05-06 11:31:44"
      }
    },
    {
      "id": "10123001",
      "lat": 48.281776863104,
      "lon": 4.0525774803961,
      "cp": "10120",
      "ville": "Saint-André-les-Vergers",
      "prix": {
        "Gazole": 0.00222,
        "E85": 0.0007700000000000001,
        "E10": 0.0020510000000000003,
        "SP98": 0.0021739999999999997
      },
      "maj_gouv": {
        "Gazole": "2026-05-06 08:06:48",
        "E85": "2026-05-06 08:06:48",
        "E10": "2026-05-06 08:06:48",
        "SP98": "2026-05-06 08:06:48"
      }
    },
    {
      "id": "10270007",
      "lat": 48.214155554748004,
      "lon": 4.2409806284308,
      "cp": "10270",
      "ville": "Fresnoy-le-Château",
      "prix": {
        "Gazole": 0.00209,
        "E85": 0.000998,
        "E10": 0.00199,
        "SP98": 0.00199
      },
      "maj_gouv": {
        "Gazole": "2026-05-08 00:01:00",
        "E85": "2026-05-08 00:01:00",
        "E10": "2026-05-08 00:01:00",
        "SP98": "2026-05-08 00:01:00"
      }
    },
    {
      "id": "10300002",
      "lat": 48.293,
      "lon": 4.043,
      "cp": "10300",
      "ville": "Sainte-Savine",
      "prix": {
        "Gazole": 0.002173,
        "E10": 0.002058,
        "SP98": 0.0021379999999999997
      },
      "maj_gouv": {
        "Gazole": "2026-05-07 11:31:00",
        "E10": "2026-05-07 11:31:00",
        "SP98": "2026-05-07 11:31:00"
      }
    },
    {
      "id": "10200004",
      "lat": 48.229,
      "lon": 4.717,
      "cp": "10200",
      "ville": "Bar-sur-Aube",
      "prix": {
        "Gazole": 0.0022890000000000002,
        "SP95": 0.002198,
        "E85": 0.0008990000000000001
      },
      "maj_gouv": {
        "Gazole": "2026-04-23 00:00:00",
        "SP95": "2026-04-21 00:00:00",
        "E85": "2026-04-21 00:00:00"
      }
    },
    {
      "id": "10120006",
      "lat": 48.272924,
      "lon": 4.055641,
      "cp": "10120",
      "ville": "SAINT ANDRE LES VERGERS",
      "prix": {
        "Gazole": 0.002249,
        "E85": 0.0008489999999999999,
        "E10": 0.002099,
        "SP98": 0.002169
      },
      "maj_gouv": {
        "Gazole": "2026-04-23 00:00:00",
        "E85": "2026-04-08 00:00:00",
        "E10": "2026-04-15 00:00:00",
        "SP98": "2026-04-15 00:00:00"
      }
    },
    {
      "id": "10800007",
      "lat": 48.268,
      "lon": 4.088,
      "cp": "10800",
      "ville": "Saint-Julien-les-Villas",
      "prix": {
        "Gazole": 0.002219,
        "E85": 0.0008179999999999999,
        "E10": 0.002049,
        "SP98": 0.002129
      },
      "maj_gouv": {
        "Gazole": "2026-05-04 10:41:23",
        "E85": "2026-04-16 08:57:08",
        "E10": "2026-05-04 10:41:24",
        "SP98": "2026-05-06 13:10:57"
      }
    },
    {
      "id": "10150001",
      "lat": 48.312,
      "lon": 4.097,
      "cp": "10150",
      "ville": "Pont-Sainte-Marie",
      "prix": {
        "Gazole": 0.002176,
        "E10": 0.00209,
        "SP98": 0.00217
      },
      "maj_gouv": {
        "Gazole": "2026-05-07 10:01:00",
        "E10": "2026-05-07 10:01:00",
        "SP98": "2026-05-07 10:01:00"
      }
    },
    {
      "id": "10000005",
      "lat": 48.283,
      "lon": 4.079,
      "cp": "10000",
      "ville": "Troyes",
      "prix": {
        "Gazole": 0.002284,
        "E10": 0.002041,
        "SP98": 0.002121
      },
      "maj_gouv": {
        "Gazole": "2026-05-07 11:31:00",
        "E10": "2026-05-07 11:31:00",
        "SP98": "2026-05-07 11:31:00"
      }
    },
    {
      "id": "10180001",
      "lat": 48.367,
      "lon": 3.997,
      "cp": "10180",
      "ville": "SAINT-LYE",
      "prix": {
        "Gazole": 0.002216,
        "E85": 0.0008179999999999999,
        "E10": 0.002099,
        "SP98": 0.0021379999999999997
      },
      "maj_gouv": {
        "Gazole": "2026-05-05 08:39:59",
        "E85": "2026-05-05 08:39:59",
        "E10": "2026-05-05 08:39:59",
        "SP98": "2026-05-05 08:39:59"
      }
    },
    {
      "id": "10700001",
      "lat": 48.536,
      "lon": 4.145,
      "cp": "10700",
      "ville": "ARCIS-SUR-AUBE",
      "prix": {
        "Gazole": 0.002199,
        "E10": 0.00199
      },
      "maj_gouv": {
        "Gazole": "2026-05-07 07:19:00",
        "E10": "2026-04-21 09:41:29"
      }
    },
    {
      "id": "10100003",
      "lat": 48.512,
      "lon": 3.72,
      "cp": "10100",
      "ville": "Romilly-sur-Seine",
      "prix": {
        "Gazole": 0.00217,
        "E10": 0.0020499999999999997,
        "SP98": 0.00213
      },
      "maj_gouv": {
        "Gazole": "2026-05-07 15:51:00",
        "E10": "2026-05-07 15:51:00",
        "SP98": "2026-05-07 15:51:00"
      }
    },
    {
      "id": "10260003",
      "lat": 48.181,
      "lon": 4.189,
      "cp": "10260",
      "ville": "VAUDES",
      "prix": {
        "Gazole": 0.002222,
        "SP95": 0.002099,
        "SP98": 0.0021680000000000002
      },
      "maj_gouv": {
        "Gazole": "2026-05-04 16:21:39",
        "SP95": "2026-05-07 10:25:18",
        "SP98": "2026-05-07 10:25:18"
      }
    },
    {
      "id": "10250001",
      "lat": 47.983,
      "lon": 4.496,
      "cp": "10250",
      "ville": "Mussy-sur-Seine",
      "prix": {
        "Gazole": 0.0022890000000000002,
        "SP95": 0.002169,
        "SP98": 0.002199
      },
      "maj_gouv": {
        "Gazole": "2026-04-23 08:00:00",
        "SP95": "2026-04-23 08:00:00",
        "SP98": "2026-04-23 08:00:00"
      }
    },
    {
      "id": "10100001",
      "lat": 48.51018,
      "lon": 3.71443,
      "cp": "10100",
      "ville": "Romilly-sur-Seine",
      "prix": {
        "Gazole": 0.0022440000000000003,
        "SP95": 0.002074,
        "SP98": 0.002148
      },
      "maj_gouv": {
        "Gazole": "2026-05-04 12:40:06",
        "SP95": "2026-05-04 12:40:07",
        "SP98": "2026-05-04 12:40:07"
      }
    },
    {
      "id": "10000020",
      "lat": 48.3044,
      "lon": 4.0727,
      "cp": "10000",
      "ville": "TROYES",
      "prix": {
        "Gazole": 0.0020459999999999996,
        "E85": 0.000819,
        "E10": 0.001968
      },
      "maj_gouv": {
        "Gazole": "2026-05-08 00:01:00",
        "E85": "2026-05-08 00:01:00",
        "E10": "2026-05-08 00:01:00"
      }
    },
    {
      "id": "10210002",
      "lat": 48.058,
      "lon": 4.141,
      "cp": "10210",
      "ville": "CHAOURCE",
      "prix": {
        "Gazole": 0.0022389999999999997,
        "SP95": 0.002049,
        "SP98": 0.002069
      },
      "maj_gouv": {
        "Gazole": "2026-04-23 11:39:33",
        "SP95": "2026-04-23 11:39:33",
        "SP98": "2026-04-22 08:30:00"
      }
    },
    {
      "id": "10230002",
      "lat": 48.675,
      "lon": 4.191,
      "cp": "10230",
      "ville": "Mailly-le-Camp",
      "prix": {
        "Gazole": 0.002199,
        "SP95": 0.00199
      },
      "maj_gouv": {
        "Gazole": "2026-05-04 08:26:36",
        "SP95": "2026-05-02 10:45:23"
      }
    },
    {
      "id": "10150003",
      "lat": 48.4110575553,
      "lon": 4.14348044661,
      "cp": "10150",
      "ville": "Charmont-sous-Barbuise",
      "prix": {
        "Gazole": 0.0022400000000000002,
        "E10": 0.002127
      },
      "maj_gouv": {
        "Gazole": "2026-05-05 09:30:00",
        "E10": "2026-05-05 09:30:00"
      }
    },
    {
      "id": "10600005",
      "lat": 48.304,
      "lon": 4.032,
      "cp": "10600",
      "ville": "La Chapelle-Saint-Luc",
      "prix": {
        "Gazole": 0.00225,
        "E10": 0.00209,
        "SP98": 0.00225
      },
      "maj_gouv": {
        "Gazole": "2026-05-05 20:03:00",
        "E10": "2026-05-05 20:03:00",
        "SP98": "2026-05-05 20:03:00"
      }
    },
    {
      "id": "10270006",
      "lat": 48.211,
      "lon": 4.241,
      "cp": "10270",
      "ville": "Fresnoy-le-Château",
      "prix": {
        "Gazole": 0.00209,
        "E85": 0.000998,
        "GPLc": 0.0011279999999999999,
        "E10": 0.00199,
        "SP98": 0.00199
      },
      "maj_gouv": {
        "Gazole": "2026-05-08 00:01:00",
        "E85": "2026-05-08 00:01:00",
        "GPLc": "2026-05-08 00:01:00",
        "E10": "2026-05-08 00:01:00",
        "SP98": "2026-05-08 00:01:00"
      }
    },
    {
      "id": "10500005",
      "lat": 48.3965167,
      "lon": 4.528256,
      "cp": "10500",
      "ville": "Brienne-le-Château",
      "prix": {
        "Gazole": 0.002219,
        "SP95": 0.002139,
        "E10": 0.002099
      },
      "maj_gouv": {
        "Gazole": "2026-05-07 08:55:22",
        "SP95": "2026-05-04 09:07:25",
        "E10": "2026-05-05 08:52:35"
      }
    },
    {
      "id": "10130001",
      "lat": 48.046,
      "lon": 3.924,
      "cp": "10130",
      "ville": "Ervy-le-Châtel",
      "prix": {
        "Gazole": 0.0022890000000000002,
        "SP95": 0.002099,
        "SP98": 0.002199
      },
      "maj_gouv": {
        "Gazole": "2026-04-23 00:00:00",
        "SP95": "2026-04-15 00:00:00",
        "SP98": "2026-04-15 00:00:00"
      }
    },
    {
      "id": "10410003",
      "lat": 48.297951133716005,
      "lon": 4.1336364178578995,
      "cp": "10410",
      "ville": "SAINT PARRES AUX TERTRES",
      "prix": {
        "Gazole": 0.0021669999999999997,
        "SP95": 0.002117,
        "E85": 0.000759,
        "GPLc": 0.001037,
        "E10": 0.002081,
        "SP98": 0.002148
      },
      "maj_gouv": {
        "Gazole": "2026-05-07 08:01:11",
        "SP95": "2026-05-07 08:01:11",
        "E85": "2026-05-07 08:01:11",
        "GPLc": "2026-05-07 08:01:11",
        "E10": "2026-05-07 08:01:11",
        "SP98": "2026-05-07 08:01:11"
      }
    },
    {
      "id": "10260001",
      "lat": 48.15,
      "lon": 4.262,
      "cp": "10260",
      "ville": "FOUCHERES",
      "prix": {
        "Gazole": 0.00225,
        "E10": 0.00199,
        "SP98": 0.00199
      },
      "maj_gouv": {
        "Gazole": "2026-05-06 10:49:29",
        "E10": "2026-05-06 10:49:29",
        "SP98": "2026-05-06 10:49:29"
      }
    },
    {
      "id": "10270009",
      "lat": 48.261974565456,
      "lon": 4.2494407466826,
      "cp": "10270",
      "ville": "Lusigny-sur-Barse",
      "prix": {
        "Gazole": 0.0021669999999999997,
        "E85": 0.000759,
        "E10": 0.002081,
        "SP98": 0.002148
      },
      "maj_gouv": {
        "Gazole": "2026-05-07 08:01:59",
        "E85": "2026-05-07 08:02:00",
        "E10": "2026-05-07 08:02:00",
        "SP98": "2026-05-07 08:02:00"
      }
    },
    {
      "id": "10430003",
      "lat": 48.266508041454,
      "lon": 4.0611727612853,
      "cp": "10430",
      "ville": "Rosières",
      "prix": {
        "Gazole": 0.0021669999999999997,
        "SP95": 0.002117,
        "E85": 0.000759,
        "E10": 0.002081,
        "SP98": 0.002148
      },
      "maj_gouv": {
        "Gazole": "2026-05-07 08:02:55",
        "SP95": "2026-05-07 08:02:55",
        "E85": "2026-05-07 08:02:55",
        "E10": "2026-05-07 08:02:55",
        "SP98": "2026-05-07 08:02:55"
      }
    },
    {
      "id": "10130004",
      "lat": 48.11,
      "lon": 3.921,
      "cp": "10130",
      "ville": "AUXON",
      "prix": {
        "Gazole": 0.0022789999999999998,
        "E85": 0.0008179999999999999,
        "E10": 0.002089,
        "SP98": 0.002169
      },
      "maj_gouv": {
        "Gazole": "2026-05-05 11:25:39",
        "E85": "2026-05-05 11:25:39",
        "E10": "2026-05-05 11:25:39",
        "SP98": "2026-05-05 11:25:40"
      }
    },
    {
      "id": "10100002",
      "lat": 48.509,
      "lon": 3.732,
      "cp": "10100",
      "ville": "Romilly-sur-Seine",
      "prix": {
        "Gazole": 0.002176,
        "E10": 0.00199,
        "SP98": 0.00199
      },
      "maj_gouv": {
        "Gazole": "2026-05-07 05:46:26",
        "E10": "2026-04-22 05:51:33",
        "SP98": "2026-03-10 05:44:11"
      }
    },
    {
      "id": "10800002",
      "lat": 48.281,
      "lon": 4.095,
      "cp": "10800",
      "ville": "SAINT-JULIEN-LES-VILLAS",
      "prix": {
        "Gazole": 0.002189,
        "E85": 0.0008179999999999999,
        "E10": 0.002029,
        "SP98": 0.0021379999999999997
      },
      "maj_gouv": {
        "Gazole": "2026-05-05 09:46:45",
        "E85": "2026-05-04 09:06:40",
        "E10": "2026-05-04 09:06:40",
        "SP98": "2026-05-04 09:06:41"
      }
    },
    {
      "id": "10250002",
      "lat": 47.975,
      "lon": 4.494,
      "cp": "10250",
      "ville": "Mussy-sur-Seine",
      "prix": {
        "Gazole": 0.002299,
        "SP95": 0.002109,
        "E85": 0.0008539999999999999
      },
      "maj_gouv": {
        "Gazole": "2026-04-21 11:38:46",
        "SP95": "2026-04-21 11:38:46",
        "E85": "2026-04-09 11:26:25"
      }
    },
    {
      "id": "10120001",
      "lat": 48.241,
      "lon": 4.022,
      "cp": "10120",
      "ville": "Saint-Germain",
      "prix": {
        "Gazole": 0.00225,
        "E10": 0.00199,
        "SP98": 0.00199
      },
      "maj_gouv": {
        "Gazole": "2026-05-04 08:27:23",
        "E10": "2026-05-04 08:27:23",
        "SP98": "2026-05-04 08:27:23"
      }
    },
    {
      "id": "10310001",
      "lat": 48.123855999999996,
      "lon": 4.7900279999999995,
      "cp": "10310",
      "ville": "VILLE SOUS LA FERTE",
      "prix": {
        "Gazole": 0.00225,
        "SP95": 0.00199
      },
      "maj_gouv": {
        "Gazole": "2026-04-08 00:01:00",
        "SP95": "2026-04-08 00:01:00"
      }
    },
    {
      "id": "10270010",
      "lat": 48.25347,
      "lon": 4.261199,
      "cp": "10270",
      "ville": "Lusigny-sur-Barse",
      "prix": {
        "Gazole": 0.002233,
        "SP95": 0.002104,
        "SP98": 0.0021669999999999997
      },
      "maj_gouv": {
        "Gazole": "2026-05-06 07:20:42",
        "SP95": "2026-05-06 07:20:42",
        "SP98": "2026-05-06 07:20:42"
      }
    },
    {
      "id": "10700003",
      "lat": 48.535,
      "lon": 4.13,
      "cp": "10700",
      "ville": "Arcis-sur-Aube",
      "prix": {
        "Gazole": 0.002206,
        "E10": 0.002021,
        "SP98": 0.00213
      },
      "maj_gouv": {
        "Gazole": "2026-05-04 12:00:00",
        "E10": "2026-05-04 12:00:00",
        "SP98": "2026-05-04 12:00:00"
      }
    },
    {
      "id": "10100004",
      "lat": 48.504930578477,
      "lon": 3.7633951732577,
      "cp": "10100",
      "ville": "Romilly-sur-Seine",
      "prix": {
        "Gazole": 0.002161,
        "E85": 0.000808,
        "GPLc": 0.001103,
        "E10": 0.002041,
        "SP98": 0.002101
      },
      "maj_gouv": {
        "Gazole": "2026-05-08 01:15:00",
        "E85": "2026-05-08 01:15:00",
        "GPLc": "2026-05-08 01:15:00",
        "E10": "2026-05-08 01:15:00",
        "SP98": "2026-05-08 01:15:00"
      }
    },
    {
      "id": "10000018",
      "lat": 48.294,
      "lon": 4.083,
      "cp": "10000",
      "ville": "TROYES",
      "prix": {
        "Gazole": 0.00209,
        "E10": 0.00199,
        "SP98": 0.00199
      },
      "maj_gouv": {
        "Gazole": "2026-05-08 00:01:00",
        "E10": "2026-05-08 00:01:00",
        "SP98": "2026-05-08 00:01:00"
      }
    },
    {
      "id": "10600012",
      "lat": 48.333094630000005,
      "lon": 4.023111421,
      "cp": "10600",
      "ville": "BARBEREY ST SULPICE",
      "prix": {
        "Gazole": 0.002196,
        "E85": 0.0008349999999999999,
        "GPLc": 0.0010329999999999998,
        "E10": 0.002024
      },
      "maj_gouv": {
        "Gazole": "2026-05-07 12:14:01",
        "E85": "2026-05-07 12:14:01",
        "GPLc": "2026-05-07 12:14:02",
        "E10": "2026-05-07 12:14:02"
      }
    },
    {
      "id": "10200006",
      "lat": 48.226361576052994,
      "lon": 4.7128066819557,
      "cp": "10200",
      "ville": "Bar-sur-Aube",
      "prix": {
        "Gazole": 0.002245,
        "SP95": 0.002139,
        "SP98": 0.002299
      },
      "maj_gouv": {
        "Gazole": "2026-05-05 16:03:14",
        "SP95": "2026-05-04 08:49:41",
        "SP98": "2026-05-05 16:03:14"
      }
    },
    {
      "id": "10600009",
      "lat": 48.336,
      "lon": 4.018,
      "cp": "10600",
      "ville": "BARBEREY",
      "prix": {
        "Gazole": 0.002048,
        "E85": 0.0008349999999999999,
        "E10": 0.001958
      },
      "maj_gouv": {
        "Gazole": "2026-05-08 00:01:00",
        "E85": "2026-05-08 00:01:00",
        "E10": "2026-05-08 00:01:00"
      }
    },
    {
      "id": "10120004",
      "lat": 48.261519408403004,
      "lon": 4.0342037717194,
      "cp": "10120",
      "ville": "SAINT GERMAIN",
      "prix": {
        "Gazole": 0.002219,
        "SP95": 0.002139,
        "E10": 0.002079,
        "SP98": 0.002169
      },
      "maj_gouv": {
        "Gazole": "2026-05-07 09:31:24",
        "SP95": "2026-05-04 10:02:46",
        "E10": "2026-05-06 08:27:39",
        "SP98": "2026-05-04 10:02:46"
      }
    },
    {
      "id": "10110002",
      "lat": 48.11577,
      "lon": 4.38129,
      "cp": "10110",
      "ville": "Bar-sur-Seine",
      "prix": {
        "Gazole": 0.002234,
        "E85": 0.0008179999999999999,
        "E10": 0.002058,
        "SP98": 0.002163
      },
      "maj_gouv": {
        "Gazole": "2026-05-06 09:12:58",
        "E85": "2026-05-06 09:12:58",
        "E10": "2026-05-06 09:12:58",
        "SP98": "2026-05-06 09:12:58"
      }
    },
    {
      "id": "10160002",
      "lat": 48.233431710535996,
      "lon": 3.6263070263483,
      "cp": "10160",
      "ville": "VULAINES",
      "prix": {
        "Gazole": 0.00209,
        "SP95": 0.00199
      },
      "maj_gouv": {
        "Gazole": "2026-05-07 18:52:12",
        "SP95": "2026-05-07 18:52:12"
      }
    },
    {
      "id": "10300005",
      "lat": 48.292,
      "lon": 4.037,
      "cp": "10300",
      "ville": "Sainte-Savine",
      "prix": {
        "Gazole": 0.0020659999999999997,
        "E85": 0.000824,
        "GPLc": 0.000999
      },
      "maj_gouv": {
        "Gazole": "2026-05-08 00:01:00",
        "E85": "2026-05-08 00:01:00",
        "GPLc": "2026-05-08 00:01:00"
      }
    }
  ]
}