{
  "departement": "80",
  "date": "2026-05-08",
  "stations": [
    {
      "id": "80570001",
      "lat": 50.04475,
      "lon": 1.52562,
      "cp": "80570",
      "ville": "Dargnies",
      "prix": {
        "Gazole": 0.002155,
        "SP95": 0.002055,
        "SP98": 0.002089
      },
      "maj_gouv": {
        "Gazole": "2026-04-21 16:17:52",
        "SP95": "2026-04-21 16:17:53",
        "SP98": "2026-04-21 16:17:53"
      }
    },
    {
      "id": "80580001",
      "lat": 50.058008,
      "lon": 1.9002544000000001,
      "cp": "80580",
      "ville": "Pont-Remy",
      "prix": {
        "Gazole": 0.002166,
        "E10": 0.002059,
        "SP98": 0.002093
      },
      "maj_gouv": {
        "Gazole": "2026-05-07 11:32:26",
        "E10": "2026-05-07 11:32:26",
        "SP98": "2026-05-07 11:32:26"
      }
    },
    {
      "id": "80100007",
      "lat": 50.113,
      "lon": 1.829,
      "cp": "80100",
      "ville": "Abbeville",
      "prix": {
        "Gazole": 0.002175,
        "E10": 0.002003,
        "SP98": 0.002083
      },
      "maj_gouv": {
        "Gazole": "2026-05-07 18:00:00",
        "E10": "2026-05-07 18:00:00",
        "SP98": "2026-05-07 18:00:00"
      }
    },
    {
      "id": "80000008",
      "lat": 49.894,
      "lon": 2.285,
      "cp": "80000",
      "ville": "Amiens",
      "prix": {
        "Gazole": 0.002227,
        "E10": 0.002043,
        "SP98": 0.0021230000000000003
      },
      "maj_gouv": {
        "Gazole": "2026-05-07 10:00:00",
        "E10": "2026-05-07 10:00:00",
        "SP98": "2026-05-07 10:00:00"
      }
    },
    {
      "id": "80100011",
      "lat": 50.107867347902,
      "lon": 1.8317601957873,
      "cp": "80100",
      "ville": "abbeville",
      "prix": {
        "Gazole": 0.0021680000000000002,
        "E10": 0.00199,
        "SP98": 0.00199
      },
      "maj_gouv": {
        "Gazole": "2026-05-07 07:03:30",
        "E10": "2026-05-07 07:03:30",
        "SP98": "2026-05-07 07:03:30"
      }
    },
    {
      "id": "80420003",
      "lat": 50.028,
      "lon": 2.067,
      "cp": "80420",
      "ville": "FLIXECOURT",
      "prix": {
        "Gazole": 0.002199,
        "GPLc": 0.00108,
        "E10": 0.002059,
        "SP98": 0.00214
      },
      "maj_gouv": {
        "Gazole": "2026-05-06 09:14:07",
        "GPLc": "2026-05-07 13:48:39",
        "E10": "2026-05-06 09:14:08",
        "SP98": "2026-05-06 09:14:08"
      }
    },
    {
      "id": "80700010",
      "lat": 49.705,
      "lon": 2.766,
      "cp": "80700",
      "ville": "ROYE",
      "prix": {
        "Gazole": 0.002229,
        "SP98": 0.002189
      },
      "maj_gouv": {
        "Gazole": "2026-05-07 18:18:59",
        "SP98": "2026-05-07 18:18:59"
      }
    },
    {
      "id": "80420004",
      "lat": 50.011,
      "lon": 2.094,
      "cp": "80420",
      "ville": "FLIXECOURT",
      "prix": {
        "Gazole": 0.002199,
        "E85": 0.0008179999999999999,
        "E10": 0.002039,
        "SP98": 0.00214
      },
      "maj_gouv": {
        "Gazole": "2026-05-05 08:43:41",
        "E85": "2026-04-21 08:08:03",
        "E10": "2026-05-05 08:43:41",
        "SP98": "2026-05-05 08:43:41"
      }
    },
    {
      "id": "80110001",
      "lat": 49.786561311593,
      "lon": 2.4699237043829,
      "cp": "80110",
      "ville": "MOREUIL",
      "prix": {
        "Gazole": 0.002212,
        "E85": 0.000855,
        "E10": 0.00199,
        "SP98": 0.00199
      },
      "maj_gouv": {
        "Gazole": "2026-05-07 10:11:47",
        "E85": "2026-04-28 08:31:15",
        "E10": "2026-04-30 08:49:30",
        "SP98": "2026-04-30 08:49:30"
      }
    },
    {
      "id": "80460003",
      "lat": 50.09824,
      "lon": 1.4559,
      "cp": "80460",
      "ville": "AULT",
      "prix": {
        "Gazole": 0.002249,
        "SP95": 0.002069,
        "SP98": 0.002148
      },
      "maj_gouv": {
        "Gazole": "2026-04-27 08:24:37",
        "SP95": "2026-04-18 14:42:51",
        "SP98": "2026-04-07 14:20:42"
      }
    },
    {
      "id": "80440003",
      "lat": 49.865,
      "lon": 2.377,
      "cp": "80440",
      "ville": "Glisy",
      "prix": {
        "Gazole": 0.002198,
        "GPLc": 0.000999,
        "E10": 0.002009,
        "SP98": 0.0021070000000000004
      },
      "maj_gouv": {
        "Gazole": "2026-05-04 10:17:25",
        "GPLc": "2026-04-21 10:28:40",
        "E10": "2026-05-04 10:17:25",
        "SP98": "2026-05-04 10:17:25"
      }
    },
    {
      "id": "80300004",
      "lat": 49.922,
      "lon": 2.304,
      "cp": "80080",
      "ville": "AMIENS",
      "prix": {
        "Gazole": 0.002218,
        "E85": 0.000868,
        "E10": 0.002034,
        "SP98": 0.002078
      },
      "maj_gouv": {
        "Gazole": "2026-05-06 17:47:36",
        "E85": "2026-05-06 17:47:36",
        "E10": "2026-05-07 08:09:23",
        "SP98": "2026-05-06 12:51:37"
      }
    },
    {
      "id": "80290008",
      "lat": 49.808,
      "lon": 1.968,
      "cp": "80290",
      "ville": "CROIXRAULT",
      "prix": {
        "Gazole": 0.002186,
        "E85": 0.00092,
        "E10": 0.002033,
        "SP98": 0.0021000000000000003
      },
      "maj_gouv": {
        "Gazole": "2026-05-06 06:41:00",
        "E85": "2026-05-06 06:41:00",
        "E10": "2026-05-06 06:41:00",
        "SP98": "2026-05-06 06:41:00"
      }
    },
    {
      "id": "80450001",
      "lat": 49.9,
      "lon": 2.341,
      "cp": "80450",
      "ville": "Camon",
      "prix": {
        "Gazole": 0.002199,
        "E85": 0.0008179999999999999,
        "E10": 0.002009,
        "SP98": 0.0021190000000000002
      },
      "maj_gouv": {
        "Gazole": "2026-05-04 09:55:14",
        "E85": "2026-05-04 09:55:14",
        "E10": "2026-05-04 09:55:14",
        "SP98": "2026-05-04 09:55:15"
      }
    },
    {
      "id": "80100012",
      "lat": 50.128,
      "lon": 1.833,
      "cp": "80100",
      "ville": "Abbeville",
      "prix": {
        "Gazole": 0.002179,
        "E85": 0.000916,
        "E10": 0.001992
      },
      "maj_gouv": {
        "Gazole": "2026-05-06 12:19:18",
        "E85": "2026-05-06 08:43:42",
        "E10": "2026-05-06 12:19:18"
      }
    },
    {
      "id": "80370002",
      "lat": 50.131,
      "lon": 2.172,
      "cp": "80370",
      "ville": "Bernaville",
      "prix": {
        "Gazole": 0.002179,
        "SP95": 0.002049,
        "E85": 0.0008990000000000001
      },
      "maj_gouv": {
        "Gazole": "2026-05-07 10:18:53",
        "SP95": "2026-05-07 10:18:53",
        "E85": "2026-05-07 10:18:53"
      }
    },
    {
      "id": "80100009",
      "lat": 50.117513685996,
      "lon": 1.8292431861311,
      "cp": "80100",
      "ville": "ABBEVILLE",
      "prix": {
        "Gazole": 0.002166,
        "E85": 0.0008179999999999999,
        "E10": 0.001994,
        "SP98": 0.002093
      },
      "maj_gouv": {
        "Gazole": "2026-05-06 12:00:00",
        "E85": "2026-05-05 17:01:17",
        "E10": "2026-05-06 12:00:00",
        "SP98": "2026-05-05 17:01:17"
      }
    },
    {
      "id": "80200007",
      "lat": 49.939,
      "lon": 2.926,
      "cp": "80200",
      "ville": "PERONNE",
      "prix": {
        "Gazole": 0.002189,
        "E85": 0.0008179999999999999,
        "GPLc": 0.0010609999999999999,
        "E10": 0.002059,
        "SP98": 0.002125
      },
      "maj_gouv": {
        "Gazole": "2026-05-07 09:06:24",
        "E85": "2026-05-05 11:39:35",
        "GPLc": "2026-04-17 10:17:40",
        "E10": "2026-05-06 08:39:52",
        "SP98": "2026-05-05 08:46:41"
      }
    },
    {
      "id": "80120004",
      "lat": 50.271,
      "lon": 1.669,
      "cp": "80120",
      "ville": "RUE",
      "prix": {
        "Gazole": 0.0022,
        "SP95": 0.002039,
        "SP98": 0.0021920000000000004
      },
      "maj_gouv": {
        "Gazole": "2026-05-02 10:33:36",
        "SP95": "2026-05-04 09:11:51",
        "SP98": "2026-05-07 10:47:33"
      }
    },
    {
      "id": "80600006",
      "lat": 50.156514175031994,
      "lon": 2.3442093761964,
      "cp": "80600",
      "ville": "Doullens",
      "prix": {
        "Gazole": 0.002199,
        "E10": 0.002075,
        "SP98": 0.002149
      },
      "maj_gouv": {
        "Gazole": "2026-05-05 06:59:38",
        "E10": "2026-05-07 07:48:34",
        "SP98": "2026-05-07 07:48:34"
      }
    },
    {
      "id": "80260003",
      "lat": 50.001,
      "lon": 2.258,
      "cp": "80260",
      "ville": "FLESSELLES",
      "prix": {
        "Gazole": 0.002221,
        "E85": 0.0008179999999999999,
        "E10": 0.002034,
        "SP98": 0.00214
      },
      "maj_gouv": {
        "Gazole": "2026-05-04 08:30:59",
        "E85": "2026-04-28 07:08:47",
        "E10": "2026-05-04 08:30:59",
        "SP98": "2026-05-04 08:31:00"
      }
    },
    {
      "id": "80340004",
      "lat": 49.9396975,
      "lon": 2.7176620000000002,
      "cp": "80340",
      "ville": "Bray-sur-Somme",
      "prix": {
        "Gazole": 0.002199,
        "SP95": 0.002059,
        "SP98": 0.0021000000000000003
      },
      "maj_gouv": {
        "Gazole": "2026-04-23 14:11:56",
        "SP95": "2026-04-23 14:11:56",
        "SP98": "2026-04-23 14:11:56"
      }
    },
    {
      "id": "80090003",
      "lat": 49.877,
      "lon": 2.313,
      "cp": "80090",
      "ville": "AMIENS",
      "prix": {
        "Gazole": 0.0023090000000000003,
        "E10": 0.002129,
        "SP98": 0.0022789999999999998
      },
      "maj_gouv": {
        "Gazole": "2026-05-07 10:59:01",
        "E10": "2026-05-07 10:59:00",
        "SP98": "2026-05-07 10:59:01"
      }
    },
    {
      "id": "80260004",
      "lat": 49.9700772,
      "lon": 2.352799,
      "cp": "80260",
      "ville": "Rainneville",
      "prix": {
        "Gazole": 0.00225,
        "E10": 0.00199
      },
      "maj_gouv": {
        "Gazole": "2026-05-06 18:02:16",
        "E10": "2026-05-06 18:02:16"
      }
    },
    {
      "id": "80850001",
      "lat": 50.046,
      "lon": 2.148,
      "cp": "80850",
      "ville": "BERTEAUCOURT-LES-DAMES",
      "prix": {
        "Gazole": 0.002195,
        "E85": 0.0008179999999999999,
        "E10": 0.002034,
        "SP98": 0.002139
      },
      "maj_gouv": {
        "Gazole": "2026-05-06 10:35:48",
        "E85": "2026-05-06 10:35:49",
        "E10": "2026-05-06 10:35:49",
        "SP98": "2026-05-06 10:35:49"
      }
    },
    {
      "id": "80120003",
      "lat": 50.273461,
      "lon": 1.66324377,
      "cp": "80120",
      "ville": "RUE",
      "prix": {
        "Gazole": 0.00222,
        "SP95": 0.0021019999999999997,
        "SP98": 0.002184
      },
      "maj_gouv": {
        "Gazole": "2026-05-07 10:49:54",
        "SP95": "2026-05-07 10:49:54",
        "SP98": "2026-05-07 10:49:54"
      }
    },
    {
      "id": "80470001",
      "lat": 49.92917,
      "lon": 2.19471,
      "cp": "80470",
      "ville": "Ailly-sur-Somme",
      "prix": {
        "Gazole": 0.00239,
        "E10": 0.002179,
        "SP98": 0.0022589999999999997
      },
      "maj_gouv": {
        "Gazole": "2026-04-17 08:41:55",
        "E10": "2026-05-06 10:03:51",
        "SP98": "2026-05-06 10:04:16"
      }
    },
    {
      "id": "80136001",
      "lat": 49.913,
      "lon": 2.338,
      "cp": "80136",
      "ville": "RIVERY",
      "prix": {
        "Gazole": 0.002199,
        "E85": 0.000829,
        "E10": 0.002039,
        "SP98": 0.002109
      },
      "maj_gouv": {
        "Gazole": "2026-05-04 11:00:09",
        "E85": "2026-05-04 11:00:09",
        "E10": "2026-05-04 11:00:09",
        "SP98": "2026-05-04 11:00:09"
      }
    },
    {
      "id": "80120001",
      "lat": 50.331,
      "lon": 1.589,
      "cp": "80120",
      "ville": "QUEND",
      "prix": {
        "Gazole": 0.00225,
        "SP95": 0.0021219999999999998,
        "E85": 0.000869
      },
      "maj_gouv": {
        "Gazole": "2026-05-02 13:06:19",
        "SP95": "2026-05-07 12:55:53",
        "E85": "2026-05-07 12:55:53"
      }
    },
    {
      "id": "80330004",
      "lat": 49.868,
      "lon": 2.368,
      "cp": "80330",
      "ville": "LONGUEAU",
      "prix": {
        "Gazole": 0.00209,
        "E85": 0.000861,
        "E10": 0.00199
      },
      "maj_gouv": {
        "Gazole": "2026-05-08 00:01:00",
        "E85": "2026-05-08 00:01:00",
        "E10": "2026-05-08 00:01:00"
      }
    },
    {
      "id": "80200003",
      "lat": 49.918,
      "lon": 2.933,
      "cp": "80200",
      "ville": "PERONNE",
      "prix": {
        "Gazole": 0.002176,
        "E10": 0.00199,
        "SP98": 0.00199
      },
      "maj_gouv": {
        "Gazole": "2026-05-07 06:42:01",
        "E10": "2026-05-07 06:42:01",
        "SP98": "2026-05-07 06:42:01"
      }
    },
    {
      "id": "80135001",
      "lat": 50.129,
      "lon": 1.942,
      "cp": "80135",
      "ville": "SAINT-RIQUIER",
      "prix": {
        "Gazole": 0.0022389999999999997,
        "E85": 0.0008179999999999999,
        "E10": 0.002059,
        "SP98": 0.002169
      },
      "maj_gouv": {
        "Gazole": "2026-05-05 17:08:17",
        "E85": "2026-04-27 09:21:03",
        "E10": "2026-05-05 17:08:18",
        "SP98": "2026-05-07 09:24:20"
      }
    },
    {
      "id": "80600002",
      "lat": 50.16005,
      "lon": 2.34759,
      "cp": "80600",
      "ville": "Doullens",
      "prix": {
        "Gazole": 0.002209,
        "E10": 0.0020169999999999997,
        "SP98": 0.0021509999999999997
      },
      "maj_gouv": {
        "Gazole": "2026-05-06 11:40:41",
        "E10": "2026-05-07 14:05:50",
        "SP98": "2026-05-06 11:40:41"
      }
    },
    {
      "id": "80690001",
      "lat": 50.0788052,
      "lon": 1.9955359,
      "cp": "80690",
      "ville": "Ailly-le-Haut-Clocher",
      "prix": {
        "Gazole": 0.00225,
        "SP95": 0.00199
      },
      "maj_gouv": {
        "Gazole": "2026-04-08 07:36:50",
        "SP95": "2026-04-08 07:36:50"
      }
    },
    {
      "id": "80240001",
      "lat": 49.948,
      "lon": 3.108,
      "cp": "80240",
      "ville": "ROISEL",
      "prix": {
        "Gazole": 0.002209,
        "SP95": 0.002079,
        "SP98": 0.002149
      },
      "maj_gouv": {
        "Gazole": "2026-05-06 12:50:42",
        "SP95": "2026-05-06 12:50:43",
        "SP98": "2026-05-06 12:50:43"
      }
    },
    {
      "id": "80100003",
      "lat": 50.2117728505,
      "lon": 1.77888380782,
      "cp": "80860",
      "ville": "NOUVION",
      "prix": {
        "Gazole": 0.002229,
        "SP95": 0.002079,
        "SP98": 0.002159
      },
      "maj_gouv": {
        "Gazole": "2026-05-05 17:09:53",
        "SP95": "2026-05-05 17:09:53",
        "SP98": "2026-05-05 17:09:53"
      }
    },
    {
      "id": "80140004",
      "lat": 49.96,
      "lon": 1.766,
      "cp": "80140",
      "ville": "OISEMONT",
      "prix": {
        "Gazole": 0.00225,
        "SP95": 0.00199
      },
      "maj_gouv": {
        "Gazole": "2026-05-04 08:37:03",
        "SP95": "2026-04-08 14:51:20"
      }
    },
    {
      "id": "80110002",
      "lat": 49.788,
      "lon": 2.469,
      "cp": "80110",
      "ville": "MOREUIL",
      "prix": {
        "Gazole": 0.002233,
        "SP98": 0.002139
      },
      "maj_gouv": {
        "Gazole": "2026-04-29 08:59:44",
        "SP98": "2026-05-07 16:05:25"
      }
    },
    {
      "id": "80270001",
      "lat": 49.974,
      "lon": 1.941,
      "cp": "80270",
      "ville": "Airaines",
      "prix": {
        "Gazole": 0.002226,
        "E10": 0.002048,
        "SP98": 0.002181
      },
      "maj_gouv": {
        "Gazole": "2026-05-03 08:48:22",
        "E10": "2026-05-03 08:48:22",
        "SP98": "2026-05-03 08:48:22"
      }
    },
    {
      "id": "80300001",
      "lat": 50.011,
      "lon": 2.673,
      "cp": "80300",
      "ville": "ALBERT",
      "prix": {
        "Gazole": 0.002209,
        "E85": 0.0008179999999999999,
        "E10": 0.002039,
        "SP98": 0.002149
      },
      "maj_gouv": {
        "Gazole": "2026-05-04 11:01:28",
        "E85": "2026-04-16 10:47:57",
        "E10": "2026-05-04 11:01:29",
        "SP98": "2026-05-04 11:01:29"
      }
    },
    {
      "id": "80590002",
      "lat": 49.781,
      "lon": 1.792,
      "cp": "80290",
      "ville": "GAUVILLE",
      "prix": {
        "Gazole": 0.0022589999999999997,
        "SP95": 0.002117,
        "E10": 0.002064,
        "SP98": 0.0021739999999999997
      },
      "maj_gouv": {
        "Gazole": "2026-05-04 08:12:45",
        "SP95": "2026-05-04 08:12:45",
        "E10": "2026-05-04 08:12:45",
        "SP98": "2026-05-04 08:12:45"
      }
    },
    {
      "id": "80290007",
      "lat": 49.774747581038,
      "lon": 1.9846531982469,
      "cp": "80290",
      "ville": "Poix-de-Picardie",
      "prix": {
        "Gazole": 0.002181,
        "E10": 0.00199,
        "SP98": 0.00199
      },
      "maj_gouv": {
        "Gazole": "2026-05-07 08:03:28",
        "E10": "2026-04-28 08:21:27",
        "SP98": "2026-04-28 08:21:27"
      }
    },
    {
      "id": "80100001",
      "lat": 50.104,
      "lon": 1.828,
      "cp": "80100",
      "ville": "ABBEVILLE",
      "prix": {
        "Gazole": 0.002232,
        "SP95": 0.002094,
        "SP98": 0.002126
      },
      "maj_gouv": {
        "Gazole": "2026-05-06 10:11:56",
        "SP95": "2026-05-06 10:11:57",
        "SP98": "2026-05-04 13:07:32"
      }
    },
    {
      "id": "80260001",
      "lat": 50.001,
      "lon": 2.316,
      "cp": "80260",
      "ville": "Villers-Bocage",
      "prix": {
        "Gazole": 0.002219,
        "SP95": 0.002088,
        "SP98": 0.002173
      },
      "maj_gouv": {
        "Gazole": "2026-05-05 07:29:23",
        "SP95": "2026-05-05 07:29:24",
        "SP98": "2026-05-06 07:11:55"
      }
    },
    {
      "id": "80480003",
      "lat": 49.86238,
      "lon": 2.23121,
      "cp": "80480",
      "ville": "SALEUX",
      "prix": {
        "Gazole": 0.002196,
        "E10": 0.002009,
        "SP98": 0.002115
      },
      "maj_gouv": {
        "Gazole": "2026-05-05 09:09:26",
        "E10": "2026-05-05 09:09:26",
        "SP98": "2026-05-07 09:51:21"
      }
    },
    {
      "id": "80300005",
      "lat": 49.994,
      "lon": 2.657,
      "cp": "80300",
      "ville": "ALBERT",
      "prix": {
        "Gazole": 0.002189,
        "E85": 0.0008179999999999999,
        "GPLc": 0.001029,
        "E10": 0.002039,
        "SP98": 0.002149
      },
      "maj_gouv": {
        "Gazole": "2026-05-07 10:12:41",
        "E85": "2026-04-16 09:30:48",
        "GPLc": "2026-04-21 10:02:23",
        "E10": "2026-05-07 10:12:41",
        "SP98": "2026-05-07 10:12:41"
      }
    },
    {
      "id": "80500003",
      "lat": 49.64844,
      "lon": 2.58299,
      "cp": "80500",
      "ville": "MONTDIDIER",
      "prix": {
        "Gazole": 0.002209,
        "E85": 0.000739,
        "E10": 0.00207,
        "SP98": 0.002129
      },
      "maj_gouv": {
        "Gazole": "2026-05-07 08:29:55",
        "E85": "2026-04-29 08:32:55",
        "E10": "2026-05-06 08:30:37",
        "SP98": "2026-05-06 08:30:37"
      }
    },
    {
      "id": "80044001",
      "lat": 49.862253148461,
      "lon": 2.2775469819,
      "cp": "80480",
      "ville": "Dury",
      "prix": {
        "Gazole": 0.0022280000000000004,
        "E85": 0.000868,
        "E10": 0.0020350000000000004,
        "SP98": 0.002108
      },
      "maj_gouv": {
        "Gazole": "2026-05-07 09:41:15",
        "E85": "2026-05-07 09:41:15",
        "E10": "2026-05-07 09:41:15",
        "SP98": "2026-05-04 09:35:09"
      }
    },
    {
      "id": "80300006",
      "lat": 50.008,
      "lon": 2.666,
      "cp": "80300",
      "ville": "ALBERT",
      "prix": {
        "Gazole": 0.00209,
        "GPLc": 0.001031
      },
      "maj_gouv": {
        "Gazole": "2026-05-08 00:01:00",
        "GPLc": "2026-05-08 00:01:00"
      }
    },
    {
      "id": "80600005",
      "lat": 50.16,
      "lon": 2.342,
      "cp": "80600",
      "ville": "DOULLENS",
      "prix": {
        "Gazole": 0.00218,
        "E85": 0.0008179999999999999,
        "GPLc": 0.000999,
        "E10": 0.0020150000000000003,
        "SP98": 0.002115
      },
      "maj_gouv": {
        "Gazole": "2026-05-06 12:14:20",
        "E85": "2026-04-17 14:29:15",
        "GPLc": "2026-04-03 11:55:04",
        "E10": "2026-05-06 12:14:20",
        "SP98": "2026-05-06 12:14:20"
      }
    },
    {
      "id": "80000007",
      "lat": 49.908,
      "lon": 2.318,
      "cp": "80080",
      "ville": "Amiens",
      "prix": {
        "Gazole": 0.0022080000000000003,
        "E85": 0.000898,
        "E10": 0.002048,
        "SP98": 0.0021230000000000003
      },
      "maj_gouv": {
        "Gazole": "2026-05-07 10:04:00",
        "E85": "2026-05-07 10:04:00",
        "E10": "2026-05-07 10:04:00",
        "SP98": "2026-05-07 10:04:00"
      }
    },
    {
      "id": "80140005",
      "lat": 49.964,
      "lon": 1.657,
      "cp": "80140",
      "ville": "LE TRANSLAY",
      "prix": {
        "Gazole": 0.0024289999999999997,
        "GPLc": 0.0013289999999999999,
        "E10": 0.0022789999999999998,
        "SP98": 0.002449
      },
      "maj_gouv": {
        "Gazole": "2026-05-06 11:31:23",
        "GPLc": "2026-05-06 11:31:23",
        "E10": "2026-05-06 11:31:23",
        "SP98": "2026-05-06 11:31:23"
      }
    },
    {
      "id": "80190003",
      "lat": 49.983,
      "lon": 1.562,
      "cp": "80220",
      "ville": "Gamaches",
      "prix": {
        "Gazole": 0.002199,
        "SP95": 0.002069,
        "SP98": 0.002129
      },
      "maj_gouv": {
        "Gazole": "2026-05-05 09:12:55",
        "SP95": "2026-05-05 09:12:56",
        "SP98": "2026-05-05 09:12:56"
      }
    },
    {
      "id": "80200012",
      "lat": 49.889,
      "lon": 2.841,
      "cp": "80200",
      "ville": "Péronne",
      "prix": {
        "Gazole": 0.00227,
        "E85": 0.001019,
        "GPLc": 0.001206,
        "E10": 0.002078,
        "SP98": 0.002127
      },
      "maj_gouv": {
        "Gazole": "2026-05-07 11:22:19",
        "E85": "2026-05-07 11:22:19",
        "GPLc": "2026-05-07 11:22:20",
        "E10": "2026-05-07 11:22:19",
        "SP98": "2026-05-07 11:22:19"
      }
    },
    {
      "id": "80700009",
      "lat": 49.703,
      "lon": 2.781,
      "cp": "80700",
      "ville": "ROYE",
      "prix": {
        "Gazole": 0.002048,
        "E10": 0.0019479999999999999
      },
      "maj_gouv": {
        "Gazole": "2026-05-08 00:01:00",
        "E10": "2026-05-08 00:01:00"
      }
    },
    {
      "id": "80200005",
      "lat": 49.887,
      "lon": 2.837,
      "cp": "80200",
      "ville": "Péronne",
      "prix": {
        "Gazole": 0.0023039999999999996,
        "GPLc": 0.00113,
        "E10": 0.002141,
        "SP98": 0.002241
      },
      "maj_gouv": {
        "Gazole": "2026-05-07 07:41:00",
        "GPLc": "2026-05-07 07:41:00",
        "E10": "2026-05-07 07:41:00",
        "SP98": "2026-05-07 07:41:00"
      }
    },
    {
      "id": "80230003",
      "lat": 50.172,
      "lon": 1.649,
      "cp": "80230",
      "ville": "Boismont",
      "prix": {
        "Gazole": 0.0022170000000000002,
        "SP95": 0.0020800000000000003,
        "SP98": 0.0021669999999999997
      },
      "maj_gouv": {
        "Gazole": "2026-05-05 06:11:33",
        "SP95": "2026-05-05 06:11:33",
        "SP98": "2026-05-05 06:11:33"
      }
    },
    {
      "id": "80160003",
      "lat": 49.73859,
      "lon": 2.15396,
      "cp": "80160",
      "ville": "Conty",
      "prix": {
        "Gazole": 0.0022589999999999997,
        "SP95": 0.002059,
        "SP98": 0.002139
      },
      "maj_gouv": {
        "Gazole": "2026-04-29 16:26:14",
        "SP95": "2026-04-29 16:26:14",
        "SP98": "2026-04-29 16:26:14"
      }
    },
    {
      "id": "80100002",
      "lat": 50.099811078,
      "lon": 1.85638830058,
      "cp": "80100",
      "ville": "ABBEVILLE",
      "prix": {
        "Gazole": 0.002166,
        "E85": 0.0008179999999999999,
        "GPLc": 0.000999,
        "E10": 0.002039,
        "SP98": 0.002093
      },
      "maj_gouv": {
        "Gazole": "2026-05-07 07:59:17",
        "E85": "2026-05-06 08:06:34",
        "GPLc": "2026-05-04 09:42:07",
        "E10": "2026-05-06 08:06:34",
        "SP98": "2026-05-06 08:06:34"
      }
    },
    {
      "id": "80130003",
      "lat": 50.07400305217,
      "lon": 1.5369777407813,
      "cp": "80130",
      "ville": "Friville-Escarbotin",
      "prix": {
        "Gazole": 0.0021520000000000003,
        "E85": 0.000819,
        "E10": 0.001998,
        "SP98": 0.002109
      },
      "maj_gouv": {
        "Gazole": "2026-05-07 12:29:04",
        "E85": "2026-04-30 07:59:56",
        "E10": "2026-05-07 12:29:04",
        "SP98": "2026-05-07 12:29:04"
      }
    },
    {
      "id": "80430002",
      "lat": 49.842,
      "lon": 1.778,
      "cp": "80430",
      "ville": "BEAUCAMPS-LE-VIEUX",
      "prix": {
        "Gazole": 0.002241,
        "SP95": 0.00209,
        "E85": 0.000876
      },
      "maj_gouv": {
        "Gazole": "2026-05-02 08:54:18",
        "SP95": "2026-05-02 08:54:18",
        "E85": "2026-05-02 08:54:18"
      }
    },
    {
      "id": "80970003",
      "lat": 50.167,
      "lon": 1.755,
      "cp": "80970",
      "ville": "Sailly-Flibeaucourt",
      "prix": {
        "Gazole": 0.0024089999999999997,
        "GPLc": 0.0012410000000000001,
        "E10": 0.00235,
        "SP98": 0.0025
      },
      "maj_gouv": {
        "Gazole": "2026-05-07 09:30:00",
        "GPLc": "2026-05-07 09:30:00",
        "E10": "2026-05-07 09:30:00",
        "SP98": "2026-05-07 09:30:00"
      }
    },
    {
      "id": "80340003",
      "lat": 49.938,
      "lon": 2.718,
      "cp": "80340",
      "ville": "Bray-sur-Somme",
      "prix": {
        "Gazole": 0.002196
      },
      "maj_gouv": {
        "Gazole": "2026-05-05 13:43:11"
      }
    },
    {
      "id": "80170001",
      "lat": 49.826,
      "lon": 2.712,
      "cp": "80170",
      "ville": "ROSIèRES-EN-SANTERRE",
      "prix": {
        "Gazole": 0.0021939999999999998,
        "E85": 0.0008179999999999999,
        "E10": 0.002027,
        "SP98": 0.0021379999999999997
      },
      "maj_gouv": {
        "Gazole": "2026-05-05 13:31:33",
        "E85": "2026-05-05 13:31:33",
        "E10": "2026-05-07 14:50:00",
        "SP98": "2026-05-07 14:50:00"
      }
    },
    {
      "id": "80000013",
      "lat": 49.898,
      "lon": 2.292,
      "cp": "80000",
      "ville": "AMIENS",
      "prix": {
        "Gazole": 0.00209,
        "E85": 0.000869,
        "E10": 0.00199,
        "SP98": 0.00199
      },
      "maj_gouv": {
        "Gazole": "2026-05-08 00:01:00",
        "E85": "2026-05-08 00:01:00",
        "E10": "2026-05-08 00:01:00",
        "SP98": "2026-05-08 00:01:00"
      }
    },
    {
      "id": "80290006",
      "lat": 49.774,
      "lon": 1.99,
      "cp": "80290",
      "ville": "Poix-de-Picardie",
      "prix": {
        "Gazole": 0.002145,
        "E85": 0.000819,
        "E10": 0.002049,
        "SP98": 0.0021230000000000003
      },
      "maj_gouv": {
        "Gazole": "2026-05-05 08:30:00",
        "E85": "2026-04-20 19:30:00",
        "E10": "2026-05-05 08:30:00",
        "SP98": "2026-04-30 12:54:12"
      }
    },
    {
      "id": "80140003",
      "lat": 49.959236819945,
      "lon": 1.7664704551324002,
      "cp": "80140",
      "ville": "Oisemont",
      "prix": {
        "Gazole": 0.00222,
        "E85": 0.0008179999999999999,
        "E10": 0.002033,
        "SP98": 0.0021379999999999997
      },
      "maj_gouv": {
        "Gazole": "2026-05-06 09:06:30",
        "E85": "2026-04-17 10:39:08",
        "E10": "2026-05-06 09:06:30",
        "SP98": "2026-05-06 09:06:30"
      }
    },
    {
      "id": "80380001",
      "lat": 49.871,
      "lon": 2.512,
      "cp": "80800",
      "ville": "VILLERS-BRETONNEUX",
      "prix": {
        "Gazole": 0.0021880000000000003,
        "E10": 0.00199,
        "SP98": 0.00199
      },
      "maj_gouv": {
        "Gazole": "2026-05-07 17:34:39",
        "E10": "2026-05-07 17:34:39",
        "SP98": "2026-05-07 17:34:39"
      }
    },
    {
      "id": "80550001",
      "lat": 50.217,
      "lon": 1.625,
      "cp": "80550",
      "ville": "LE CROTOY",
      "prix": {
        "Gazole": 0.002235,
        "SP95": 0.002072,
        "SP98": 0.002154
      },
      "maj_gouv": {
        "Gazole": "2026-04-30 13:51:48",
        "SP95": "2026-04-29 07:42:01",
        "SP98": "2026-04-29 07:42:02"
      }
    },
    {
      "id": "80200011",
      "lat": 49.942,
      "lon": 2.941,
      "cp": "80200",
      "ville": "Péronne",
      "prix": {
        "Gazole": 0.002179,
        "E85": 0.0008179999999999999,
        "E10": 0.002059,
        "SP98": 0.002125
      },
      "maj_gouv": {
        "Gazole": "2026-05-07 08:30:00",
        "E85": "2026-04-23 07:47:03",
        "E10": "2026-05-06 07:46:11",
        "SP98": "2026-05-05 08:30:00"
      }
    },
    {
      "id": "80480002",
      "lat": 49.871,
      "lon": 2.261,
      "cp": "80480",
      "ville": "SALOUEL",
      "prix": {
        "Gazole": 0.002182,
        "E10": 0.002039
      },
      "maj_gouv": {
        "Gazole": "2026-05-07 11:25:02",
        "E10": "2026-05-07 11:25:02"
      }
    },
    {
      "id": "80210001",
      "lat": 50.06153703,
      "lon": 1.5945566500000001,
      "cp": "80210",
      "ville": "FEUQUIèRES-EN-VIMEU",
      "prix": {
        "Gazole": 0.002225,
        "SP95": 0.002085,
        "SP98": 0.002165
      },
      "maj_gouv": {
        "Gazole": "2026-05-06 09:05:31",
        "SP95": "2026-05-06 09:05:32",
        "SP98": "2026-05-06 09:05:32"
      }
    },
    {
      "id": "80560001",
      "lat": 50.072,
      "lon": 2.529,
      "cp": "80560",
      "ville": "ACHEUX-EN-AMIéNOIS",
      "prix": {
        "Gazole": 0.0022229999999999997,
        "E85": 0.0008179999999999999,
        "E10": 0.0020499999999999997,
        "SP98": 0.002153
      },
      "maj_gouv": {
        "Gazole": "2026-05-05 13:41:37",
        "E85": "2026-04-22 11:31:59",
        "E10": "2026-05-05 13:41:37",
        "SP98": "2026-05-05 13:41:37"
      }
    },
    {
      "id": "80800002",
      "lat": 49.86,
      "lon": 2.524,
      "cp": "80800",
      "ville": "VILLERS-BRETONNEUX",
      "prix": {
        "Gazole": 0.002156,
        "E85": 0.0008179999999999999,
        "E10": 0.001997,
        "SP98": 0.002111
      },
      "maj_gouv": {
        "Gazole": "2026-05-07 10:07:12",
        "E85": "2026-05-07 10:07:12",
        "E10": "2026-05-07 10:07:13",
        "SP98": "2026-05-07 10:07:13"
      }
    },
    {
      "id": "80000019",
      "lat": 49.898783540155,
      "lon": 2.2702521626495,
      "cp": "80000",
      "ville": "amiens",
      "prix": {
        "Gazole": 0.00221,
        "E10": 0.002099,
        "SP98": 0.0021190000000000002
      },
      "maj_gouv": {
        "Gazole": "2026-05-05 08:05:38",
        "E10": "2026-05-05 08:05:38",
        "SP98": "2026-05-05 08:05:38"
      }
    },
    {
      "id": "80290001",
      "lat": 49.776,
      "lon": 1.978,
      "cp": "80290",
      "ville": "POIX-DE-PICARDIE",
      "prix": {
        "Gazole": 0.002185,
        "E10": 0.0019890000000000003,
        "SP98": 0.00212
      },
      "maj_gouv": {
        "Gazole": "2026-04-28 10:59:05",
        "E10": "2026-04-28 10:59:05",
        "SP98": "2026-04-28 10:59:05"
      }
    },
    {
      "id": "80500004",
      "lat": 49.646,
      "lon": 2.573,
      "cp": "80500",
      "ville": "Montdidier",
      "prix": {
        "Gazole": 0.002176,
        "E10": 0.00199
      },
      "maj_gouv": {
        "Gazole": "2026-05-07 10:11:31",
        "E10": "2026-05-07 10:11:31"
      }
    },
    {
      "id": "80400005",
      "lat": 49.740674000000006,
      "lon": 3.090835,
      "cp": "80400",
      "ville": "HAM",
      "prix": {
        "Gazole": 0.002331,
        "E10": 0.00207,
        "SP98": 0.00211
      },
      "maj_gouv": {
        "Gazole": "2026-04-21 10:21:00",
        "E10": "2026-05-07 12:07:08",
        "SP98": "2026-05-07 12:07:08"
      }
    },
    {
      "id": "80230002",
      "lat": 50.174,
      "lon": 1.638,
      "cp": "80230",
      "ville": "Saint-Valery-sur-Somme",
      "prix": {
        "Gazole": 0.0022170000000000002,
        "E85": 0.000819,
        "E10": 0.0020299999999999997,
        "SP98": 0.0021349999999999997
      },
      "maj_gouv": {
        "Gazole": "2026-05-04 06:51:36",
        "E85": "2026-05-04 06:51:36",
        "E10": "2026-05-04 06:51:36",
        "SP98": "2026-05-04 06:51:36"
      }
    },
    {
      "id": "80000012",
      "lat": 49.871,
      "lon": 2.3,
      "cp": "80000",
      "ville": "AMIENS",
      "prix": {
        "Gazole": 0.002199,
        "E85": 0.0008179999999999999,
        "E10": 0.0020099999999999996,
        "SP98": 0.002108
      },
      "maj_gouv": {
        "Gazole": "2026-05-06 08:54:50",
        "E85": "2026-05-04 16:31:42",
        "E10": "2026-05-06 08:54:51",
        "SP98": "2026-05-06 08:54:51"
      }
    },
    {
      "id": "80210002",
      "lat": 50.063,
      "lon": 1.605,
      "cp": "80210",
      "ville": "FEUQUIèRES-EN-VIMEU",
      "prix": {
        "Gazole": 0.002186,
        "E85": 0.000859,
        "E10": 0.00199
      },
      "maj_gouv": {
        "Gazole": "2026-05-07 07:31:03",
        "E85": "2026-05-07 07:31:04",
        "E10": "2026-05-07 07:31:04"
      }
    },
    {
      "id": "80410005",
      "lat": 50.181785861603004,
      "lon": 1.4943816717326999,
      "cp": "80410",
      "ville": "Cayeux-sur-mer",
      "prix": {
        "Gazole": 0.002229,
        "SP95": 0.002079,
        "SP98": 0.002159
      },
      "maj_gouv": {
        "Gazole": "2026-05-05 19:54:14",
        "SP95": "2026-05-05 19:54:14",
        "SP98": "2026-05-05 19:54:14"
      }
    },
    {
      "id": "80250001",
      "lat": 49.750488813391,
      "lon": 2.359071858947,
      "cp": "80250",
      "ville": "AILLY-SUR-NOYE",
      "prix": {
        "Gazole": 0.002199,
        "E85": 0.0008179999999999999,
        "E10": 0.0020099999999999996,
        "SP98": 0.002108
      },
      "maj_gouv": {
        "Gazole": "2026-05-06 09:38:19",
        "E85": "2026-05-04 09:20:25",
        "E10": "2026-05-06 09:38:19",
        "SP98": "2026-05-06 09:38:20"
      }
    },
    {
      "id": "80800006",
      "lat": 49.898,
      "lon": 2.494,
      "cp": "80800",
      "ville": "FOUILLOY",
      "prix": {
        "Gazole": 0.0021379999999999997,
        "E85": 0.0008179999999999999,
        "E10": 0.001967,
        "SP98": 0.00207
      },
      "maj_gouv": {
        "Gazole": "2026-05-06 06:39:39",
        "E85": "2026-04-18 09:06:16",
        "E10": "2026-05-06 06:39:39",
        "SP98": "2026-05-06 06:39:39"
      }
    },
    {
      "id": "80000014",
      "lat": 49.91144285,
      "lon": 2.2519769899999997,
      "cp": "80000",
      "ville": "AMIENS",
      "prix": {
        "Gazole": 0.002196,
        "E85": 0.0008179999999999999,
        "E10": 0.002009,
        "SP98": 0.002114
      },
      "maj_gouv": {
        "Gazole": "2026-05-06 06:46:26",
        "E85": "2026-05-06 06:46:27",
        "E10": "2026-05-07 07:41:01",
        "SP98": "2026-05-06 06:46:27"
      }
    },
    {
      "id": "80190002",
      "lat": 49.764,
      "lon": 2.921,
      "cp": "80190",
      "ville": "NESLE",
      "prix": {
        "Gazole": 0.002226,
        "E10": 0.0020009999999999997,
        "SP98": 0.002115
      },
      "maj_gouv": {
        "Gazole": "2026-05-04 15:41:27",
        "E10": "2026-05-07 14:27:23",
        "SP98": "2026-05-07 14:27:23"
      }
    },
    {
      "id": "80480001",
      "lat": 49.87,
      "lon": 2.241,
      "cp": "80480",
      "ville": "Salouël",
      "prix": {
        "Gazole": 0.002226,
        "E10": 0.002039,
        "SP98": 0.0021190000000000002
      },
      "maj_gouv": {
        "Gazole": "2026-05-05 11:26:00",
        "E10": "2026-05-05 11:26:00",
        "SP98": "2026-05-05 11:26:00"
      }
    },
    {
      "id": "80000009",
      "lat": 49.882,
      "lon": 2.327,
      "cp": "80090",
      "ville": "Amiens",
      "prix": {
        "Gazole": 0.002219,
        "E10": 0.0020299999999999997,
        "SP98": 0.0021230000000000003
      },
      "maj_gouv": {
        "Gazole": "2026-05-07 10:04:00",
        "E10": "2026-05-07 10:04:00",
        "SP98": "2026-05-07 10:04:00"
      }
    },
    {
      "id": "80100010",
      "lat": 50.113,
      "lon": 1.829,
      "cp": "80100",
      "ville": "ABBEVILLE",
      "prix": {
        "Gazole": 0.002025,
        "E10": 0.001941,
        "SP98": 0.00199
      },
      "maj_gouv": {
        "Gazole": "2026-05-08 00:01:00",
        "E10": "2026-05-08 00:01:00",
        "SP98": "2026-05-08 00:01:00"
      }
    },
    {
      "id": "80320004",
      "lat": 49.816,
      "lon": 2.803,
      "cp": "80320",
      "ville": "CHAULNES",
      "prix": {
        "Gazole": 0.002229,
        "E10": 0.002049,
        "SP98": 0.002189
      },
      "maj_gouv": {
        "Gazole": "2026-05-05 07:29:07",
        "E10": "2026-05-05 07:29:08",
        "SP98": "2026-05-05 07:29:08"
      }
    },
    {
      "id": "80400004",
      "lat": 49.73,
      "lon": 3.067,
      "cp": "80400",
      "ville": "MUILLE-VILLETTE",
      "prix": {
        "Gazole": 0.0022240000000000003,
        "E85": 0.000819,
        "E10": 0.0020659999999999997,
        "SP98": 0.0021019999999999997
      },
      "maj_gouv": {
        "Gazole": "2026-05-08 01:16:00",
        "E85": "2026-05-08 01:16:00",
        "E10": "2026-05-08 01:16:00",
        "SP98": "2026-05-08 01:16:00"
      }
    },
    {
      "id": "80700004",
      "lat": 49.708,
      "lon": 2.775,
      "cp": "80700",
      "ville": "ROYE",
      "prix": {
        "Gazole": 0.002216,
        "E85": 0.000819,
        "SP98": 0.002095
      },
      "maj_gouv": {
        "Gazole": "2026-05-04 09:21:21",
        "E85": "2026-04-16 08:26:20",
        "SP98": "2026-05-02 07:32:00"
      }
    },
    {
      "id": "80220003",
      "lat": 49.93908,
      "lon": 1.62364,
      "cp": "80220",
      "ville": "Bouttencourt",
      "prix": {
        "Gazole": 0.002189,
        "SP95": 0.0020659999999999997,
        "SP98": 0.0021219999999999998
      },
      "maj_gouv": {
        "Gazole": "2026-05-06 09:21:39",
        "SP95": "2026-05-02 09:18:28",
        "SP98": "2026-05-02 09:18:48"
      }
    },
    {
      "id": "80800004",
      "lat": 49.908,
      "lon": 2.51,
      "cp": "80800",
      "ville": "CORBIE",
      "prix": {
        "Gazole": 0.0021379999999999997,
        "E10": 0.001967,
        "SP98": 0.00207
      },
      "maj_gouv": {
        "Gazole": "2026-05-06 09:14:07",
        "E10": "2026-05-06 09:14:07",
        "SP98": "2026-05-06 09:14:07"
      }
    },
    {
      "id": "80220001",
      "lat": 49.984,
      "lon": 1.574,
      "cp": "80220",
      "ville": "GAMACHES",
      "prix": {
        "Gazole": 0.00225,
        "SP95": 0.00199
      },
      "maj_gouv": {
        "Gazole": "2026-05-07 13:51:04",
        "SP95": "2026-05-07 13:51:04"
      }
    },
    {
      "id": "80190001",
      "lat": 49.76,
      "lon": 2.914,
      "cp": "80190",
      "ville": "NESLE",
      "prix": {
        "Gazole": 0.002214,
        "E10": 0.00199,
        "SP98": 0.00199
      },
      "maj_gouv": {
        "Gazole": "2026-05-07 18:07:32",
        "E10": "2026-05-07 18:07:32",
        "SP98": "2026-05-07 18:07:32"
      }
    },
    {
      "id": "80350001",
      "lat": 50.06042884107,
      "lon": 1.4106608204000002,
      "cp": "80350",
      "ville": "Mers-les-Bains",
      "prix": {
        "Gazole": 0.002189,
        "GPLc": 0.0010500000000000002,
        "E10": 0.001999,
        "SP98": 0.002079
      },
      "maj_gouv": {
        "Gazole": "2026-04-30 09:03:00",
        "GPLc": "2026-04-21 14:20:16",
        "E10": "2026-04-30 09:03:00",
        "SP98": "2026-04-28 09:05:00"
      }
    },
    {
      "id": "80290009",
      "lat": 49.767,
      "lon": 1.801,
      "cp": "80290",
      "ville": "Morvillers-Saint-Saturnin",
      "prix": {
        "Gazole": 0.002191,
        "E10": 0.00199,
        "SP98": 0.00199
      },
      "maj_gouv": {
        "Gazole": "2026-05-07 07:57:57",
        "E10": "2026-05-07 07:57:58",
        "SP98": "2026-05-07 07:57:58"
      }
    },
    {
      "id": "80600003",
      "lat": 50.162,
      "lon": 2.355,
      "cp": "80600",
      "ville": "DOULLENS",
      "prix": {
        "Gazole": 0.002181,
        "E10": 0.00199,
        "SP98": 0.00199
      },
      "maj_gouv": {
        "Gazole": "2026-05-07 07:09:29",
        "E10": "2026-05-07 07:09:29",
        "SP98": "2026-05-07 07:09:29"
      }
    },
    {
      "id": "80230006",
      "lat": 50.173,
      "lon": 1.656,
      "cp": "80230",
      "ville": "SAINT VALERY SUR SOMME",
      "prix": {
        "Gazole": 0.00218,
        "E10": 0.00199,
        "SP98": 0.00199
      },
      "maj_gouv": {
        "Gazole": "2026-05-07 07:29:22",
        "E10": "2026-05-07 07:29:23",
        "SP98": "2026-05-07 07:29:23"
      }
    },
    {
      "id": "80730001",
      "lat": 49.914,
      "lon": 2.235,
      "cp": "80470",
      "ville": "DREUIL-LèS-AMIENS",
      "prix": {
        "E10": 0.00199,
        "SP98": 0.00199
      },
      "maj_gouv": {
        "E10": "2026-05-06 11:26:52",
        "SP98": "2026-05-06 11:26:52"
      }
    },
    {
      "id": "80160004",
      "lat": 49.741,
      "lon": 2.152,
      "cp": "80160",
      "ville": "Conty",
      "prix": {
        "Gazole": 0.0022299999999999998,
        "E85": 0.0010500000000000002
      },
      "maj_gouv": {
        "Gazole": "2026-04-23 08:30:42",
        "E85": "2026-04-23 08:30:42"
      }
    },
    {
      "id": "80480004",
      "lat": 49.86,
      "lon": 2.274,
      "cp": "80480",
      "ville": "Dury",
      "prix": {
        "Gazole": 0.00209,
        "E85": 0.000862,
        "E10": 0.00199
      },
      "maj_gouv": {
        "Gazole": "2026-05-08 00:00:00",
        "E85": "2026-04-30 09:13:17",
        "E10": "2026-05-08 00:00:00"
      }
    },
    {
      "id": "80800007",
      "lat": 49.862884,
      "lon": 2.52134,
      "cp": "80800",
      "ville": "VILLERS-BRETONNEUX",
      "prix": {
        "Gazole": 0.002274,
        "GPLc": 0.001064,
        "E10": 0.0021219999999999998,
        "SP98": 0.0021880000000000003
      },
      "maj_gouv": {
        "Gazole": "2026-05-05 11:14:46",
        "GPLc": "2026-05-05 11:14:46",
        "E10": "2026-05-05 11:14:46",
        "SP98": "2026-05-05 11:14:46"
      }
    },
    {
      "id": "80150003",
      "lat": 50.251767199999996,
      "lon": 1.8843509,
      "cp": "80150",
      "ville": "Crécy-en-Ponthieu",
      "prix": {
        "Gazole": 0.002229,
        "SP95": 0.002069,
        "SP98": 0.002159
      },
      "maj_gouv": {
        "Gazole": "2026-05-04 11:56:11",
        "SP95": "2026-05-04 11:56:11",
        "SP98": "2026-05-04 11:56:12"
      }
    },
    {
      "id": "80510004",
      "lat": 50.029,
      "lon": 1.943,
      "cp": "80510",
      "ville": "Longpré-les-Corps-Saints",
      "prix": {
        "Gazole": 0.0022389999999999997,
        "E85": 0.000859,
        "E10": 0.002049,
        "SP98": 0.002199
      },
      "maj_gouv": {
        "Gazole": "2026-05-05 07:03:25",
        "E85": "2026-05-05 07:03:25",
        "E10": "2026-05-05 07:03:25",
        "SP98": "2026-05-05 07:03:26"
      }
    },
    {
      "id": "80140006",
      "lat": 49.962,
      "lon": 1.665,
      "cp": "80140",
      "ville": "Le Translay",
      "prix": {
        "Gazole": 0.002399,
        "GPLc": 0.0013289999999999999,
        "E10": 0.002249,
        "SP98": 0.0023490000000000004
      },
      "maj_gouv": {
        "Gazole": "2026-05-07 18:16:23",
        "GPLc": "2026-05-07 18:16:23",
        "E10": "2026-05-07 18:16:22",
        "SP98": "2026-05-07 18:16:22"
      }
    },
    {
      "id": "80150004",
      "lat": 50.20305,
      "lon": 1.95771,
      "cp": "80150",
      "ville": "Brailly-cornehotte",
      "prix": {
        "Gazole": 0.00225,
        "E10": 0.00199
      },
      "maj_gouv": {
        "Gazole": "2026-05-07 09:51:23",
        "E10": "2026-05-07 09:51:23"
      }
    },
    {
      "id": "80270003",
      "lat": 49.962994017723,
      "lon": 1.9435411088213,
      "cp": "80270",
      "ville": "AIRAINES",
      "prix": {
        "Gazole": 0.002219,
        "SP95": 0.00199
      },
      "maj_gouv": {
        "Gazole": "2026-04-14 15:23:52",
        "SP95": "2026-04-14 15:23:52"
      }
    }
  ]
}