{
  "departement": "05",
  "date": "2026-06-08",
  "stations": [
    {
      "id": "5100009",
      "lat": 44.934,
      "lon": 6.733,
      "cp": "05100",
      "ville": "Montgenèvre",
      "prix": {
        "Gazole": 0.002039,
        "E85": 0.0008900000000000001,
        "E10": 0.002039,
        "SP98": 0.00215
      },
      "maj_gouv": {
        "Gazole": "2026-06-04 13:12:10",
        "E85": "2026-06-04 13:12:10",
        "E10": "2026-06-04 13:12:10",
        "SP98": "2026-06-04 13:12:10"
      }
    },
    {
      "id": "5000019",
      "lat": 44.57,
      "lon": 6.105,
      "cp": "05000",
      "ville": "Gap",
      "prix": {
        "Gazole": 0.001965,
        "GPLc": 0.001029,
        "E10": 0.0019450000000000001,
        "SP98": 0.002029
      },
      "maj_gouv": {
        "Gazole": "2026-06-04 09:46:17",
        "GPLc": "2026-06-04 09:46:17",
        "E10": "2026-06-04 09:46:18",
        "SP98": "2026-06-04 09:46:18"
      }
    },
    {
      "id": "5230008",
      "lat": 44.551639379107996,
      "lon": 6.255590835903001,
      "cp": "05230",
      "ville": "CHORGES",
      "prix": {
        "Gazole": 0.001983,
        "E10": 0.0019010000000000001
      },
      "maj_gouv": {
        "Gazole": "2026-06-08 00:01:00",
        "E10": "2026-06-08 00:01:00"
      }
    },
    {
      "id": "5230007",
      "lat": 44.552,
      "lon": 6.256,
      "cp": "05230",
      "ville": "CHORGES",
      "prix": {
        "Gazole": 0.001983,
        "E85": 0.000839,
        "E10": 0.0019010000000000001,
        "SP98": 0.00199
      },
      "maj_gouv": {
        "Gazole": "2026-06-08 00:01:00",
        "E85": "2026-06-08 00:01:00",
        "E10": "2026-06-08 00:01:00",
        "SP98": "2026-06-08 00:01:00"
      }
    },
    {
      "id": "5560002",
      "lat": 44.606,
      "lon": 6.689,
      "cp": "05560",
      "ville": "VARS",
      "prix": {
        "Gazole": 0.002099,
        "SP95": 0.002109,
        "SP98": 0.002139
      },
      "maj_gouv": {
        "Gazole": "2026-06-03 09:14:27",
        "SP95": "2026-06-03 09:14:27",
        "SP98": "2026-06-03 09:14:27"
      }
    },
    {
      "id": "5200004",
      "lat": 44.538,
      "lon": 6.497,
      "cp": "05200",
      "ville": "Baratier",
      "prix": {
        "Gazole": 0.002039,
        "E85": 0.000798,
        "E10": 0.001949,
        "SP98": 0.002039
      },
      "maj_gouv": {
        "Gazole": "2026-06-05 09:58:59",
        "E85": "2026-05-15 10:11:16",
        "E10": "2026-06-05 09:58:59",
        "SP98": "2026-06-05 09:58:59"
      }
    },
    {
      "id": "5700002",
      "lat": 44.435,
      "lon": 5.713,
      "cp": "05700",
      "ville": "Serres",
      "prix": {
        "Gazole": 0.002038,
        "SP95": 0.002058,
        "SP98": 0.002088
      },
      "maj_gouv": {
        "Gazole": "2026-06-05 15:28:03",
        "SP95": "2026-06-05 15:28:03",
        "SP98": "2026-06-05 15:28:03"
      }
    },
    {
      "id": "5400003",
      "lat": 44.537,
      "lon": 5.835,
      "cp": "05400",
      "ville": "Veynes",
      "prix": {
        "Gazole": 0.002059,
        "E10": 0.002069,
        "SP98": 0.002149
      },
      "maj_gouv": {
        "Gazole": "2026-05-30 21:05:06",
        "E10": "2026-05-30 21:05:06",
        "SP98": "2026-05-28 12:03:21"
      }
    },
    {
      "id": "5600006",
      "lat": 44.660867125097,
      "lon": 6.653216819505,
      "cp": "05600",
      "ville": "GUILLESTRE",
      "prix": {
        "Gazole": 0.002033,
        "SP95": 0.001996,
        "E10": 0.00195,
        "SP98": 0.0020800000000000003
      },
      "maj_gouv": {
        "Gazole": "2026-06-05 10:30:32",
        "SP95": "2026-06-05 10:30:32",
        "E10": "2026-06-05 10:30:32",
        "SP98": "2026-06-05 10:30:32"
      }
    },
    {
      "id": "5240004",
      "lat": 44.948,
      "lon": 6.559,
      "cp": "05240",
      "ville": "la salle les alpes",
      "prix": {
        "Gazole": 0.00225,
        "E10": 0.00199,
        "SP98": 0.00199
      },
      "maj_gouv": {
        "Gazole": "2026-04-17 20:32:56",
        "E10": "2026-04-10 19:31:04",
        "SP98": "2026-04-10 19:31:04"
      }
    },
    {
      "id": "5400004",
      "lat": 44.5373983,
      "lon": 5.834620999999999,
      "cp": "05400",
      "ville": "VEYNES",
      "prix": {
        "Gazole": 0.002029,
        "SP95": 0.002039
      },
      "maj_gouv": {
        "Gazole": "2026-06-02 12:41:44",
        "SP95": "2026-06-02 12:41:44"
      }
    },
    {
      "id": "5130004",
      "lat": 44.458,
      "lon": 6.05,
      "cp": "05130",
      "ville": "TALLARD",
      "prix": {
        "Gazole": 0.002079,
        "E85": 0.000829,
        "E10": 0.002069,
        "SP98": 0.002149
      },
      "maj_gouv": {
        "Gazole": "2026-06-02 10:28:02",
        "E85": "2026-04-24 08:33:49",
        "E10": "2026-06-02 10:28:02",
        "SP98": "2026-06-02 10:28:02"
      }
    },
    {
      "id": "5000017",
      "lat": 44.54104,
      "lon": 6.05755,
      "cp": "05000",
      "ville": "GAP",
      "prix": {
        "Gazole": 0.002065,
        "E85": 0.0008539999999999999,
        "GPLc": 0.001029,
        "E10": 0.001981,
        "SP98": 0.00199
      },
      "maj_gouv": {
        "Gazole": "2026-06-08 00:01:00",
        "E85": "2026-06-08 00:01:00",
        "GPLc": "2026-06-08 00:01:00",
        "E10": "2026-06-08 00:01:00",
        "SP98": "2026-06-08 00:01:00"
      }
    },
    {
      "id": "5700001",
      "lat": 44.428,
      "lon": 5.717,
      "cp": "05700",
      "ville": "SERRES",
      "prix": {
        "Gazole": 0.001999,
        "E10": 0.002019,
        "SP98": 0.002089
      },
      "maj_gouv": {
        "Gazole": "2026-06-04 14:33:31",
        "E10": "2026-06-04 14:33:31",
        "SP98": "2026-06-04 14:33:32"
      }
    },
    {
      "id": "5130002",
      "lat": 44.459599636027,
      "lon": 6.0351392063597995,
      "cp": "05130",
      "ville": "Tallard",
      "prix": {
        "Gazole": 0.001992,
        "E85": 0.000819,
        "E10": 0.0018839999999999998,
        "SP98": 0.001998
      },
      "maj_gouv": {
        "Gazole": "2026-06-05 10:04:24",
        "E85": "2026-05-05 17:02:40",
        "E10": "2026-06-05 10:04:25",
        "SP98": "2026-06-05 10:04:25"
      }
    },
    {
      "id": "5120003",
      "lat": 44.853,
      "lon": 6.582,
      "cp": "05120",
      "ville": "Saint-Martin-de-Queyrières",
      "prix": {
        "Gazole": 0.002039,
        "SP95": 0.0020870000000000003,
        "E10": 0.002039
      },
      "maj_gouv": {
        "Gazole": "2026-06-04 13:07:46",
        "SP95": "2026-06-04 13:07:47",
        "E10": "2026-06-04 13:07:47"
      }
    },
    {
      "id": "5200007",
      "lat": 44.56,
      "lon": 6.487,
      "cp": "05200",
      "ville": "EMBRUN",
      "prix": {
        "Gazole": 0.002089,
        "SP95": 0.002059,
        "SP98": 0.0021190000000000002
      },
      "maj_gouv": {
        "Gazole": "2026-06-02 18:00:00",
        "SP95": "2026-06-02 18:00:00",
        "SP98": "2026-06-02 18:00:00"
      }
    },
    {
      "id": "5000008",
      "lat": 44.564,
      "lon": 6.084,
      "cp": "05000",
      "ville": "Gap",
      "prix": {
        "Gazole": 0.001998,
        "E10": 0.001944,
        "SP98": 0.002053
      },
      "maj_gouv": {
        "Gazole": "2026-06-05 07:38:51",
        "E10": "2026-06-05 07:38:51",
        "SP98": "2026-06-05 07:38:51"
      }
    },
    {
      "id": "5100008",
      "lat": 44.903718328593996,
      "lon": 6.6290858578086,
      "cp": "05100",
      "ville": "BRIANCON",
      "prix": {
        "Gazole": 0.001998,
        "E85": 0.000853,
        "GPLc": 0.001099,
        "E10": 0.001918,
        "SP98": 0.00199
      },
      "maj_gouv": {
        "Gazole": "2026-06-08 00:01:00",
        "E85": "2026-06-08 00:01:00",
        "GPLc": "2026-06-08 00:01:00",
        "E10": "2026-06-08 00:01:00",
        "SP98": "2026-06-08 00:01:00"
      }
    },
    {
      "id": "5260002",
      "lat": 44.643941,
      "lon": 6.136964,
      "cp": "05260",
      "ville": "Forest-Saint-Julien",
      "prix": {
        "Gazole": 0.0020299999999999997,
        "SP95": 0.00209,
        "SP98": 0.00213
      },
      "maj_gouv": {
        "Gazole": "2026-06-02 14:00:31",
        "SP95": "2026-06-02 14:00:31",
        "SP98": "2026-06-02 14:00:31"
      }
    },
    {
      "id": "5200001",
      "lat": 44.551,
      "lon": 6.489,
      "cp": "05200",
      "ville": "Embrun",
      "prix": {
        "Gazole": 0.0020099999999999996,
        "SP95": 0.0020150000000000003,
        "E85": 0.000789,
        "E10": 0.0019479999999999999,
        "SP98": 0.002033
      },
      "maj_gouv": {
        "Gazole": "2026-06-05 15:13:36",
        "SP95": "2026-06-04 09:38:09",
        "E85": "2026-05-11 08:53:38",
        "E10": "2026-06-05 15:13:36",
        "SP98": "2026-06-05 15:13:36"
      }
    },
    {
      "id": "5160001",
      "lat": 44.525,
      "lon": 6.408,
      "cp": "05160",
      "ville": "SAVINES-LE-LAC",
      "prix": {
        "Gazole": 0.0020099999999999996,
        "E10": 0.0019479999999999999,
        "SP98": 0.002033
      },
      "maj_gouv": {
        "Gazole": "2026-06-05 15:17:16",
        "E10": "2026-06-05 15:17:16",
        "SP98": "2026-06-05 15:17:16"
      }
    },
    {
      "id": "5240003",
      "lat": 44.942,
      "lon": 6.569,
      "cp": "05240",
      "ville": "La Salle-les-Alpes",
      "prix": {
        "Gazole": 0.002029,
        "SP95": 0.002009,
        "SP98": 0.002045
      },
      "maj_gouv": {
        "Gazole": "2026-06-02 09:33:55",
        "SP95": "2026-06-02 09:33:55",
        "SP98": "2026-06-02 09:33:56"
      }
    },
    {
      "id": "5220001",
      "lat": 44.972,
      "lon": 6.519,
      "cp": "05220",
      "ville": "Le Monêtier-les-Bains",
      "prix": {
        "Gazole": 0.002039,
        "SP95": 0.0020870000000000003,
        "E10": 0.002039
      },
      "maj_gouv": {
        "Gazole": "2026-06-04 13:09:43",
        "SP95": "2026-06-04 13:09:43",
        "E10": "2026-06-04 13:09:43"
      }
    },
    {
      "id": "5350001",
      "lat": 44.759,
      "lon": 6.808,
      "cp": "05350",
      "ville": "Château-ville-vieille",
      "prix": {
        "Gazole": 0.00219,
        "SP95": 0.0022299999999999998,
        "SP98": 0.0022400000000000002
      },
      "maj_gouv": {
        "Gazole": "2026-06-05 10:00:31",
        "SP95": "2026-05-22 08:54:02",
        "SP98": "2026-05-22 08:37:00"
      }
    },
    {
      "id": "5600005",
      "lat": 44.672,
      "lon": 6.618,
      "cp": "05600",
      "ville": "EYGLIERS",
      "prix": {
        "Gazole": 0.002012,
        "SP95": 0.002009,
        "E10": 0.001939,
        "SP98": 0.002039
      },
      "maj_gouv": {
        "Gazole": "2026-06-05 08:12:34",
        "SP95": "2026-06-05 08:12:34",
        "E10": "2026-06-05 08:12:34",
        "SP98": "2026-06-05 08:12:35"
      }
    },
    {
      "id": "5000010",
      "lat": 44.544,
      "lon": 6.061,
      "cp": "05000",
      "ville": "GAP",
      "prix": {
        "Gazole": 0.001974,
        "E10": 0.001954,
        "SP98": 0.002034
      },
      "maj_gouv": {
        "Gazole": "2026-06-04 00:30:00",
        "E10": "2026-06-04 00:30:00",
        "SP98": "2026-06-04 00:30:00"
      }
    },
    {
      "id": "5000018",
      "lat": 44.559,
      "lon": 6.074,
      "cp": "05000",
      "ville": "GAP",
      "prix": {
        "Gazole": 0.002065,
        "E85": 0.000859,
        "E10": 0.001981,
        "SP98": 0.00199
      },
      "maj_gouv": {
        "Gazole": "2026-06-08 00:01:00",
        "E85": "2026-06-08 00:01:00",
        "E10": "2026-06-08 00:01:00",
        "SP98": "2026-06-08 00:01:00"
      }
    },
    {
      "id": "5400002",
      "lat": 44.53627,
      "lon": 5.83174,
      "cp": "05400",
      "ville": "VEYNES",
      "prix": {
        "Gazole": 0.0019690000000000003,
        "SP95": 0.001999,
        "E85": 0.000799,
        "E10": 0.0019690000000000003
      },
      "maj_gouv": {
        "Gazole": "2026-06-02 08:00:00",
        "SP95": "2026-06-02 08:00:00",
        "E85": "2026-05-21 10:10:45",
        "E10": "2026-06-02 08:00:00"
      }
    },
    {
      "id": "5120002",
      "lat": 44.7929320359,
      "lon": 6.55974685925,
      "cp": "05120",
      "ville": "L'Argentière-la-Bessée",
      "prix": {
        "Gazole": 0.001999,
        "SP95": 0.001999,
        "E10": 0.001939
      },
      "maj_gouv": {
        "Gazole": "2026-06-06 11:59:16",
        "SP95": "2026-06-06 11:59:16",
        "E10": "2026-06-06 11:59:16"
      }
    },
    {
      "id": "5230003",
      "lat": 44.54758,
      "lon": 6.26906,
      "cp": "05230",
      "ville": "Chorges",
      "prix": {
        "Gazole": 0.002039,
        "E85": 0.000798,
        "E10": 0.001949,
        "SP98": 0.002039
      },
      "maj_gouv": {
        "Gazole": "2026-06-05 09:08:56",
        "E85": "2026-06-03 09:46:18",
        "E10": "2026-06-05 09:08:56",
        "SP98": "2026-06-05 09:08:56"
      }
    },
    {
      "id": "5300001",
      "lat": 44.31,
      "lon": 5.832,
      "cp": "05300",
      "ville": "LARAGNE-MONTéGLIN",
      "prix": {
        "Gazole": 0.002084,
        "E10": 0.00199,
        "SP98": 0.00199
      },
      "maj_gouv": {
        "Gazole": "2026-06-06 06:59:46",
        "E10": "2026-06-06 06:59:46",
        "SP98": "2026-06-06 06:59:46"
      }
    },
    {
      "id": "5200009",
      "lat": 44.5383637,
      "lon": 6.492036,
      "cp": "05200",
      "ville": "BARATIER",
      "prix": {
        "SP98": 0.0019790000000000003
      },
      "maj_gouv": {
        "SP98": "2026-06-01 08:56:00"
      }
    },
    {
      "id": "5000006",
      "lat": 44.564,
      "lon": 6.094,
      "cp": "05000",
      "ville": "Gap",
      "prix": {
        "Gazole": 0.0019690000000000003,
        "E85": 0.0008489999999999999,
        "E10": 0.001949,
        "SP98": 0.002049
      },
      "maj_gouv": {
        "Gazole": "2026-06-02 10:56:39",
        "E85": "2026-04-14 08:19:25",
        "E10": "2026-06-05 10:55:30",
        "SP98": "2026-06-05 10:55:30"
      }
    },
    {
      "id": "5100004",
      "lat": 44.881945470799,
      "lon": 6.6233677839846,
      "cp": "05100",
      "ville": "BRIANCON",
      "prix": {
        "Gazole": 0.002021,
        "SP95": 0.002118,
        "E85": 0.000819,
        "SP98": 0.002128
      },
      "maj_gouv": {
        "Gazole": "2026-06-06 06:41:27",
        "SP95": "2026-06-06 06:41:27",
        "E85": "2026-06-06 06:41:27",
        "SP98": "2026-06-06 06:41:27"
      }
    },
    {
      "id": "5500002",
      "lat": 44.675773217151,
      "lon": 6.075892485075101,
      "cp": "05500",
      "ville": "Saint-Bonnet-en-Champsaur",
      "prix": {
        "Gazole": 0.001999,
        "SP95": 0.002029
      },
      "maj_gouv": {
        "Gazole": "2026-06-06 14:16:21",
        "SP95": "2026-06-06 14:16:22"
      }
    },
    {
      "id": "5300003",
      "lat": 44.303463800205,
      "lon": 5.837489416061801,
      "cp": "05300",
      "ville": "LARAGNE-MONTéGLIN",
      "prix": {
        "Gazole": 0.001965,
        "E10": 0.002019,
        "SP98": 0.002109
      },
      "maj_gouv": {
        "Gazole": "2026-06-03 09:38:38",
        "E10": "2026-06-01 14:08:56",
        "SP98": "2026-06-01 14:08:56"
      }
    },
    {
      "id": "5260001",
      "lat": 44.64668,
      "lon": 6.18157,
      "cp": "05260",
      "ville": "Chabottes",
      "prix": {
        "Gazole": 0.002069,
        "E10": 0.00199,
        "SP98": 0.00199
      },
      "maj_gouv": {
        "Gazole": "2026-06-04 07:35:03",
        "E10": "2026-04-08 06:07:46",
        "SP98": "2026-04-08 06:07:46"
      }
    },
    {
      "id": "5000005",
      "lat": 44.545,
      "lon": 6.066,
      "cp": "05000",
      "ville": "Gap",
      "prix": {
        "Gazole": 0.001965,
        "E10": 0.0019450000000000001,
        "SP98": 0.002054
      },
      "maj_gouv": {
        "Gazole": "2026-06-02 08:57:42",
        "E10": "2026-06-03 09:40:37",
        "SP98": "2026-06-01 12:27:54"
      }
    },
    {
      "id": "5300005",
      "lat": 44.311,
      "lon": 5.823,
      "cp": "05300",
      "ville": "LARAGNE MONTEGLIN",
      "prix": {
        "Gazole": 0.00197,
        "E85": 0.000798,
        "E10": 0.002019
      },
      "maj_gouv": {
        "Gazole": "2026-06-04 08:26:25",
        "E85": "2026-05-24 09:35:02",
        "E10": "2026-06-01 15:05:51"
      }
    },
    {
      "id": "5600002",
      "lat": 44.661,
      "lon": 6.618,
      "cp": "05600",
      "ville": "GUILLESTRE",
      "prix": {
        "Gazole": 0.00197,
        "SP95": 0.002009,
        "SP98": 0.002039
      },
      "maj_gouv": {
        "Gazole": "2026-06-05 08:11:48",
        "SP95": "2026-06-05 08:11:48",
        "SP98": "2026-06-05 08:11:48"
      }
    },
    {
      "id": "5190002",
      "lat": 44.467,
      "lon": 6.179,
      "cp": "05190",
      "ville": "Remollon",
      "prix": {
        "Gazole": 0.002029,
        "E85": 0.000819,
        "GPLc": 0.001099,
        "E10": 0.001999,
        "SP98": 0.002069
      },
      "maj_gouv": {
        "Gazole": "2026-06-05 13:19:40",
        "E85": "2026-05-13 08:14:27",
        "GPLc": "2026-04-03 19:18:10",
        "E10": "2026-06-04 17:29:32",
        "SP98": "2026-06-05 13:19:40"
      }
    },
    {
      "id": "5200005",
      "lat": 44.546,
      "lon": 6.481,
      "cp": "05200",
      "ville": "BARATIER",
      "prix": {
        "GPLc": 0.00116
      },
      "maj_gouv": {
        "GPLc": "2026-05-18 09:46:24"
      }
    }
  ]
}