{
  "departement": "08",
  "date": "2026-06-08",
  "stations": [
    {
      "id": "8150003",
      "lat": 49.833628,
      "lon": 4.603904,
      "cp": "08150",
      "ville": "RENWEZ",
      "prix": {
        "Gazole": 0.00209,
        "SP95": 0.00199
      },
      "maj_gouv": {
        "Gazole": "2026-06-02 09:54:17",
        "SP95": "2026-06-01 14:22:38"
      }
    },
    {
      "id": "8090001",
      "lat": 49.805,
      "lon": 4.621,
      "cp": "08090",
      "ville": "Cliron",
      "prix": {
        "Gazole": 0.002034,
        "E10": 0.002004,
        "SP98": 0.0021680000000000002
      },
      "maj_gouv": {
        "Gazole": "2026-06-04 11:20:00",
        "E10": "2026-06-04 11:20:00",
        "SP98": "2026-06-04 11:20:00"
      }
    },
    {
      "id": "8330002",
      "lat": 49.735,
      "lon": 4.85,
      "cp": "08330",
      "ville": "VRIGNE-AUX-BOIS",
      "prix": {
        "Gazole": 0.002089,
        "SP95": 0.002079,
        "SP98": 0.002129
      },
      "maj_gouv": {
        "Gazole": "2026-06-02 17:41:27",
        "SP95": "2026-06-02 17:41:27",
        "SP98": "2026-06-02 17:41:27"
      }
    },
    {
      "id": "8130003",
      "lat": 49.47872,
      "lon": 4.57662,
      "cp": "08130",
      "ville": "Attigny",
      "prix": {
        "Gazole": 0.00204,
        "SP95": 0.00202,
        "E85": 0.00088
      },
      "maj_gouv": {
        "Gazole": "2026-06-06 08:42:46",
        "SP95": "2026-06-06 08:42:46",
        "E85": "2026-05-16 09:51:43"
      }
    },
    {
      "id": "8210001",
      "lat": 49.61023,
      "lon": 5.07788,
      "cp": "08210",
      "ville": "MOUZON",
      "prix": {
        "Gazole": 0.002166,
        "E10": 0.002132,
        "SP98": 0.002264
      },
      "maj_gouv": {
        "Gazole": "2026-05-28 06:55:18",
        "E10": "2026-05-28 06:55:36",
        "SP98": "2026-05-28 06:55:55"
      }
    },
    {
      "id": "8200005",
      "lat": 49.699,
      "lon": 4.928,
      "cp": "08200",
      "ville": "Sedan",
      "prix": {
        "Gazole": 0.001993,
        "GPLc": 0.000995,
        "E10": 0.001938
      },
      "maj_gouv": {
        "Gazole": "2026-06-08 01:15:00",
        "GPLc": "2026-06-08 01:15:00",
        "E10": "2026-06-08 01:15:00"
      }
    },
    {
      "id": "8000007",
      "lat": 49.785,
      "lon": 4.713,
      "cp": "08000",
      "ville": "Charleville-Mézières",
      "prix": {
        "Gazole": 0.002025,
        "E10": 0.0019950000000000002,
        "SP98": 0.002159
      },
      "maj_gouv": {
        "Gazole": "2026-06-02 08:39:30",
        "E10": "2026-05-30 07:42:49",
        "SP98": "2026-06-04 08:07:59"
      }
    },
    {
      "id": "8230001",
      "lat": 49.928,
      "lon": 4.526,
      "cp": "08230",
      "ville": "ROCROI",
      "prix": {
        "Gazole": 0.001999,
        "SP95": 0.001999,
        "SP98": 0.002142
      },
      "maj_gouv": {
        "Gazole": "2026-06-05 11:45:37",
        "SP95": "2026-06-05 11:45:37",
        "SP98": "2026-06-05 11:45:37"
      }
    },
    {
      "id": "8400002",
      "lat": 49.398687170482,
      "lon": 4.715634421409,
      "cp": "08400",
      "ville": "Vouziers",
      "prix": {
        "Gazole": 0.002039,
        "E10": 0.001973,
        "SP98": 0.00206
      },
      "maj_gouv": {
        "Gazole": "2026-06-05 16:00:00",
        "E10": "2026-06-05 16:00:00",
        "SP98": "2026-06-05 16:00:00"
      }
    },
    {
      "id": "8170005",
      "lat": 49.99467113949,
      "lon": 4.6971376513648,
      "cp": "08170",
      "ville": "FUMAY",
      "prix": {
        "Gazole": 0.002078,
        "E10": 0.00199
      },
      "maj_gouv": {
        "Gazole": "2026-06-06 08:14:15",
        "E10": "2026-06-06 08:14:15"
      }
    },
    {
      "id": "8000011",
      "lat": 49.73281606501399,
      "lon": 4.7530917036167,
      "cp": "08000",
      "ville": "VILLERS-SEMEUSE",
      "prix": {
        "Gazole": 0.0020350000000000004,
        "E85": 0.00079,
        "GPLc": 0.000999,
        "E10": 0.0019790000000000003,
        "SP98": 0.002139
      },
      "maj_gouv": {
        "Gazole": "2026-06-06 11:48:16",
        "E85": "2026-06-06 11:48:16",
        "GPLc": "2026-06-06 11:48:16",
        "E10": "2026-06-06 11:48:16",
        "SP98": "2026-06-06 11:48:16"
      }
    },
    {
      "id": "8320002",
      "lat": 50.081,
      "lon": 4.725,
      "cp": "08320",
      "ville": "VIREUX-MOLHAIN",
      "prix": {
        "Gazole": 0.0020299999999999997,
        "E85": 0.000798,
        "E10": 0.001991,
        "SP98": 0.002092
      },
      "maj_gouv": {
        "Gazole": "2026-06-05 23:59:00",
        "E85": "2026-05-29 23:59:00",
        "E10": "2026-05-29 23:59:00",
        "SP98": "2026-05-29 23:59:00"
      }
    },
    {
      "id": "8360003",
      "lat": 49.53,
      "lon": 4.249,
      "cp": "08360",
      "ville": "Château-Porcien",
      "prix": {
        "Gazole": 0.0021190000000000002,
        "SP95": 0.002099,
        "SP98": 0.0022589999999999997
      },
      "maj_gouv": {
        "Gazole": "2026-05-26 09:59:00",
        "SP95": "2026-05-26 09:56:00",
        "SP98": "2026-05-26 09:56:00"
      }
    },
    {
      "id": "8350002",
      "lat": 49.698,
      "lon": 4.866,
      "cp": "08350",
      "ville": "DONCHERY",
      "prix": {
        "Gazole": 0.002169,
        "SP95": 0.002169,
        "SP98": 0.0022589999999999997
      },
      "maj_gouv": {
        "Gazole": "2026-05-27 15:15:39",
        "SP95": "2026-05-27 15:15:39",
        "SP98": "2026-05-27 15:15:39"
      }
    },
    {
      "id": "8320003",
      "lat": 50.106,
      "lon": 4.743,
      "cp": "08320",
      "ville": "HIERGES",
      "prix": {
        "Gazole": 0.00198,
        "E85": 0.00092,
        "E10": 0.0020099999999999996
      },
      "maj_gouv": {
        "Gazole": "2026-06-05 11:19:37",
        "E85": "2026-04-30 13:56:54",
        "E10": "2026-06-01 13:57:37"
      }
    },
    {
      "id": "8170001",
      "lat": 49.989,
      "lon": 4.692,
      "cp": "08170",
      "ville": "FUMAY",
      "prix": {
        "Gazole": 0.002034,
        "SP95": 0.001997,
        "SP98": 0.00214
      },
      "maj_gouv": {
        "Gazole": "2026-06-05 17:17:46",
        "SP95": "2026-06-05 13:41:57",
        "SP98": "2026-06-05 13:41:57"
      }
    },
    {
      "id": "8300008",
      "lat": 49.504,
      "lon": 4.36,
      "cp": "08300",
      "ville": "RETHEL",
      "prix": {
        "Gazole": 0.0019950000000000002,
        "E85": 0.000819
      },
      "maj_gouv": {
        "Gazole": "2026-06-08 00:01:00",
        "E85": "2026-06-08 00:01:00"
      }
    },
    {
      "id": "8240001",
      "lat": 49.42885798381901,
      "lon": 4.9518145930264,
      "cp": "08240",
      "ville": "BAR-LES-BUZANCY",
      "prix": {
        "Gazole": 0.00211,
        "SP95": 0.00199
      },
      "maj_gouv": {
        "Gazole": "2026-06-03 09:59:22",
        "SP95": "2026-06-03 09:59:22"
      }
    },
    {
      "id": "8200010",
      "lat": 49.69926,
      "lon": 4.92701,
      "cp": "08200",
      "ville": "SEDAN",
      "prix": {
        "Gazole": 0.0019790000000000003,
        "E85": 0.0009320000000000001,
        "GPLc": 0.000995,
        "E10": 0.0018939999999999999,
        "SP98": 0.00199
      },
      "maj_gouv": {
        "Gazole": "2026-06-08 00:01:00",
        "E85": "2026-06-08 00:01:00",
        "GPLc": "2026-06-08 00:01:00",
        "E10": "2026-06-08 00:01:00",
        "SP98": "2026-06-08 00:01:00"
      }
    },
    {
      "id": "8140003",
      "lat": 49.684552690437,
      "lon": 4.9723654981651,
      "cp": "08140",
      "ville": "Bazeilles",
      "prix": {
        "Gazole": 0.001999,
        "GPLc": 0.000999,
        "E10": 0.001939,
        "SP98": 0.002049
      },
      "maj_gouv": {
        "Gazole": "2026-06-03 12:35:04",
        "GPLc": "2026-04-27 11:28:50",
        "E10": "2026-06-01 12:43:52",
        "SP98": "2026-06-01 12:43:52"
      }
    },
    {
      "id": "8150002",
      "lat": 49.84,
      "lon": 4.605,
      "cp": "08150",
      "ville": "Renwez",
      "prix": {
        "Gazole": 0.0020099999999999996,
        "E10": 0.00198,
        "SP98": 0.002099
      },
      "maj_gouv": {
        "Gazole": "2026-06-05 11:56:09",
        "E10": "2026-06-05 11:56:09",
        "SP98": "2026-06-05 11:56:10"
      }
    },
    {
      "id": "8120001",
      "lat": 49.857,
      "lon": 4.764,
      "cp": "08120",
      "ville": "BOGNY-SUR-MEUSE",
      "prix": {
        "Gazole": 0.001993,
        "E85": 0.000798,
        "E10": 0.00199,
        "SP98": 0.0021520000000000003
      },
      "maj_gouv": {
        "Gazole": "2026-06-04 12:35:36",
        "E85": "2026-05-21 09:06:25",
        "E10": "2026-06-04 12:35:36",
        "SP98": "2026-06-01 09:17:08"
      }
    },
    {
      "id": "8110002",
      "lat": 49.637,
      "lon": 5.162,
      "cp": "08110",
      "ville": "CARIGNAN - Wé",
      "prix": {
        "Gazole": 0.0020310000000000003,
        "SP95": 0.001975,
        "E85": 0.000798,
        "E10": 0.0019299999999999999,
        "SP98": 0.002028
      },
      "maj_gouv": {
        "Gazole": "2026-06-05 13:00:00",
        "SP95": "2026-05-29 19:00:00",
        "E85": "2026-05-18 13:00:00",
        "E10": "2026-06-05 13:00:00",
        "SP98": "2026-05-29 19:00:00"
      }
    },
    {
      "id": "8130004",
      "lat": 49.485,
      "lon": 4.581,
      "cp": "08130",
      "ville": "Attigny",
      "prix": {
        "Gazole": 0.00213,
        "E10": 0.00199,
        "SP98": 0.00199
      },
      "maj_gouv": {
        "Gazole": "2026-06-03 12:40:50",
        "E10": "2026-06-03 17:44:02",
        "SP98": "2026-05-29 14:51:20"
      }
    },
    {
      "id": "8200004",
      "lat": 49.697,
      "lon": 4.919,
      "cp": "08200",
      "ville": "Sedan",
      "prix": {
        "Gazole": 0.0020009999999999997,
        "E85": 0.000948,
        "E10": 0.002004,
        "SP98": 0.002084
      },
      "maj_gouv": {
        "Gazole": "2026-06-06 06:30:00",
        "E85": "2026-06-06 06:30:00",
        "E10": "2026-06-06 06:30:00",
        "SP98": "2026-06-06 06:30:00"
      }
    },
    {
      "id": "8270002",
      "lat": 49.594069537325,
      "lon": 4.5029188207464,
      "cp": "08270",
      "ville": "Saulces-Monclin",
      "prix": {
        "Gazole": 0.002155,
        "E85": 0.000999,
        "GPLc": 0.0010789999999999999,
        "E10": 0.00199,
        "SP98": 0.00199
      },
      "maj_gouv": {
        "Gazole": "2026-06-08 00:01:00",
        "E85": "2026-06-08 00:01:00",
        "GPLc": "2026-06-08 00:01:00",
        "E10": "2026-06-08 00:01:00",
        "SP98": "2026-06-08 00:01:00"
      }
    },
    {
      "id": "8000006",
      "lat": 49.733,
      "lon": 4.752,
      "cp": "08000",
      "ville": "Villers-Semeuse",
      "prix": {},
      "maj_gouv": {}
    },
    {
      "id": "8000005",
      "lat": 49.767,
      "lon": 4.718,
      "cp": "08000",
      "ville": "Charleville-Mézières",
      "prix": {
        "Gazole": 0.002157,
        "E10": 0.002089,
        "SP98": 0.002169
      },
      "maj_gouv": {
        "Gazole": "2026-06-01 15:51:00",
        "E10": "2026-06-01 15:51:00",
        "SP98": "2026-06-01 15:51:00"
      }
    },
    {
      "id": "8000002",
      "lat": 49.75869,
      "lon": 4.72653,
      "cp": "08000",
      "ville": "Charleville-Mézières",
      "prix": {
        "Gazole": 0.002148,
        "E10": 0.0020800000000000003,
        "SP98": 0.002225
      },
      "maj_gouv": {
        "Gazole": "2026-05-28 13:28:06",
        "E10": "2026-06-01 11:44:30",
        "SP98": "2026-05-28 13:28:06"
      }
    },
    {
      "id": "8430001",
      "lat": 49.651,
      "lon": 4.642,
      "cp": "08430",
      "ville": "POIX-TERRON",
      "prix": {
        "Gazole": 0.002173,
        "E10": 0.002075,
        "SP98": 0.0022429999999999998
      },
      "maj_gouv": {
        "Gazole": "2026-05-28 09:13:57",
        "E10": "2026-06-01 11:02:47",
        "SP98": "2026-05-18 14:01:42"
      }
    },
    {
      "id": "8600003",
      "lat": 50.134,
      "lon": 4.854,
      "cp": "08600",
      "ville": "GIVET",
      "prix": {
        "Gazole": 0.002011,
        "E85": 0.000798,
        "E10": 0.001935,
        "SP98": 0.002149
      },
      "maj_gouv": {
        "Gazole": "2026-06-04 06:48:01",
        "E85": "2026-05-21 17:44:19",
        "E10": "2026-06-04 06:48:01",
        "SP98": "2026-05-26 12:20:08"
      }
    },
    {
      "id": "8150001",
      "lat": 49.84,
      "lon": 4.545,
      "cp": "08150",
      "ville": "RIMOGNE",
      "prix": {
        "Gazole": 0.002077,
        "SP95": 0.00206,
        "E85": 0.000842,
        "SP98": 0.0022080000000000003
      },
      "maj_gouv": {
        "Gazole": "2026-05-29 16:20:44",
        "SP95": "2026-05-26 11:05:42",
        "E85": "2026-05-26 11:05:43",
        "SP98": "2026-05-22 09:57:57"
      }
    },
    {
      "id": "8300006",
      "lat": 49.50033,
      "lon": 4.35794,
      "cp": "08300",
      "ville": "SAULT-LèS-RETHEL",
      "prix": {
        "Gazole": 0.002016,
        "E85": 0.000798,
        "E10": 0.0019790000000000003,
        "SP98": 0.002009
      },
      "maj_gouv": {
        "Gazole": "2026-06-05 07:30:26",
        "E85": "2026-06-05 07:30:31",
        "E10": "2026-06-05 07:30:37",
        "SP98": "2026-06-05 07:31:17"
      }
    },
    {
      "id": "8300007",
      "lat": 49.51743,
      "lon": 4.49483,
      "cp": "08300",
      "ville": "AMAGNE",
      "prix": {
        "Gazole": 0.002099,
        "E10": 0.002079,
        "SP98": 0.002199
      },
      "maj_gouv": {
        "Gazole": "2026-06-06 09:05:34",
        "E10": "2026-06-06 09:05:34",
        "SP98": "2026-06-06 09:05:34"
      }
    },
    {
      "id": "8500002",
      "lat": 49.939,
      "lon": 4.641,
      "cp": "08500",
      "ville": "REVIN",
      "prix": {
        "Gazole": 0.002132,
        "E10": 0.00199
      },
      "maj_gouv": {
        "Gazole": "2026-05-29 17:17:09",
        "E10": "2026-05-29 17:17:09"
      }
    },
    {
      "id": "8400004",
      "lat": 49.405,
      "lon": 4.697,
      "cp": "08400",
      "ville": "VOUZIERS",
      "prix": {
        "Gazole": 0.002029,
        "SP95": 0.002049,
        "E10": 0.0019890000000000003,
        "SP98": 0.002059
      },
      "maj_gouv": {
        "Gazole": "2026-06-07 10:02:47",
        "SP95": "2026-06-07 10:02:47",
        "E10": "2026-06-07 10:02:47",
        "SP98": "2026-06-07 10:02:47"
      }
    },
    {
      "id": "8800004",
      "lat": 49.885,
      "lon": 4.739,
      "cp": "08800",
      "ville": "MONTHERME",
      "prix": {
        "Gazole": 0.001991,
        "SP95": 0.0019890000000000003,
        "SP98": 0.0021520000000000003
      },
      "maj_gouv": {
        "Gazole": "2026-06-05 09:50:27",
        "SP95": "2026-06-05 09:50:28",
        "SP98": "2026-05-29 10:20:58"
      }
    },
    {
      "id": "8400003",
      "lat": 49.396,
      "lon": 4.682,
      "cp": "08400",
      "ville": "VOUZIERS",
      "prix": {
        "Gazole": 0.002025,
        "SP95": 0.002033,
        "E85": 0.0009180000000000001,
        "E10": 0.001943,
        "SP98": 0.002007
      },
      "maj_gouv": {
        "Gazole": "2026-06-08 01:16:00",
        "SP95": "2026-06-08 01:16:00",
        "E85": "2026-06-08 01:16:00",
        "E10": "2026-06-08 01:16:00",
        "SP98": "2026-06-08 01:16:00"
      }
    },
    {
      "id": "8000001",
      "lat": 49.739,
      "lon": 4.707,
      "cp": "08000",
      "ville": "CHARLEVILLE-MéZIèRES",
      "prix": {
        "Gazole": 0.002025,
        "SP95": 0.0020369999999999997,
        "E85": 0.000798,
        "GPLc": 0.00095,
        "E10": 0.001999,
        "SP98": 0.002159
      },
      "maj_gouv": {
        "Gazole": "2026-06-07 22:39:00",
        "SP95": "2026-06-07 22:39:00",
        "E85": "2026-06-07 22:39:00",
        "GPLc": "2026-05-30 08:20:00",
        "E10": "2026-06-07 22:39:00",
        "SP98": "2026-06-07 22:39:00"
      }
    },
    {
      "id": "8260002",
      "lat": 49.867,
      "lon": 4.428,
      "cp": "08260",
      "ville": "Maubert-Fontaine",
      "prix": {
        "Gazole": 0.0020499999999999997,
        "E85": 0.000798,
        "E10": 0.00198,
        "SP98": 0.002099
      },
      "maj_gouv": {
        "Gazole": "2026-06-04 09:27:31",
        "E85": "2026-05-28 10:55:21",
        "E10": "2026-06-04 09:27:31",
        "SP98": "2026-06-04 09:27:31"
      }
    },
    {
      "id": "8200007",
      "lat": 49.706,
      "lon": 4.936,
      "cp": "08200",
      "ville": "SEDAN",
      "prix": {
        "Gazole": 0.0020150000000000003,
        "E10": 0.001939,
        "SP98": 0.002059
      },
      "maj_gouv": {
        "Gazole": "2026-06-06 09:15:15",
        "E10": "2026-06-04 07:56:48",
        "SP98": "2026-06-02 08:37:40"
      }
    },
    {
      "id": "8300001",
      "lat": 49.511,
      "lon": 4.368,
      "cp": "08300",
      "ville": "Rethel",
      "prix": {
        "Gazole": 0.002016,
        "E10": 0.0019370000000000001,
        "SP98": 0.002089
      },
      "maj_gouv": {
        "Gazole": "2026-06-08 00:45:00",
        "E10": "2026-06-08 00:45:00",
        "SP98": "2026-06-08 00:45:00"
      }
    },
    {
      "id": "8800001",
      "lat": 49.88,
      "lon": 4.742,
      "cp": "08800",
      "ville": "Monthermé",
      "prix": {
        "Gazole": 0.002096,
        "E10": 0.00199
      },
      "maj_gouv": {
        "Gazole": "2026-06-06 07:55:40",
        "E10": "2026-06-06 07:55:40"
      }
    },
    {
      "id": "8190003",
      "lat": 49.47064,
      "lon": 4.12341,
      "cp": "08190",
      "ville": "Asfeld",
      "prix": {
        "Gazole": 0.00204,
        "SP95": 0.00197,
        "SP98": 0.00207
      },
      "maj_gouv": {
        "Gazole": "2026-06-04 09:35:26",
        "SP95": "2026-06-04 09:35:26",
        "SP98": "2026-06-04 09:35:26"
      }
    },
    {
      "id": "8460001",
      "lat": 49.699763,
      "lon": 4.4230659999999995,
      "cp": "08460",
      "ville": "signy l'abbaye",
      "prix": {
        "Gazole": 0.002114,
        "SP95": 0.00199,
        "SP98": 0.00199
      },
      "maj_gouv": {
        "Gazole": "2026-06-03 11:02:51",
        "SP95": "2026-06-03 11:02:51",
        "SP98": "2026-06-03 11:02:51"
      }
    },
    {
      "id": "8000008",
      "lat": 49.746,
      "lon": 4.727,
      "cp": "08000",
      "ville": "Charleville-Mézières",
      "prix": {
        "Gazole": 0.002025,
        "E85": 0.000798,
        "E10": 0.001999,
        "SP98": 0.002159
      },
      "maj_gouv": {
        "Gazole": "2026-06-05 07:36:17",
        "E85": "2026-05-21 07:59:51",
        "E10": "2026-06-03 08:08:21",
        "SP98": "2026-06-03 08:08:21"
      }
    },
    {
      "id": "8110005",
      "lat": 49.621550437047,
      "lon": 5.1862764178631,
      "cp": "08110",
      "ville": "Blagny",
      "prix": {
        "Gazole": 0.002059,
        "E10": 0.00209,
        "SP98": 0.002199
      },
      "maj_gouv": {
        "Gazole": "2026-05-29 16:53:16",
        "E10": "2026-05-29 16:53:16",
        "SP98": "2026-05-29 16:53:16"
      }
    },
    {
      "id": "8700004",
      "lat": 49.822185722569,
      "lon": 4.7429365808471005,
      "cp": "08700",
      "ville": "NOUZONVILLE",
      "prix": {
        "Gazole": 0.002049,
        "SP95": 0.002149,
        "SP98": 0.002199
      },
      "maj_gouv": {
        "Gazole": "2026-06-02 09:36:24",
        "SP95": "2026-05-21 08:44:17",
        "SP98": "2026-05-21 08:44:17"
      }
    },
    {
      "id": "8190001",
      "lat": 49.465,
      "lon": 4.112,
      "cp": "08190",
      "ville": "ASFELD",
      "prix": {
        "Gazole": 0.002084,
        "E10": 0.001984,
        "SP98": 0.00199
      },
      "maj_gouv": {
        "Gazole": "2026-06-05 07:33:25",
        "E10": "2026-06-05 07:33:25",
        "SP98": "2026-06-05 07:33:25"
      }
    },
    {
      "id": "8000010",
      "lat": 49.741,
      "lon": 4.726,
      "cp": "08000",
      "ville": "Charleville-Mézières",
      "prix": {
        "Gazole": 0.00211,
        "E85": 0.000829,
        "GPLc": 0.000999,
        "E10": 0.00199
      },
      "maj_gouv": {
        "Gazole": "2026-06-08 00:01:00",
        "E85": "2026-06-08 00:01:00",
        "GPLc": "2026-06-08 00:01:00",
        "E10": "2026-06-08 00:01:00"
      }
    }
  ]
}