{
  "departement": "08",
  "date": "2026-05-09",
  "stations": [
    {
      "id": "8150003",
      "lat": 49.833628,
      "lon": 4.603904,
      "cp": "08150",
      "ville": "RENWEZ",
      "prix": {
        "Gazole": 0.00225,
        "SP95": 0.00199
      },
      "maj_gouv": {
        "Gazole": "2026-04-28 10:34:38",
        "SP95": "2026-05-06 15:46:45"
      }
    },
    {
      "id": "8090001",
      "lat": 49.805,
      "lon": 4.621,
      "cp": "08090",
      "ville": "Cliron",
      "prix": {
        "Gazole": 0.0022480000000000004,
        "E10": 0.002068,
        "SP98": 0.0022040000000000002
      },
      "maj_gouv": {
        "Gazole": "2026-05-08 15:00:00",
        "E10": "2026-05-08 15:00:00",
        "SP98": "2026-05-08 15:00:00"
      }
    },
    {
      "id": "8330002",
      "lat": 49.735,
      "lon": 4.85,
      "cp": "08330",
      "ville": "VRIGNE-AUX-BOIS",
      "prix": {
        "Gazole": 0.002229,
        "SP95": 0.002099
      },
      "maj_gouv": {
        "Gazole": "2026-04-28 10:26:05",
        "SP95": "2026-04-28 10:26:05"
      }
    },
    {
      "id": "8130003",
      "lat": 49.47872,
      "lon": 4.57662,
      "cp": "08130",
      "ville": "Attigny",
      "prix": {
        "Gazole": 0.00221,
        "SP95": 0.00199,
        "E85": 0.00079
      },
      "maj_gouv": {
        "Gazole": "2026-05-02 15:11:27",
        "SP95": "2026-05-02 15:11:27",
        "E85": "2026-05-02 15:11:27"
      }
    },
    {
      "id": "8210001",
      "lat": 49.61023,
      "lon": 5.07788,
      "cp": "08210",
      "ville": "MOUZON",
      "prix": {
        "Gazole": 0.002299,
        "E10": 0.002096,
        "SP98": 0.002232
      },
      "maj_gouv": {
        "Gazole": "2026-04-29 07:44:51",
        "E10": "2026-04-29 07:45:03",
        "SP98": "2026-04-29 07:45:22"
      }
    },
    {
      "id": "8200005",
      "lat": 49.699,
      "lon": 4.928,
      "cp": "08200",
      "ville": "Sedan",
      "prix": {
        "Gazole": 0.002216,
        "GPLc": 0.000995,
        "E10": 0.0020510000000000003
      },
      "maj_gouv": {
        "Gazole": "2026-05-09 01:15:00",
        "GPLc": "2026-05-09 01:15:00",
        "E10": "2026-05-09 01:15:00"
      }
    },
    {
      "id": "8000007",
      "lat": 49.785,
      "lon": 4.713,
      "cp": "08000",
      "ville": "Charleville-Mézières",
      "prix": {
        "Gazole": 0.0022389999999999997,
        "E10": 0.002059,
        "SP98": 0.002195
      },
      "maj_gouv": {
        "Gazole": "2026-05-08 12:20:35",
        "E10": "2026-05-07 08:07:29",
        "SP98": "2026-05-07 08:07:29"
      }
    },
    {
      "id": "8230001",
      "lat": 49.928,
      "lon": 4.526,
      "cp": "08230",
      "ville": "ROCROI",
      "prix": {
        "Gazole": 0.002212,
        "SP95": 0.00209,
        "SP98": 0.002175
      },
      "maj_gouv": {
        "Gazole": "2026-05-06 13:15:53",
        "SP95": "2026-05-06 13:15:53",
        "SP98": "2026-05-06 13:15:53"
      }
    },
    {
      "id": "8400002",
      "lat": 49.398687170482,
      "lon": 4.715634421409,
      "cp": "08400",
      "ville": "Vouziers",
      "prix": {
        "Gazole": 0.002218,
        "E10": 0.0020659999999999997,
        "SP98": 0.002146
      },
      "maj_gouv": {
        "Gazole": "2026-05-07 15:51:00",
        "E10": "2026-05-07 15:51:00",
        "SP98": "2026-05-07 15:51:00"
      }
    },
    {
      "id": "8170005",
      "lat": 48.858858899999994,
      "lon": 2.3470599,
      "cp": "08170",
      "ville": "FUMAY",
      "prix": {
        "Gazole": 0.00209,
        "E10": 0.00199
      },
      "maj_gouv": {
        "Gazole": "2026-05-08 10:25:36",
        "E10": "2026-05-08 10:25:36"
      }
    },
    {
      "id": "8000011",
      "lat": 49.73281606501399,
      "lon": 4.7530917036167,
      "cp": "08000",
      "ville": "VILLERS-SEMEUSE",
      "prix": {
        "Gazole": 0.0022389999999999997,
        "E85": 0.000808,
        "GPLc": 0.001,
        "E10": 0.002069,
        "SP98": 0.002205
      },
      "maj_gouv": {
        "Gazole": "2026-05-07 12:30:21",
        "E85": "2026-05-07 12:30:21",
        "GPLc": "2026-05-06 12:31:35",
        "E10": "2026-05-07 12:30:21",
        "SP98": "2026-05-07 12:30:21"
      }
    },
    {
      "id": "8320002",
      "lat": 50.081,
      "lon": 4.725,
      "cp": "08320",
      "ville": "VIREUX-MOLHAIN",
      "prix": {
        "Gazole": 0.002199,
        "E85": 0.0008179999999999999,
        "E10": 0.002029,
        "SP98": 0.0021309999999999996
      },
      "maj_gouv": {
        "Gazole": "2026-05-06 23:59:00",
        "E85": "2026-05-06 23:59:00",
        "E10": "2026-05-06 23:59:00",
        "SP98": "2026-05-06 23:59:00"
      }
    },
    {
      "id": "8360003",
      "lat": 49.53,
      "lon": 4.249,
      "cp": "08360",
      "ville": "Château-Porcien",
      "prix": {
        "Gazole": 0.002269,
        "SP95": 0.002089,
        "SP98": 0.002247
      },
      "maj_gouv": {
        "Gazole": "2026-05-08 09:09:34",
        "SP95": "2026-05-08 09:09:34",
        "SP98": "2026-05-08 09:09:34"
      }
    },
    {
      "id": "8350002",
      "lat": 49.698,
      "lon": 4.866,
      "cp": "08350",
      "ville": "DONCHERY",
      "prix": {
        "Gazole": 0.002219
      },
      "maj_gouv": {
        "Gazole": "2026-04-29 15:38:02"
      }
    },
    {
      "id": "8320003",
      "lat": 50.106,
      "lon": 4.743,
      "cp": "08320",
      "ville": "HIERGES",
      "prix": {
        "Gazole": 0.002125,
        "E85": 0.00092,
        "E10": 0.0020499999999999997
      },
      "maj_gouv": {
        "Gazole": "2026-05-06 14:11:15",
        "E85": "2026-04-30 13:56:54",
        "E10": "2026-04-30 13:56:55"
      }
    },
    {
      "id": "8170001",
      "lat": 49.989,
      "lon": 4.692,
      "cp": "08170",
      "ville": "FUMAY",
      "prix": {
        "Gazole": 0.0022,
        "SP98": 0.0021160000000000003
      },
      "maj_gouv": {
        "Gazole": "2026-05-05 12:43:46",
        "SP98": "2026-04-27 16:12:56"
      }
    },
    {
      "id": "8300008",
      "lat": 49.504,
      "lon": 4.36,
      "cp": "08300",
      "ville": "RETHEL",
      "prix": {
        "Gazole": 0.00209,
        "E85": 0.0008349999999999999,
        "SP98": 0.00199
      },
      "maj_gouv": {
        "Gazole": "2026-05-09 00:01:00",
        "E85": "2026-05-09 00:01:00",
        "SP98": "2026-05-09 00:01:00"
      }
    },
    {
      "id": "8200010",
      "lat": 49.69926,
      "lon": 4.92701,
      "cp": "08200",
      "ville": "SEDAN",
      "prix": {
        "Gazole": 0.00209,
        "E85": 0.000939,
        "GPLc": 0.000995,
        "E10": 0.00199,
        "SP98": 0.00199
      },
      "maj_gouv": {
        "Gazole": "2026-05-09 00:01:00",
        "E85": "2026-05-09 00:01:00",
        "GPLc": "2026-05-09 00:01:00",
        "E10": "2026-05-09 00:01:00",
        "SP98": "2026-05-09 00:01:00"
      }
    },
    {
      "id": "8140003",
      "lat": 49.684552690437,
      "lon": 4.9723654981651,
      "cp": "08140",
      "ville": "Bazeilles",
      "prix": {
        "Gazole": 0.002199,
        "GPLc": 0.000999,
        "E10": 0.002039,
        "SP98": 0.002139
      },
      "maj_gouv": {
        "Gazole": "2026-05-08 09:58:51",
        "GPLc": "2026-04-27 11:28:50",
        "E10": "2026-05-08 09:58:51",
        "SP98": "2026-05-08 09:58:51"
      }
    },
    {
      "id": "8150002",
      "lat": 49.84,
      "lon": 4.605,
      "cp": "08150",
      "ville": "Renwez",
      "prix": {
        "Gazole": 0.002232,
        "E10": 0.002088,
        "SP98": 0.002183
      },
      "maj_gouv": {
        "Gazole": "2026-05-07 07:23:39",
        "E10": "2026-05-07 07:23:39",
        "SP98": "2026-05-07 07:23:39"
      }
    },
    {
      "id": "8120001",
      "lat": 49.857,
      "lon": 4.764,
      "cp": "08120",
      "ville": "BOGNY-SUR-MEUSE",
      "prix": {
        "Gazole": 0.002219,
        "E85": 0.0008179999999999999,
        "E10": 0.002059,
        "SP98": 0.002149
      },
      "maj_gouv": {
        "Gazole": "2026-05-04 09:33:36",
        "E85": "2026-04-22 09:07:44",
        "E10": "2026-05-05 08:56:16",
        "SP98": "2026-05-05 08:56:16"
      }
    },
    {
      "id": "8110002",
      "lat": 49.637,
      "lon": 5.162,
      "cp": "08110",
      "ville": "CARIGNAN - Wé",
      "prix": {
        "Gazole": 0.0022069999999999998,
        "SP95": 0.002097,
        "E85": 0.0008179999999999999,
        "E10": 0.002036,
        "SP98": 0.0021379999999999997
      },
      "maj_gouv": {
        "Gazole": "2026-05-06 13:00:00",
        "SP95": "2026-05-05 13:00:00",
        "E85": "2026-04-17 08:00:00",
        "E10": "2026-05-06 13:00:00",
        "SP98": "2026-05-06 13:00:00"
      }
    },
    {
      "id": "8130004",
      "lat": 49.485,
      "lon": 4.581,
      "cp": "08130",
      "ville": "Attigny",
      "prix": {
        "Gazole": 0.00209
      },
      "maj_gouv": {
        "Gazole": "2026-05-08 08:00:00"
      }
    },
    {
      "id": "8200004",
      "lat": 49.697,
      "lon": 4.919,
      "cp": "08200",
      "ville": "Sedan",
      "prix": {
        "Gazole": 0.002176,
        "E85": 0.000967,
        "E10": 0.002042,
        "SP98": 0.0021219999999999998
      },
      "maj_gouv": {
        "Gazole": "2026-05-08 06:31:00",
        "E85": "2026-05-08 06:31:00",
        "E10": "2026-05-08 06:31:00",
        "SP98": "2026-05-08 06:31:00"
      }
    },
    {
      "id": "8270002",
      "lat": 49.594069537325,
      "lon": 4.5029188207464,
      "cp": "08270",
      "ville": "Saulces-Monclin",
      "prix": {
        "Gazole": 0.00209,
        "E85": 0.000999,
        "GPLc": 0.001129,
        "E10": 0.00199,
        "SP98": 0.00199
      },
      "maj_gouv": {
        "Gazole": "2026-05-09 00:01:00",
        "E85": "2026-05-09 00:01:00",
        "GPLc": "2026-05-09 00:01:00",
        "E10": "2026-05-09 00:01:00",
        "SP98": "2026-05-09 00:01:00"
      }
    },
    {
      "id": "8000006",
      "lat": 49.733,
      "lon": 4.752,
      "cp": "08000",
      "ville": "Villers-Semeuse",
      "prix": {},
      "maj_gouv": {}
    },
    {
      "id": "8000005",
      "lat": 49.767,
      "lon": 4.718,
      "cp": "08000",
      "ville": "Charleville-Mézières",
      "prix": {
        "Gazole": 0.0022389999999999997,
        "E10": 0.002049,
        "SP98": 0.002129
      },
      "maj_gouv": {
        "Gazole": "2026-05-08 06:31:00",
        "E10": "2026-05-08 06:31:00",
        "SP98": "2026-05-08 06:31:00"
      }
    },
    {
      "id": "8000002",
      "lat": 49.75869,
      "lon": 4.72653,
      "cp": "08000",
      "ville": "Charleville-Mézières",
      "prix": {
        "Gazole": 0.002249,
        "E10": 0.002059,
        "SP98": 0.002195
      },
      "maj_gouv": {
        "Gazole": "2026-05-04 12:01:00",
        "E10": "2026-05-07 10:57:03",
        "SP98": "2026-05-07 10:57:03"
      }
    },
    {
      "id": "8430001",
      "lat": 49.651,
      "lon": 4.642,
      "cp": "08430",
      "ville": "POIX-TERRON",
      "prix": {
        "Gazole": 0.0023279999999999998,
        "E10": 0.0021190000000000002,
        "SP98": 0.002205
      },
      "maj_gouv": {
        "Gazole": "2026-04-16 12:01:12",
        "E10": "2026-04-30 09:06:20",
        "SP98": "2026-04-30 09:06:20"
      }
    },
    {
      "id": "8600003",
      "lat": 50.134,
      "lon": 4.854,
      "cp": "08600",
      "ville": "GIVET",
      "prix": {
        "Gazole": 0.002209,
        "E85": 0.000819,
        "E10": 0.002039,
        "SP98": 0.002095
      },
      "maj_gouv": {
        "Gazole": "2026-05-07 06:52:01",
        "E85": "2026-04-16 10:01:19",
        "E10": "2026-05-07 06:52:01",
        "SP98": "2026-04-14 11:30:29"
      }
    },
    {
      "id": "8150001",
      "lat": 49.84,
      "lon": 4.545,
      "cp": "08150",
      "ville": "RIMOGNE",
      "prix": {
        "Gazole": 0.002231,
        "SP95": 0.002094,
        "E85": 0.0008489999999999999,
        "SP98": 0.002182
      },
      "maj_gouv": {
        "Gazole": "2026-05-06 12:17:49",
        "SP95": "2026-05-06 12:17:49",
        "E85": "2026-04-30 10:41:59",
        "SP98": "2026-05-06 12:17:50"
      }
    },
    {
      "id": "8300006",
      "lat": 49.50033,
      "lon": 4.35794,
      "cp": "08300",
      "ville": "SAULT-LèS-RETHEL",
      "prix": {
        "Gazole": 0.002199,
        "E85": 0.0008179999999999999,
        "E10": 0.002059,
        "SP98": 0.002149
      },
      "maj_gouv": {
        "Gazole": "2026-05-05 08:26:57",
        "E85": "2026-05-05 08:27:03",
        "E10": "2026-05-05 08:27:09",
        "SP98": "2026-05-05 08:27:15"
      }
    },
    {
      "id": "8300007",
      "lat": 49.51743,
      "lon": 4.49483,
      "cp": "08300",
      "ville": "AMAGNE",
      "prix": {
        "Gazole": 0.002249,
        "E10": 0.002084,
        "SP98": 0.002199
      },
      "maj_gouv": {
        "Gazole": "2026-05-06 15:07:11",
        "E10": "2026-05-06 15:07:12",
        "SP98": "2026-05-06 15:07:12"
      }
    },
    {
      "id": "8500002",
      "lat": 49.939,
      "lon": 4.641,
      "cp": "08500",
      "ville": "REVIN",
      "prix": {
        "Gazole": 0.002307,
        "E10": 0.002004
      },
      "maj_gouv": {
        "Gazole": "2026-04-29 08:08:41",
        "E10": "2026-04-29 08:08:41"
      }
    },
    {
      "id": "8400004",
      "lat": 49.405,
      "lon": 4.697,
      "cp": "08400",
      "ville": "VOUZIERS",
      "prix": {
        "Gazole": 0.002209,
        "SP95": 0.002079,
        "E10": 0.002049,
        "SP98": 0.002109
      },
      "maj_gouv": {
        "Gazole": "2026-05-07 11:15:33",
        "SP95": "2026-05-07 11:15:34",
        "E10": "2026-05-07 11:15:34",
        "SP98": "2026-05-07 11:15:34"
      }
    },
    {
      "id": "8800004",
      "lat": 49.885,
      "lon": 4.739,
      "cp": "08800",
      "ville": "MONTHERME",
      "prix": {
        "Gazole": 0.002219,
        "SP95": 0.0020729999999999998,
        "SP98": 0.0021579999999999998
      },
      "maj_gouv": {
        "Gazole": "2026-04-30 10:25:07",
        "SP95": "2026-04-30 10:25:07",
        "SP98": "2026-04-30 10:25:07"
      }
    },
    {
      "id": "8400003",
      "lat": 49.396,
      "lon": 4.682,
      "cp": "08400",
      "ville": "VOUZIERS",
      "prix": {
        "Gazole": 0.002209,
        "SP95": 0.002085,
        "E85": 0.000798,
        "E10": 0.002057,
        "SP98": 0.002113
      },
      "maj_gouv": {
        "Gazole": "2026-05-09 01:15:00",
        "SP95": "2026-05-09 01:15:00",
        "E85": "2026-05-09 01:15:00",
        "E10": "2026-05-09 01:15:00",
        "SP98": "2026-05-09 01:15:00"
      }
    },
    {
      "id": "8000001",
      "lat": 49.739,
      "lon": 4.707,
      "cp": "08000",
      "ville": "CHARLEVILLE-MéZIèRES",
      "prix": {
        "Gazole": 0.0022389999999999997,
        "SP95": 0.002145,
        "E85": 0.0008179999999999999,
        "GPLc": 0.001,
        "E10": 0.002069,
        "SP98": 0.002215
      },
      "maj_gouv": {
        "Gazole": "2026-05-07 22:42:00",
        "SP95": "2026-05-07 22:42:00",
        "E85": "2026-05-07 22:42:00",
        "GPLc": "2026-04-24 08:19:00",
        "E10": "2026-05-07 22:42:00",
        "SP98": "2026-05-07 22:42:00"
      }
    },
    {
      "id": "8260002",
      "lat": 49.867,
      "lon": 4.428,
      "cp": "08260",
      "ville": "Maubert-Fontaine",
      "prix": {
        "Gazole": 0.002236,
        "E85": 0.0008179999999999999,
        "E10": 0.00207,
        "SP98": 0.002159
      },
      "maj_gouv": {
        "Gazole": "2026-04-29 18:09:40",
        "E85": "2026-04-21 10:30:54",
        "E10": "2026-05-04 16:45:20",
        "SP98": "2026-05-04 16:45:20"
      }
    },
    {
      "id": "8200007",
      "lat": 49.706,
      "lon": 4.936,
      "cp": "08200",
      "ville": "SEDAN",
      "prix": {
        "Gazole": 0.002218,
        "E10": 0.002039,
        "SP98": 0.002124
      },
      "maj_gouv": {
        "Gazole": "2026-05-05 08:26:47",
        "E10": "2026-05-07 08:30:44",
        "SP98": "2026-05-07 08:30:44"
      }
    },
    {
      "id": "8300001",
      "lat": 49.511,
      "lon": 4.368,
      "cp": "08300",
      "ville": "Rethel",
      "prix": {
        "Gazole": 0.0022400000000000002,
        "E10": 0.002084,
        "SP98": 0.002247
      },
      "maj_gouv": {
        "Gazole": "2026-05-06 00:40:00",
        "E10": "2026-05-06 00:40:00",
        "SP98": "2026-05-06 00:40:00"
      }
    },
    {
      "id": "8800001",
      "lat": 49.88,
      "lon": 4.742,
      "cp": "08800",
      "ville": "Monthermé",
      "prix": {
        "Gazole": 0.00209,
        "E10": 0.00199
      },
      "maj_gouv": {
        "Gazole": "2026-05-08 06:43:30",
        "E10": "2026-05-08 06:43:30"
      }
    },
    {
      "id": "8190003",
      "lat": 49.47064,
      "lon": 4.12341,
      "cp": "08190",
      "ville": "Asfeld",
      "prix": {
        "Gazole": 0.002209,
        "SP95": 0.00204,
        "SP98": 0.00212
      },
      "maj_gouv": {
        "Gazole": "2026-04-30 09:02:40",
        "SP95": "2026-04-30 09:02:40",
        "SP98": "2026-04-30 09:02:40"
      }
    },
    {
      "id": "8460001",
      "lat": 49.699763,
      "lon": 4.4230659999999995,
      "cp": "08460",
      "ville": "signy l'abbaye",
      "prix": {
        "Gazole": 0.00209,
        "SP95": 0.00199
      },
      "maj_gouv": {
        "Gazole": "2026-05-08 07:39:05",
        "SP95": "2026-05-08 07:39:05"
      }
    },
    {
      "id": "8000008",
      "lat": 49.746,
      "lon": 4.727,
      "cp": "08000",
      "ville": "Charleville-Mézières",
      "prix": {
        "Gazole": 0.0022389999999999997,
        "E85": 0.0008179999999999999,
        "E10": 0.002059,
        "SP98": 0.002199
      },
      "maj_gouv": {
        "Gazole": "2026-05-07 08:09:56",
        "E85": "2026-05-07 08:09:56",
        "E10": "2026-05-07 08:09:56",
        "SP98": "2026-05-07 08:09:56"
      }
    },
    {
      "id": "8110005",
      "lat": 49.621550437047,
      "lon": 5.1862764178631,
      "cp": "08110",
      "ville": "Blagny",
      "prix": {
        "Gazole": 0.002189,
        "E10": 0.0019950000000000002,
        "SP98": 0.002128
      },
      "maj_gouv": {
        "Gazole": "2026-04-21 10:53:24",
        "E10": "2026-04-21 10:53:24",
        "SP98": "2026-04-21 10:53:25"
      }
    },
    {
      "id": "8700004",
      "lat": 49.822185722569,
      "lon": 4.7429365808471005,
      "cp": "08700",
      "ville": "NOUZONVILLE",
      "prix": {
        "Gazole": 0.002249,
        "SP95": 0.002099,
        "SP98": 0.002149
      },
      "maj_gouv": {
        "Gazole": "2026-05-05 07:43:49",
        "SP95": "2026-05-05 07:43:49",
        "SP98": "2026-05-05 07:43:49"
      }
    },
    {
      "id": "8190001",
      "lat": 49.465,
      "lon": 4.112,
      "cp": "08190",
      "ville": "ASFELD",
      "prix": {
        "Gazole": 0.0021920000000000004,
        "E10": 0.00199,
        "SP98": 0.00199
      },
      "maj_gouv": {
        "Gazole": "2026-05-07 07:41:57",
        "E10": "2026-05-07 07:41:57",
        "SP98": "2026-05-07 07:41:57"
      }
    },
    {
      "id": "8000010",
      "lat": 49.741,
      "lon": 4.726,
      "cp": "08000",
      "ville": "Charleville-Mézières",
      "prix": {
        "Gazole": 0.00209,
        "E85": 0.0008349999999999999,
        "GPLc": 0.001049,
        "E10": 0.00199,
        "SP98": 0.00199
      },
      "maj_gouv": {
        "Gazole": "2026-05-09 00:01:00",
        "E85": "2026-05-09 00:01:00",
        "GPLc": "2026-05-09 00:01:00",
        "E10": "2026-05-09 00:01:00",
        "SP98": "2026-05-09 00:01:00"
      }
    }
  ]
}