{
  "departement": "40",
  "date": "2026-05-09",
  "stations": [
    {
      "id": "40500002",
      "lat": 43.773,
      "lon": -0.567,
      "cp": "40500",
      "ville": "Saint-Sever",
      "prix": {
        "Gazole": 0.00221,
        "GPLc": 0.000999,
        "SP98": 0.002129
      },
      "maj_gouv": {
        "Gazole": "2026-05-04 12:40:28",
        "GPLc": "2026-04-03 12:22:08",
        "SP98": "2026-05-04 12:40:28"
      }
    },
    {
      "id": "40465002",
      "lat": 43.78529,
      "lon": -0.93105,
      "cp": "40465",
      "ville": "Pontonx-sur-l'Adour",
      "prix": {
        "Gazole": 0.002169,
        "E85": 0.000819,
        "E10": 0.001999,
        "SP98": 0.002078
      },
      "maj_gouv": {
        "Gazole": "2026-04-21 09:06:04",
        "E85": "2026-04-23 08:34:37",
        "E10": "2026-04-30 12:22:19",
        "SP98": "2026-04-30 12:22:19"
      }
    },
    {
      "id": "40006001",
      "lat": 43.877,
      "lon": -0.467,
      "cp": "40000",
      "ville": "Mont-de-Marsan",
      "prix": {
        "Gazole": 0.002179,
        "SP95": 0.0020670000000000003,
        "E85": 0.0008990000000000001,
        "GPLc": 0.000977,
        "E10": 0.002024
      },
      "maj_gouv": {
        "Gazole": "2026-05-09 01:18:00",
        "SP95": "2026-05-09 01:18:00",
        "E85": "2026-05-09 01:18:00",
        "GPLc": "2026-05-09 01:18:00",
        "E10": "2026-05-09 01:18:00"
      }
    },
    {
      "id": "40280006",
      "lat": 43.867,
      "lon": -0.485,
      "cp": "40280",
      "ville": "Saint-Pierre-du-Mont",
      "prix": {
        "Gazole": 0.002179,
        "SP95": 0.0020670000000000003,
        "E85": 0.0008990000000000001,
        "E10": 0.002024
      },
      "maj_gouv": {
        "Gazole": "2026-05-09 01:17:00",
        "SP95": "2026-05-09 01:17:00",
        "E85": "2026-05-09 01:17:00",
        "E10": "2026-05-09 01:17:00"
      }
    },
    {
      "id": "40410005",
      "lat": 44.36,
      "lon": -0.851,
      "cp": "40410",
      "ville": "Saugnacq-et-Muret",
      "prix": {
        "Gazole": 0.00246,
        "GPLc": 0.00106,
        "E10": 0.00222,
        "SP98": 0.00232
      },
      "maj_gouv": {
        "Gazole": "2026-05-06 15:26:55",
        "GPLc": "2026-05-06 15:26:55",
        "E10": "2026-05-06 15:26:55",
        "SP98": "2026-05-06 15:26:55"
      }
    },
    {
      "id": "40230006",
      "lat": 43.637096148683995,
      "lon": -1.3532557977807,
      "cp": "40230",
      "ville": "Bénesse-Maremne",
      "prix": {
        "Gazole": 0.0022589999999999997,
        "E85": 0.000865,
        "E10": 0.002129,
        "SP98": 0.002219
      },
      "maj_gouv": {
        "Gazole": "2026-05-08 23:50:00",
        "E85": "2026-05-08 23:50:00",
        "E10": "2026-05-08 23:50:00",
        "SP98": "2026-05-08 23:50:00"
      }
    },
    {
      "id": "40140002",
      "lat": 43.745,
      "lon": -1.334,
      "cp": "40140",
      "ville": "SOUSTONS",
      "prix": {
        "Gazole": 0.002169,
        "E85": 0.000799,
        "E10": 0.002038,
        "SP98": 0.002099
      },
      "maj_gouv": {
        "Gazole": "2026-05-09 01:17:00",
        "E85": "2026-05-09 01:17:00",
        "E10": "2026-05-09 01:17:00",
        "SP98": "2026-05-09 01:17:00"
      }
    },
    {
      "id": "40300009",
      "lat": 43.529,
      "lon": -1.152,
      "cp": "40300",
      "ville": "HASTINGUES",
      "prix": {
        "Gazole": 0.002449,
        "GPLc": 0.001064,
        "E10": 0.002189,
        "SP98": 0.0022890000000000002
      },
      "maj_gouv": {
        "Gazole": "2026-05-06 09:00:00",
        "GPLc": "2026-01-29 09:51:24",
        "E10": "2026-05-06 09:00:00",
        "SP98": "2026-05-06 09:00:00"
      }
    },
    {
      "id": "40000012",
      "lat": 43.886,
      "lon": -0.495,
      "cp": "40000",
      "ville": "Mont-de-Marsan",
      "prix": {
        "E85": 0.0009310000000000001,
        "GPLc": 0.000999
      },
      "maj_gouv": {
        "E85": "2026-05-09 00:01:00",
        "GPLc": "2026-05-09 00:01:00"
      }
    },
    {
      "id": "40110003",
      "lat": 43.976,
      "lon": -0.737,
      "cp": "40110",
      "ville": "Ygos-Saint-Saturnin",
      "prix": {
        "Gazole": 0.00209
      },
      "maj_gouv": {
        "Gazole": "2026-05-09 00:01:00"
      }
    },
    {
      "id": "40380003",
      "lat": 43.7104,
      "lon": -0.8344,
      "cp": "40380",
      "ville": "Montfort-en-Chalosse",
      "prix": {
        "Gazole": 0.002199,
        "E10": 0.002049,
        "SP98": 0.002169
      },
      "maj_gouv": {
        "Gazole": "2026-05-04 10:38:20",
        "E10": "2026-05-06 12:07:32",
        "SP98": "2026-05-06 12:07:32"
      }
    },
    {
      "id": "40110002",
      "lat": 44.031,
      "lon": -0.911,
      "cp": "40110",
      "ville": "MORCENX",
      "prix": {
        "Gazole": 0.002199,
        "E10": 0.001999,
        "SP98": 0.002089
      },
      "maj_gouv": {
        "Gazole": "2026-04-30 17:34:50",
        "E10": "2026-04-30 17:34:50",
        "SP98": "2026-04-30 17:34:51"
      }
    },
    {
      "id": "40800006",
      "lat": 43.717,
      "lon": -0.269,
      "cp": "40800",
      "ville": "Aire-sur-l'Adour",
      "prix": {
        "Gazole": 0.002169,
        "E85": 0.00086,
        "GPLc": 0.001046,
        "E10": 0.002029,
        "SP98": 0.002099
      },
      "maj_gouv": {
        "Gazole": "2026-05-09 01:17:00",
        "E85": "2026-05-09 01:17:00",
        "GPLc": "2026-05-09 01:17:00",
        "E10": "2026-05-09 01:17:00",
        "SP98": "2026-05-09 01:17:00"
      }
    },
    {
      "id": "40140005",
      "lat": 43.747,
      "lon": -1.321,
      "cp": "40140",
      "ville": "SOUSTONS",
      "prix": {
        "Gazole": 0.002169,
        "E85": 0.000819,
        "E10": 0.002019
      },
      "maj_gouv": {
        "Gazole": "2026-05-07 10:07:59",
        "E85": "2026-04-16 09:36:06",
        "E10": "2026-05-07 10:07:59"
      }
    },
    {
      "id": "40160003",
      "lat": 44.347469558383004,
      "lon": -1.0765071887945,
      "cp": "40160",
      "ville": "Parentis-en-Born",
      "prix": {
        "Gazole": 0.002219,
        "E10": 0.002079,
        "SP98": 0.002159
      },
      "maj_gouv": {
        "Gazole": "2026-05-07 07:58:53",
        "E10": "2026-05-07 07:58:53",
        "SP98": "2026-05-07 07:58:53"
      }
    },
    {
      "id": "40100004",
      "lat": 43.708,
      "lon": -1.044,
      "cp": "40100",
      "ville": "Dax",
      "prix": {
        "Gazole": 0.002169,
        "SP95": 0.002078,
        "E10": 0.002036,
        "SP98": 0.002088
      },
      "maj_gouv": {
        "Gazole": "2026-05-09 01:15:00",
        "SP95": "2026-05-09 01:15:00",
        "E10": "2026-05-09 01:15:00",
        "SP98": "2026-05-09 01:15:00"
      }
    },
    {
      "id": "40210004",
      "lat": 44.202,
      "lon": -0.929,
      "cp": "40210",
      "ville": "Labouheyre",
      "prix": {
        "Gazole": 0.002165,
        "SP95": 0.002059,
        "GPLc": 0.001031,
        "E10": 0.0020299999999999997
      },
      "maj_gouv": {
        "Gazole": "2026-05-09 01:16:00",
        "SP95": "2026-05-09 01:16:00",
        "GPLc": "2026-05-09 01:16:00",
        "E10": "2026-05-09 01:16:00"
      }
    },
    {
      "id": "40260008",
      "lat": 43.937,
      "lon": -1.093,
      "cp": "40260",
      "ville": "Lesperon",
      "prix": {
        "Gazole": 0.0024100000000000002,
        "GPLc": 0.00106,
        "E10": 0.00218,
        "SP98": 0.00228
      },
      "maj_gouv": {
        "Gazole": "2026-05-06 08:25:23",
        "GPLc": "2025-11-20 07:01:33",
        "E10": "2026-05-06 08:25:23",
        "SP98": "2026-05-06 08:25:23"
      }
    },
    {
      "id": "40260002",
      "lat": 43.937,
      "lon": -1.087,
      "cp": "40260",
      "ville": "LESPERON",
      "prix": {
        "Gazole": 0.002776,
        "GPLc": 0.0012410000000000001,
        "E10": 0.002387,
        "SP98": 0.0025369999999999998
      },
      "maj_gouv": {
        "Gazole": "2026-05-05 09:30:00",
        "GPLc": "2026-05-05 09:30:00",
        "E10": "2026-05-05 09:30:00",
        "SP98": "2026-05-05 09:30:00"
      }
    },
    {
      "id": "40100001",
      "lat": 43.71,
      "lon": -1.041,
      "cp": "40100",
      "ville": "DAX",
      "prix": {
        "Gazole": 0.002179,
        "E10": 0.001999,
        "SP98": 0.002129
      },
      "maj_gouv": {
        "Gazole": "2026-05-05 10:32:42",
        "E10": "2026-05-05 10:32:42",
        "SP98": "2026-05-05 10:32:42"
      }
    },
    {
      "id": "40160005",
      "lat": 44.353,
      "lon": -1.08,
      "cp": "40160",
      "ville": "Parentis-en-Born",
      "prix": {
        "Gazole": 0.002219,
        "SP95": 0.002129,
        "E10": 0.002079,
        "SP98": 0.002159
      },
      "maj_gouv": {
        "Gazole": "2026-05-07 08:04:36",
        "SP95": "2026-05-07 08:04:36",
        "E10": "2026-05-07 08:04:36",
        "SP98": "2026-05-07 08:04:36"
      }
    },
    {
      "id": "40240007",
      "lat": 44.064,
      "lon": -0.057,
      "cp": "40240",
      "ville": "LOSSE",
      "prix": {
        "Gazole": 0.002229,
        "E10": 0.002029,
        "SP98": 0.002139
      },
      "maj_gouv": {
        "Gazole": "2026-05-04 12:29:25",
        "E10": "2026-05-05 17:37:04",
        "SP98": "2026-05-06 14:38:10"
      }
    },
    {
      "id": "40800008",
      "lat": 43.707393700000004,
      "lon": -0.2565532,
      "cp": "40800",
      "ville": "Aire-sur-l'Adour",
      "prix": {
        "Gazole": 0.002199,
        "SP95": 0.002139,
        "E10": 0.002039
      },
      "maj_gouv": {
        "Gazole": "2026-05-07 13:30:43",
        "SP95": "2026-05-07 13:30:43",
        "E10": "2026-05-07 13:30:43"
      }
    },
    {
      "id": "40160001",
      "lat": 44.34909,
      "lon": -1.06754,
      "cp": "40160",
      "ville": "PARENTIS-EN-BORN",
      "prix": {
        "Gazole": 0.002219,
        "SP95": 0.002129,
        "E10": 0.002079
      },
      "maj_gouv": {
        "Gazole": "2026-05-06 18:30:00",
        "SP95": "2026-05-06 18:30:00",
        "E10": "2026-05-06 18:30:00"
      }
    },
    {
      "id": "40550001",
      "lat": 43.8867,
      "lon": -1.29501,
      "cp": "40550",
      "ville": "LéON",
      "prix": {
        "Gazole": 0.002234,
        "E85": 0.000875,
        "E10": 0.0020659999999999997,
        "SP98": 0.002195
      },
      "maj_gouv": {
        "Gazole": "2026-05-05 22:41:00",
        "E85": "2026-05-05 22:41:00",
        "E10": "2026-05-05 22:41:00",
        "SP98": "2026-05-05 22:41:00"
      }
    },
    {
      "id": "40180001",
      "lat": 43.683347419,
      "lon": -0.99557445703,
      "cp": "40180",
      "ville": "SAUGNAC-ET-CAMBRAN",
      "prix": {
        "Gazole": 0.00209,
        "E10": 0.00199
      },
      "maj_gouv": {
        "Gazole": "2026-05-08 12:22:52",
        "E10": "2026-05-08 12:22:52"
      }
    },
    {
      "id": "40990002",
      "lat": 43.732,
      "lon": -1.045,
      "cp": "40990",
      "ville": "Saint-Paul-lès-Dax",
      "prix": {
        "Gazole": 0.002169,
        "SP95": 0.002078,
        "E85": 0.000819,
        "E10": 0.002036
      },
      "maj_gouv": {
        "Gazole": "2026-05-09 01:15:00",
        "SP95": "2026-05-09 01:15:00",
        "E85": "2026-05-09 01:15:00",
        "E10": "2026-05-09 01:15:00"
      }
    },
    {
      "id": "40400005",
      "lat": 43.827363479028,
      "lon": -0.8344030125094299,
      "cp": "40400",
      "ville": "Bégaar",
      "prix": {
        "Gazole": 0.002189,
        "SP95": 0.002089,
        "E10": 0.002019,
        "SP98": 0.002129
      },
      "maj_gouv": {
        "Gazole": "2026-05-07 09:20:22",
        "SP95": "2026-05-08 09:20:20",
        "E10": "2026-05-04 09:28:57",
        "SP98": "2026-05-04 09:28:57"
      }
    },
    {
      "id": "40270004",
      "lat": 43.774,
      "lon": -0.432,
      "cp": "40270",
      "ville": "Grenade-sur-l'Adour",
      "prix": {
        "Gazole": 0.002189,
        "SP95": 0.002059,
        "SP98": 0.002139
      },
      "maj_gouv": {
        "Gazole": "2026-05-08 06:10:49",
        "SP95": "2026-05-08 06:10:49",
        "SP98": "2026-05-08 06:10:49"
      }
    },
    {
      "id": "40230005",
      "lat": 43.714,
      "lon": -1.233,
      "cp": "40230",
      "ville": "Saint-Geours-de-Maremne",
      "prix": {
        "Gazole": 0.002219,
        "E85": 0.000949,
        "E10": 0.002059,
        "SP98": 0.002159
      },
      "maj_gouv": {
        "Gazole": "2026-05-06 23:59:00",
        "E85": "2026-04-29 12:57:57",
        "E10": "2026-05-04 23:59:00",
        "SP98": "2026-05-04 23:59:00"
      }
    },
    {
      "id": "40460002",
      "lat": 44.4973242,
      "lon": -1.0558437,
      "cp": "40460",
      "ville": "Sanguinet",
      "prix": {
        "Gazole": 0.002249,
        "SP95": 0.002099,
        "E85": 0.000829,
        "E10": 0.002059
      },
      "maj_gouv": {
        "Gazole": "2026-05-05 08:49:42",
        "SP95": "2026-05-05 08:49:42",
        "E85": "2026-04-17 07:41:30",
        "E10": "2026-05-05 08:49:42"
      }
    },
    {
      "id": "40180003",
      "lat": 43.707185996655,
      "lon": -1.0229783097333,
      "cp": "40100",
      "ville": "YZOSSE",
      "prix": {
        "Gazole": 0.002169,
        "E85": 0.000819,
        "E10": 0.002036,
        "SP98": 0.002088
      },
      "maj_gouv": {
        "Gazole": "2026-05-07 11:58:04",
        "E85": "2026-04-15 09:04:01",
        "E10": "2026-05-08 08:20:18",
        "SP98": "2026-05-07 15:28:44"
      }
    },
    {
      "id": "40220002",
      "lat": 43.549,
      "lon": -1.486,
      "cp": "40220",
      "ville": "TARNOS",
      "prix": {
        "Gazole": 0.0023490000000000004,
        "E85": 0.000819,
        "E10": 0.002189
      },
      "maj_gouv": {
        "Gazole": "2026-05-07 14:00:00",
        "E85": "2026-05-07 14:00:00",
        "E10": "2026-05-07 14:00:00"
      }
    },
    {
      "id": "40130003",
      "lat": 43.645,
      "lon": -1.426,
      "cp": "40130",
      "ville": "CAPBRETON",
      "prix": {
        "Gazole": 0.002199,
        "E85": 0.000739,
        "E10": 0.002049,
        "SP98": 0.002098
      },
      "maj_gouv": {
        "Gazole": "2026-04-30 15:29:36",
        "E85": "2026-04-30 15:29:37",
        "E10": "2026-05-05 10:00:00",
        "SP98": "2026-05-05 10:00:00"
      }
    },
    {
      "id": "40700004",
      "lat": 43.657,
      "lon": -0.58,
      "cp": "40700",
      "ville": "Hagetmau",
      "prix": {
        "Gazole": 0.002219,
        "SP95": 0.002079,
        "SP98": 0.0021190000000000002
      },
      "maj_gouv": {
        "Gazole": "2026-05-06 09:12:51",
        "SP95": "2026-05-04 12:35:58",
        "SP98": "2026-04-03 07:08:37"
      }
    },
    {
      "id": "40110001",
      "lat": 44.030531149603,
      "lon": -0.9243893274282899,
      "cp": "40110",
      "ville": "Morcenx",
      "prix": {
        "Gazole": 0.002189,
        "SP95": 0.002129,
        "SP98": 0.00217
      },
      "maj_gouv": {
        "Gazole": "2026-05-07 09:25:13",
        "SP95": "2026-05-04 14:33:29",
        "SP98": "2026-05-04 14:34:16"
      }
    },
    {
      "id": "40360003",
      "lat": 43.6261892,
      "lon": -0.8252505,
      "cp": "40360",
      "ville": "Pomarez",
      "prix": {
        "Gazole": 0.002199,
        "SP95": 0.002099,
        "SP98": 0.002109
      },
      "maj_gouv": {
        "Gazole": "2026-05-02 09:23:00",
        "SP95": "2026-03-21 20:21:10",
        "SP98": "2026-03-21 20:21:10"
      }
    },
    {
      "id": "40000001",
      "lat": 43.883,
      "lon": -0.482,
      "cp": "40000",
      "ville": "MONT-DE-MARSAN",
      "prix": {
        "Gazole": 0.0022389999999999997,
        "E10": 0.001999,
        "SP98": 0.0021190000000000002
      },
      "maj_gouv": {
        "Gazole": "2026-04-29 11:55:03",
        "E10": "2026-04-29 08:11:37",
        "SP98": "2026-04-29 08:11:37"
      }
    },
    {
      "id": "40500001",
      "lat": 43.749,
      "lon": -0.564,
      "cp": "40500",
      "ville": "SAINT-SEVER",
      "prix": {
        "Gazole": 0.002219,
        "SP95": 0.002109,
        "SP98": 0.002129
      },
      "maj_gouv": {
        "Gazole": "2026-05-06 17:58:50",
        "SP95": "2026-05-06 13:39:18",
        "SP98": "2026-04-29 12:02:03"
      }
    },
    {
      "id": "40400001",
      "lat": 43.829,
      "lon": -0.804,
      "cp": "40400",
      "ville": "TARTAS",
      "prix": {
        "Gazole": 0.00209,
        "E10": 0.00199,
        "SP98": 0.00199
      },
      "maj_gouv": {
        "Gazole": "2026-05-08 00:02:00",
        "E10": "2026-05-06 07:09:28",
        "SP98": "2026-05-06 07:09:28"
      }
    },
    {
      "id": "40320002",
      "lat": 43.641402315507996,
      "lon": -0.51206767452832,
      "cp": "40320",
      "ville": "Samadet",
      "prix": {
        "Gazole": 0.00226,
        "E85": 0.00094,
        "E10": 0.00204
      },
      "maj_gouv": {
        "Gazole": "2026-05-08 10:49:59",
        "E85": "2026-04-23 09:43:52",
        "E10": "2026-05-08 10:50:00"
      }
    },
    {
      "id": "40600004",
      "lat": 44.3831,
      "lon": -1.14726,
      "cp": "40600",
      "ville": "BISCARROSSE",
      "prix": {
        "Gazole": 0.002219,
        "SP95": 0.002129,
        "E85": 0.000739,
        "SP98": 0.002159
      },
      "maj_gouv": {
        "Gazole": "2026-05-07 10:38:46",
        "SP95": "2026-05-07 10:38:46",
        "E85": "2026-04-30 07:18:13",
        "SP98": "2026-05-07 10:38:46"
      }
    },
    {
      "id": "40230004",
      "lat": 43.689392196755996,
      "lon": -1.3330044457269,
      "cp": "40230",
      "ville": "Tosse",
      "prix": {
        "Gazole": 0.002169,
        "SP95": 0.002109,
        "E10": 0.002038,
        "SP98": 0.002099
      },
      "maj_gouv": {
        "Gazole": "2026-05-08 12:44:34",
        "SP95": "2026-05-05 12:18:25",
        "E10": "2026-05-08 12:44:34",
        "SP98": "2026-05-04 12:00:19"
      }
    },
    {
      "id": "40990001",
      "lat": 43.741,
      "lon": -1.018,
      "cp": "40990",
      "ville": "Saint-Vincent-de-Paul",
      "prix": {
        "Gazole": 0.0021739999999999997,
        "E85": 0.0008810000000000001,
        "GPLc": 0.00107,
        "E10": 0.00199,
        "SP98": 0.00199
      },
      "maj_gouv": {
        "Gazole": "2026-05-07 08:35:10",
        "E85": "2026-04-30 18:47:09",
        "GPLc": "2026-04-30 18:47:09",
        "E10": "2026-05-07 08:35:10",
        "SP98": "2026-05-07 08:35:10"
      }
    },
    {
      "id": "40150002",
      "lat": 43.659010099999996,
      "lon": -1.3683753,
      "cp": "40150",
      "ville": "Angresse",
      "prix": {
        "Gazole": 0.002199,
        "E85": 0.000799,
        "E10": 0.002042,
        "SP98": 0.002105
      },
      "maj_gouv": {
        "Gazole": "2026-05-06 08:55:29",
        "E85": "2026-04-30 17:15:26",
        "E10": "2026-05-04 14:50:31",
        "SP98": "2026-05-06 08:55:29"
      }
    },
    {
      "id": "40170003",
      "lat": 44.025,
      "lon": -1.259,
      "cp": "40170",
      "ville": "LIT-ET-MIXE",
      "prix": {
        "Gazole": 0.002199,
        "SP95": 0.002129,
        "E10": 0.002089,
        "SP98": 0.002159
      },
      "maj_gouv": {
        "Gazole": "2026-04-29 15:45:26",
        "SP95": "2026-05-07 14:57:47",
        "E10": "2026-05-07 14:57:47",
        "SP98": "2026-05-07 14:57:47"
      }
    },
    {
      "id": "40170004",
      "lat": 44.067,
      "lon": -1.228,
      "cp": "40170",
      "ville": "SAINT-JULIEN-EN-BORN",
      "prix": {
        "Gazole": 0.002238,
        "SP95": 0.002113,
        "SP98": 0.002198
      },
      "maj_gouv": {
        "Gazole": "2026-05-08 11:16:48",
        "SP95": "2026-05-05 11:01:25",
        "SP98": "2026-05-05 11:01:26"
      }
    },
    {
      "id": "40000007",
      "lat": 43.884,
      "lon": -0.498,
      "cp": "40000",
      "ville": "Mont-de-Marsan",
      "prix": {
        "Gazole": 0.002199,
        "SP95": 0.0020670000000000003,
        "E10": 0.002039
      },
      "maj_gouv": {
        "Gazole": "2026-05-07 09:25:34",
        "SP95": "2026-05-07 10:28:55",
        "E10": "2026-05-07 09:25:34"
      }
    },
    {
      "id": "40120003",
      "lat": 44.023813382481,
      "lon": -0.33892597342881997,
      "cp": "40120",
      "ville": "Sarbazan",
      "prix": {
        "Gazole": 0.002222,
        "SP95": 0.002125,
        "E10": 0.002098
      },
      "maj_gouv": {
        "Gazole": "2026-05-09 01:18:00",
        "SP95": "2026-05-09 01:18:00",
        "E10": "2026-05-09 01:18:00"
      }
    },
    {
      "id": "40260009",
      "lat": 43.869941219434004,
      "lon": -1.1338228489867999,
      "cp": "40260",
      "ville": "CASTETS",
      "prix": {},
      "maj_gouv": {}
    },
    {
      "id": "40260005",
      "lat": 43.877,
      "lon": -1.143,
      "cp": "40260",
      "ville": "CASTETS",
      "prix": {
        "Gazole": 0.002189,
        "SP95": 0.002079,
        "E10": 0.0020350000000000004
      },
      "maj_gouv": {
        "Gazole": "2026-05-07 13:06:03",
        "SP95": "2026-05-06 08:38:13",
        "E10": "2026-05-07 13:06:03"
      }
    },
    {
      "id": "40100008",
      "lat": 43.717,
      "lon": -1.051,
      "cp": "40100",
      "ville": "DAX",
      "prix": {
        "GPLc": 0.001059
      },
      "maj_gouv": {
        "GPLc": "2026-05-09 00:01:00"
      }
    },
    {
      "id": "40300003",
      "lat": 43.55,
      "lon": -1.123,
      "cp": "40300",
      "ville": "PEYREHORADE",
      "prix": {
        "Gazole": 0.002212,
        "SP95": 0.002097,
        "SP98": 0.002178
      },
      "maj_gouv": {
        "Gazole": "2026-05-07 11:32:59",
        "SP95": "2026-05-07 11:32:59",
        "SP98": "2026-05-07 11:32:59"
      }
    },
    {
      "id": "40700001",
      "lat": 43.659,
      "lon": -0.591,
      "cp": "40700",
      "ville": "HAGETMAU",
      "prix": {
        "Gazole": 0.00209,
        "E10": 0.00199
      },
      "maj_gouv": {
        "Gazole": "2026-05-08 00:00:00",
        "E10": "2026-05-05 12:18:10"
      }
    },
    {
      "id": "40180002",
      "lat": 43.68,
      "lon": -1.093,
      "cp": "40180",
      "ville": "OEYRELUY",
      "prix": {
        "Gazole": 0.00209,
        "SP95": 0.00199
      },
      "maj_gouv": {
        "Gazole": "2026-05-08 08:00:00",
        "SP95": "2026-05-05 16:49:39"
      }
    },
    {
      "id": "40140001",
      "lat": 43.779,
      "lon": -1.216,
      "cp": "40140",
      "ville": "MAGESCQ",
      "prix": {
        "Gazole": 0.00225,
        "SP95": 0.00199
      },
      "maj_gouv": {
        "Gazole": "2026-04-08 14:30:05",
        "SP95": "2026-04-08 14:30:06"
      }
    },
    {
      "id": "40210001",
      "lat": 44.21,
      "lon": -0.925,
      "cp": "40210",
      "ville": "Labouheyre",
      "prix": {
        "Gazole": 0.002165,
        "SP95": 0.002059,
        "E85": 0.0008179999999999999,
        "E10": 0.0020299999999999997
      },
      "maj_gouv": {
        "Gazole": "2026-05-07 09:55:15",
        "SP95": "2026-05-07 09:55:15",
        "E85": "2026-04-17 11:58:14",
        "E10": "2026-05-07 09:55:15"
      }
    },
    {
      "id": "40370001",
      "lat": 43.92756,
      "lon": -0.92096,
      "cp": "40370",
      "ville": "Rion-des-Landes",
      "prix": {
        "Gazole": 0.0023889999999999996,
        "SP95": 0.002049
      },
      "maj_gouv": {
        "Gazole": "2026-04-13 11:02:01",
        "SP95": "2026-04-03 11:30:37"
      }
    },
    {
      "id": "40250001",
      "lat": 43.746086876999996,
      "lon": -0.758021592231,
      "cp": "40250",
      "ville": "MUGRON",
      "prix": {
        "Gazole": 0.002199,
        "SP95": 0.002045,
        "SP98": 0.002109
      },
      "maj_gouv": {
        "Gazole": "2026-05-06 06:34:12",
        "SP95": "2026-05-07 11:01:50",
        "SP98": "2026-05-07 11:01:50"
      }
    },
    {
      "id": "40410002",
      "lat": 44.304,
      "lon": -0.777,
      "cp": "40410",
      "ville": "PISSOS",
      "prix": {
        "Gazole": 0.002245,
        "SP95": 0.002075,
        "E85": 0.000875
      },
      "maj_gouv": {
        "Gazole": "2026-05-04 21:13:39",
        "SP95": "2026-05-04 21:13:39",
        "E85": "2026-05-04 21:13:39"
      }
    },
    {
      "id": "40200002",
      "lat": 44.205,
      "lon": -1.22,
      "cp": "40200",
      "ville": "MIMIZAN",
      "prix": {
        "Gazole": 0.002165,
        "E85": 0.0008169999999999999,
        "E10": 0.0020299999999999997,
        "SP98": 0.002129
      },
      "maj_gouv": {
        "Gazole": "2026-05-09 01:17:00",
        "E85": "2026-05-09 01:17:00",
        "E10": "2026-05-09 01:17:00",
        "SP98": "2026-05-09 01:17:00"
      }
    },
    {
      "id": "40350001",
      "lat": 43.60651,
      "lon": -0.99139,
      "cp": "40350",
      "ville": "Pouillon",
      "prix": {
        "Gazole": 0.002199,
        "E85": 0.0008179999999999999,
        "E10": 0.002019,
        "SP98": 0.002099
      },
      "maj_gouv": {
        "Gazole": "2026-05-05 07:54:27",
        "E85": "2026-04-16 07:24:18",
        "E10": "2026-05-05 07:54:28",
        "SP98": "2026-05-05 07:54:28"
      }
    },
    {
      "id": "40320001",
      "lat": 43.635865491263,
      "lon": -0.37221614856684,
      "cp": "40320",
      "ville": "GEAUNE",
      "prix": {
        "Gazole": 0.00226,
        "E10": 0.00204
      },
      "maj_gouv": {
        "Gazole": "2026-05-08 10:49:28",
        "E10": "2026-05-08 10:49:29"
      }
    },
    {
      "id": "40120001",
      "lat": 44.019,
      "lon": -0.313,
      "cp": "40120",
      "ville": "SARBAZAN",
      "prix": {
        "Gazole": 0.0022389999999999997,
        "E85": 0.000855,
        "E10": 0.0020510000000000003,
        "SP98": 0.00217
      },
      "maj_gouv": {
        "Gazole": "2026-05-06 09:09:20",
        "E85": "2026-05-06 09:09:20",
        "E10": "2026-05-06 09:09:20",
        "SP98": "2026-05-06 09:09:21"
      }
    },
    {
      "id": "40420003",
      "lat": 44.062,
      "lon": -0.662,
      "cp": "40420",
      "ville": "Garein",
      "prix": {
        "Gazole": 0.00209,
        "SP95": 0.00199
      },
      "maj_gouv": {
        "Gazole": "2026-05-08 05:52:10",
        "SP95": "2026-05-08 05:52:10"
      }
    },
    {
      "id": "40300005",
      "lat": 43.544,
      "lon": -1.075,
      "cp": "40300",
      "ville": "Cauneille",
      "prix": {
        "Gazole": 0.002209,
        "E85": 0.0008179999999999999,
        "E10": 0.002049
      },
      "maj_gouv": {
        "Gazole": "2026-05-07 12:01:09",
        "E85": "2026-04-18 10:33:51",
        "E10": "2026-05-04 11:50:54"
      }
    },
    {
      "id": "40400004",
      "lat": 43.828,
      "lon": -0.805,
      "cp": "40400",
      "ville": "TARTAS",
      "prix": {
        "Gazole": 0.002199,
        "SP95": 0.0021190000000000002,
        "SP98": 0.002189
      },
      "maj_gouv": {
        "Gazole": "2026-04-21 12:23:19",
        "SP95": "2026-05-08 08:24:27",
        "SP98": "2026-05-08 08:24:28"
      }
    },
    {
      "id": "40300008",
      "lat": 43.547,
      "lon": -1.113,
      "cp": "40300",
      "ville": "Peyrehorade",
      "prix": {
        "Gazole": 0.00225
      },
      "maj_gouv": {
        "Gazole": "2026-05-04 13:22:11"
      }
    },
    {
      "id": "40330001",
      "lat": 43.593,
      "lon": -0.755,
      "cp": "40330",
      "ville": "AMOU",
      "prix": {
        "Gazole": 0.002229,
        "E10": 0.002059,
        "SP98": 0.002199
      },
      "maj_gouv": {
        "Gazole": "2026-05-07 07:09:16",
        "E10": "2026-05-07 07:09:16",
        "SP98": "2026-05-07 07:09:16"
      }
    },
    {
      "id": "40600002",
      "lat": 44.411,
      "lon": -1.169,
      "cp": "40600",
      "ville": "BISCARROSSE",
      "prix": {
        "Gazole": 0.002219,
        "SP95": 0.002129,
        "E10": 0.002079,
        "SP98": 0.002159
      },
      "maj_gouv": {
        "Gazole": "2026-05-06 19:42:00",
        "SP95": "2026-05-06 19:42:00",
        "E10": "2026-05-06 19:42:00",
        "SP98": "2026-05-06 19:42:00"
      }
    },
    {
      "id": "40460001",
      "lat": 44.48127212,
      "lon": -1.07975102,
      "cp": "40460",
      "ville": "SANGUINET",
      "prix": {
        "Gazole": 0.002249,
        "SP95": 0.002099,
        "E85": 0.000829,
        "E10": 0.002059
      },
      "maj_gouv": {
        "Gazole": "2026-05-05 08:50:38",
        "SP95": "2026-05-05 08:50:38",
        "E85": "2026-04-17 07:42:24",
        "E10": "2026-05-05 08:50:38"
      }
    },
    {
      "id": "40660002",
      "lat": 43.850740460000004,
      "lon": -1.3549578500000001,
      "cp": "40660",
      "ville": "Moliets-et-Maa",
      "prix": {
        "Gazole": 0.002199,
        "E85": 0.00085,
        "E10": 0.0020350000000000004,
        "SP98": 0.00211
      },
      "maj_gouv": {
        "Gazole": "2026-04-20 10:26:05",
        "E85": "2026-04-27 09:28:55",
        "E10": "2026-05-05 09:50:03",
        "SP98": "2026-05-05 09:50:04"
      }
    },
    {
      "id": "40800002",
      "lat": 43.73203,
      "lon": -0.26679,
      "cp": "40800",
      "ville": "Aire-sur-l'Adour",
      "prix": {
        "Gazole": 0.00228,
        "E85": 0.00086,
        "E10": 0.00206,
        "SP98": 0.00219
      },
      "maj_gouv": {
        "Gazole": "2026-05-04 09:55:20",
        "E85": "2026-05-04 09:55:20",
        "E10": "2026-05-04 09:55:20",
        "SP98": "2026-05-04 09:55:21"
      }
    },
    {
      "id": "40400003",
      "lat": 43.860622025,
      "lon": -0.882638340499,
      "cp": "40400",
      "ville": "TARTAS",
      "prix": {
        "Gazole": 0.002189,
        "SP95": 0.002089,
        "E85": 0.000819,
        "E10": 0.002019
      },
      "maj_gouv": {
        "Gazole": "2026-05-07 09:20:38",
        "SP95": "2026-05-08 09:20:01",
        "E85": "2026-04-29 10:33:43",
        "E10": "2026-05-04 09:27:55"
      }
    },
    {
      "id": "40280005",
      "lat": 43.876,
      "lon": -0.507,
      "cp": "40280",
      "ville": "Saint-Pierre-du-Mont",
      "prix": {
        "Gazole": 0.002179,
        "E85": 0.00074,
        "E10": 0.002024,
        "SP98": 0.002154
      },
      "maj_gouv": {
        "Gazole": "2026-05-09 01:17:00",
        "E85": "2026-05-09 01:17:00",
        "E10": "2026-05-09 01:17:00",
        "SP98": "2026-05-09 01:17:00"
      }
    },
    {
      "id": "40260006",
      "lat": 43.928,
      "lon": -1.255,
      "cp": "40260",
      "ville": "LINXE",
      "prix": {
        "Gazole": 0.002189,
        "SP95": 0.002079,
        "E10": 0.0020350000000000004,
        "SP98": 0.002089
      },
      "maj_gouv": {
        "Gazole": "2026-05-09 01:16:00",
        "SP95": "2026-05-09 01:16:00",
        "E10": "2026-05-09 01:16:00",
        "SP98": "2026-05-09 01:16:00"
      }
    },
    {
      "id": "40100005",
      "lat": 43.692561158399,
      "lon": -1.0498232325563002,
      "cp": "40100",
      "ville": "Dax",
      "prix": {
        "Gazole": 0.002169,
        "E85": 0.000819,
        "E10": 0.001999,
        "SP98": 0.002098
      },
      "maj_gouv": {
        "Gazole": "2026-05-07 12:10:24",
        "E85": "2026-05-07 09:02:24",
        "E10": "2026-05-07 09:02:24",
        "SP98": "2026-05-07 09:02:24"
      }
    },
    {
      "id": "40390001",
      "lat": 43.543,
      "lon": -1.387,
      "cp": "40390",
      "ville": "SAINT-MARTIN-DE-SEIGNANX",
      "prix": {
        "Gazole": 0.002189,
        "SP95": 0.002134,
        "E10": 0.0020369999999999997,
        "SP98": 0.002137
      },
      "maj_gouv": {
        "Gazole": "2026-05-07 08:26:51",
        "SP95": "2026-05-08 10:07:03",
        "E10": "2026-05-08 10:07:04",
        "SP98": "2026-05-05 15:59:51"
      }
    },
    {
      "id": "40310001",
      "lat": 43.98646,
      "lon": 0.00999000000001,
      "cp": "40310",
      "ville": "Gabarret",
      "prix": {
        "Gazole": 0.002229,
        "SP95": 0.002099,
        "SP98": 0.002139
      },
      "maj_gouv": {
        "Gazole": "2026-05-04 12:30:11",
        "SP95": "2026-05-06 14:35:54",
        "SP98": "2026-05-06 14:37:40"
      }
    },
    {
      "id": "40130004",
      "lat": 43.639,
      "lon": -1.426,
      "cp": "40130",
      "ville": "CAPBRETON",
      "prix": {
        "Gazole": 0.002199,
        "E10": 0.002049,
        "SP98": 0.002098
      },
      "maj_gouv": {
        "Gazole": "2026-04-30 16:13:02",
        "E10": "2026-05-05 14:48:00",
        "SP98": "2026-05-05 14:48:00"
      }
    },
    {
      "id": "40420002",
      "lat": 44.106,
      "lon": -0.547,
      "cp": "40420",
      "ville": "LABRIT",
      "prix": {
        "Gazole": 0.002249,
        "E10": 0.002059,
        "SP98": 0.002214
      },
      "maj_gouv": {
        "Gazole": "2026-05-04 14:37:22",
        "E10": "2026-05-04 14:37:22",
        "SP98": "2026-05-04 14:37:22"
      }
    },
    {
      "id": "40190003",
      "lat": 43.885,
      "lon": -0.307,
      "cp": "40190",
      "ville": "VILLENEUVE-DE-MARSAN",
      "prix": {
        "Gazole": 0.002281,
        "SP95": 0.002108,
        "SP98": 0.0021920000000000004
      },
      "maj_gouv": {
        "Gazole": "2026-05-02 09:47:42",
        "SP95": "2026-05-02 09:47:42",
        "SP98": "2026-05-02 09:47:42"
      }
    },
    {
      "id": "40530003",
      "lat": 43.588,
      "lon": -1.429,
      "cp": "40530",
      "ville": "Labenne",
      "prix": {
        "Gazole": 0.002199,
        "SP95": 0.002109,
        "E10": 0.002039
      },
      "maj_gouv": {
        "Gazole": "2026-05-07 12:41:53",
        "SP95": "2026-05-07 12:41:53",
        "E10": "2026-05-07 12:41:53"
      }
    },
    {
      "id": "40370003",
      "lat": 43.918,
      "lon": -0.916,
      "cp": "40370",
      "ville": "Rion-des-Landes",
      "prix": {
        "Gazole": 0.002159,
        "E85": 0.000819,
        "E10": 0.002019,
        "SP98": 0.002078
      },
      "maj_gouv": {
        "Gazole": "2026-05-09 01:16:00",
        "E85": "2026-05-09 01:16:00",
        "E10": "2026-05-09 01:16:00",
        "SP98": "2026-05-09 01:16:00"
      }
    },
    {
      "id": "40200001",
      "lat": 44.193,
      "lon": -1.229,
      "cp": "40200",
      "ville": "MIMIZAN",
      "prix": {
        "Gazole": 0.002165,
        "E85": 0.000998,
        "E10": 0.0020299999999999997,
        "SP98": 0.00215
      },
      "maj_gouv": {
        "Gazole": "2026-05-05 07:45:05",
        "E85": "2026-04-21 13:08:13",
        "E10": "2026-05-05 07:42:41",
        "SP98": "2026-04-21 13:08:13"
      }
    },
    {
      "id": "40230001",
      "lat": 43.666989042,
      "lon": -1.2853196366242001,
      "cp": "40230",
      "ville": "Saint-Vincent-de-Tyrosse",
      "prix": {
        "Gazole": 0.002169,
        "E85": 0.000799,
        "GPLc": 0.00107,
        "E10": 0.002038,
        "SP98": 0.002099
      },
      "maj_gouv": {
        "Gazole": "2026-05-08 12:43:46",
        "E85": "2026-05-05 12:19:46",
        "GPLc": "2026-04-14 09:58:06",
        "E10": "2026-05-08 12:43:46",
        "SP98": "2026-05-04 11:59:43"
      }
    },
    {
      "id": "40150001",
      "lat": 43.67,
      "lon": -1.391,
      "cp": "40150",
      "ville": "SOORTS-HOSSEGOR",
      "prix": {
        "Gazole": 0.002199,
        "E85": 0.000879,
        "E10": 0.002049,
        "SP98": 0.002109
      },
      "maj_gouv": {
        "Gazole": "2026-05-04 11:45:48",
        "E85": "2026-04-28 11:35:06",
        "E10": "2026-05-07 09:46:51",
        "SP98": "2026-05-07 09:46:51"
      }
    },
    {
      "id": "40270005",
      "lat": 43.78,
      "lon": -0.437,
      "cp": "40270",
      "ville": "Grenade-sur-l'Adour",
      "prix": {
        "Gazole": 0.00209,
        "SP95": 0.00199
      },
      "maj_gouv": {
        "Gazole": "2026-05-08 07:55:09",
        "SP95": "2026-05-06 09:51:16"
      }
    },
    {
      "id": "40410004",
      "lat": 44.362860807475,
      "lon": -0.85169803376746,
      "cp": "40410",
      "ville": "Saugnacq-et-Muret",
      "prix": {
        "Gazole": 0.0024100000000000002,
        "GPLc": 0.00106,
        "E10": 0.00218,
        "SP98": 0.00228
      },
      "maj_gouv": {
        "Gazole": "2026-05-06 06:00:00",
        "GPLc": "2026-05-06 06:00:00",
        "E10": "2026-05-06 06:00:00",
        "SP98": "2026-05-06 06:00:00"
      }
    },
    {
      "id": "40240008",
      "lat": 43.977,
      "lon": -0.236,
      "cp": "40240",
      "ville": "Saint Justin",
      "prix": {
        "Gazole": 0.002249,
        "SP95": 0.0021190000000000002,
        "SP98": 0.002199
      },
      "maj_gouv": {
        "Gazole": "2026-05-07 15:37:07",
        "SP95": "2026-05-07 15:37:07",
        "SP98": "2026-05-07 15:37:08"
      }
    },
    {
      "id": "40160004",
      "lat": 44.327,
      "lon": -0.944,
      "cp": "40160",
      "ville": "Ychoux",
      "prix": {
        "Gazole": 0.00209
      },
      "maj_gouv": {
        "Gazole": "2026-05-08 08:05:00"
      }
    },
    {
      "id": "40630004",
      "lat": 44.14717263889101,
      "lon": -0.73739597895759,
      "cp": "40630",
      "ville": "Sabres",
      "prix": {},
      "maj_gouv": {}
    },
    {
      "id": "40660005",
      "lat": 43.795363098096,
      "lon": -1.3901242711202,
      "cp": "40660",
      "ville": "MESSANGES",
      "prix": {
        "Gazole": 0.002199,
        "E10": 0.0020350000000000004,
        "SP98": 0.002129
      },
      "maj_gouv": {
        "Gazole": "2026-05-04 10:11:56",
        "E10": "2026-05-07 17:07:06",
        "SP98": "2026-05-04 10:11:56"
      }
    },
    {
      "id": "40530002",
      "lat": 43.586,
      "lon": -1.42,
      "cp": "40530",
      "ville": "Labenne",
      "prix": {
        "Gazole": 0.002327,
        "GPLc": 0.001089,
        "E10": 0.002075,
        "SP98": 0.002175
      },
      "maj_gouv": {
        "Gazole": "2026-05-07 07:41:00",
        "GPLc": "2026-05-07 07:41:00",
        "E10": "2026-05-07 07:41:00",
        "SP98": "2026-05-07 07:41:00"
      }
    },
    {
      "id": "40530001",
      "lat": 43.587,
      "lon": -1.42,
      "cp": "40530",
      "ville": "Labenne",
      "prix": {
        "Gazole": 0.002435,
        "GPLc": 0.001089,
        "E10": 0.002156,
        "SP98": 0.0022559999999999998
      },
      "maj_gouv": {
        "Gazole": "2026-05-07 07:41:00",
        "GPLc": "2026-05-07 07:41:00",
        "E10": "2026-05-07 07:41:00",
        "SP98": "2026-05-07 07:41:00"
      }
    },
    {
      "id": "40700003",
      "lat": 43.637,
      "lon": -0.614,
      "cp": "40700",
      "ville": "HAGETMAU",
      "prix": {
        "Gazole": 0.0021939999999999998,
        "E85": 0.000853,
        "GPLc": 0.001185,
        "E10": 0.002055,
        "SP98": 0.002186
      },
      "maj_gouv": {
        "Gazole": "2026-05-07 09:00:21",
        "E85": "2026-04-15 09:15:48",
        "GPLc": "2026-04-15 09:15:49",
        "E10": "2026-05-07 09:00:21",
        "SP98": "2026-05-07 09:00:21"
      }
    },
    {
      "id": "40280008",
      "lat": 43.877,
      "lon": -0.506,
      "cp": "40280",
      "ville": "SAINT PIERRE DU MONT",
      "prix": {
        "Gazole": 0.00209,
        "GPLc": 0.00107,
        "E10": 0.00199,
        "SP98": 0.00199
      },
      "maj_gouv": {
        "Gazole": "2026-05-08 07:28:26",
        "GPLc": "2026-05-08 07:28:26",
        "E10": "2026-05-08 07:28:26",
        "SP98": "2026-05-08 07:28:27"
      }
    },
    {
      "id": "40220006",
      "lat": 43.526,
      "lon": -1.466,
      "cp": "40220",
      "ville": "Tarnos",
      "prix": {
        "Gazole": 0.002177,
        "E85": 0.000841,
        "E10": 0.001999,
        "SP98": 0.0021190000000000002
      },
      "maj_gouv": {
        "Gazole": "2026-05-07 06:22:24",
        "E85": "2026-05-07 06:22:24",
        "E10": "2026-05-07 06:22:25",
        "SP98": "2026-05-07 06:22:25"
      }
    },
    {
      "id": "40800007",
      "lat": 43.732,
      "lon": -0.239,
      "cp": "40800",
      "ville": "Aire-sur-l'Adour",
      "prix": {
        "Gazole": 0.00209,
        "E85": 0.000998,
        "E10": 0.00199,
        "SP98": 0.00199
      },
      "maj_gouv": {
        "Gazole": "2026-05-09 00:01:00",
        "E85": "2026-05-09 00:01:00",
        "E10": "2026-05-09 00:01:00",
        "SP98": "2026-05-09 00:01:00"
      }
    },
    {
      "id": "40400002",
      "lat": 43.833,
      "lon": -0.808,
      "cp": "40400",
      "ville": "Carcarès-Sainte-Croix",
      "prix": {
        "Gazole": 0.00209,
        "SP95": 0.0019890000000000003,
        "GPLc": 0.0011,
        "SP98": 0.00199
      },
      "maj_gouv": {
        "Gazole": "2026-05-07 18:55:44",
        "SP95": "2026-05-04 08:30:34",
        "GPLc": "2026-05-04 08:30:34",
        "SP98": "2026-05-04 08:30:34"
      }
    },
    {
      "id": "40990004",
      "lat": 43.726,
      "lon": -1.072,
      "cp": "40990",
      "ville": "Saint-Paul-lès-Dax",
      "prix": {
        "Gazole": 0.002169,
        "E85": 0.000819,
        "E10": 0.001999,
        "SP98": 0.002098
      },
      "maj_gouv": {
        "Gazole": "2026-05-07 12:16:27",
        "E85": "2026-05-06 09:04:42",
        "E10": "2026-05-06 09:04:42",
        "SP98": "2026-05-07 09:07:02"
      }
    },
    {
      "id": "40600005",
      "lat": 44.44134,
      "lon": -1.241538,
      "cp": "40600",
      "ville": "biscarrosse",
      "prix": {
        "Gazole": 0.00225,
        "SP95": 0.00199
      },
      "maj_gouv": {
        "Gazole": "2026-04-08 08:50:58",
        "SP95": "2026-04-08 08:50:58"
      }
    },
    {
      "id": "40280009",
      "lat": 43.886,
      "lon": -0.52,
      "cp": "40280",
      "ville": "Saint-Pierre-du-Mont",
      "prix": {
        "Gazole": 0.002399,
        "SP95": 0.002199,
        "E10": 0.002199
      },
      "maj_gouv": {
        "Gazole": "2026-05-02 11:42:12",
        "SP95": "2026-05-02 11:42:12",
        "E10": "2026-05-02 11:42:12"
      }
    }
  ]
}