{
  "departement": "33",
  "date": "2026-05-16",
  "stations": [
    {
      "id": "33114001",
      "lat": 44.623,
      "lon": -0.787,
      "cp": "33114",
      "ville": "LE BARP",
      "prix": {
        "Gazole": 0.002199,
        "E10": 0.002069,
        "SP98": 0.002179
      },
      "maj_gouv": {
        "Gazole": "2026-05-12 06:52:02",
        "E10": "2026-05-12 06:52:03",
        "SP98": "2026-05-12 06:52:03"
      }
    },
    {
      "id": "33210008",
      "lat": 44.542,
      "lon": -0.242,
      "cp": "33210",
      "ville": "LANGON",
      "prix": {
        "Gazole": 0.002184,
        "SP95": 0.002079,
        "E10": 0.002029,
        "SP98": 0.0021669999999999997
      },
      "maj_gouv": {
        "Gazole": "2026-05-09 12:13:21",
        "SP95": "2026-05-11 10:00:00",
        "E10": "2026-05-15 08:23:02",
        "SP98": "2026-05-09 12:13:22"
      }
    },
    {
      "id": "33440006",
      "lat": 44.926153290504004,
      "lon": -0.52054201580751,
      "cp": "33440",
      "ville": "Ambarès-et-Lagrave",
      "prix": {
        "Gazole": 0.002269,
        "E10": 0.0021190000000000002
      },
      "maj_gouv": {
        "Gazole": "2026-05-14 23:50:00",
        "E10": "2026-05-14 23:50:00"
      }
    },
    {
      "id": "33520002",
      "lat": 44.888,
      "lon": -0.579,
      "cp": "33520",
      "ville": "Bruges",
      "prix": {
        "Gazole": 0.002247,
        "GPLc": 0.001039,
        "E10": 0.002112,
        "SP98": 0.002212
      },
      "maj_gouv": {
        "Gazole": "2026-05-14 07:41:00",
        "GPLc": "2026-05-14 07:41:00",
        "E10": "2026-05-14 07:41:00",
        "SP98": "2026-05-14 07:41:00"
      }
    },
    {
      "id": "33640002",
      "lat": 44.688,
      "lon": -0.417,
      "cp": "33640",
      "ville": "PORTETS",
      "prix": {
        "Gazole": 0.00225,
        "SP95": 0.00199,
        "SP98": 0.00199
      },
      "maj_gouv": {
        "Gazole": "2026-04-08 06:53:12",
        "SP95": "2026-03-17 07:13:50",
        "SP98": "2026-03-17 07:13:50"
      }
    },
    {
      "id": "33340001",
      "lat": 45.3103,
      "lon": -0.93839,
      "cp": "33340",
      "ville": "Lesparre-Médoc",
      "prix": {
        "Gazole": 0.00209
      },
      "maj_gouv": {
        "Gazole": "2026-05-14 08:42:15"
      }
    },
    {
      "id": "33760002",
      "lat": 44.736,
      "lon": -0.268,
      "cp": "33760",
      "ville": "TARGON",
      "prix": {
        "Gazole": 0.002199,
        "SP95": 0.002079,
        "SP98": 0.002165
      },
      "maj_gouv": {
        "Gazole": "2026-05-04 08:04:22",
        "SP95": "2026-05-15 12:33:12",
        "SP98": "2026-05-15 12:33:12"
      }
    },
    {
      "id": "33370006",
      "lat": 44.846957,
      "lon": -0.497714,
      "cp": "33370",
      "ville": "ARTIGUES-PRèS-BORDEAUX",
      "prix": {
        "Gazole": 0.0021469999999999996,
        "SP95": 0.0020670000000000003,
        "E85": 0.000798,
        "E10": 0.002032,
        "SP98": 0.002127
      },
      "maj_gouv": {
        "Gazole": "2026-05-15 08:30:00",
        "SP95": "2026-05-15 08:30:00",
        "E85": "2026-05-15 08:30:00",
        "E10": "2026-05-15 08:30:00",
        "SP98": "2026-05-15 08:30:00"
      }
    },
    {
      "id": "33370005",
      "lat": 44.871,
      "lon": -0.469,
      "cp": "33370",
      "ville": "YVRAC",
      "prix": {
        "Gazole": 0.002059,
        "E10": 0.0020299999999999997,
        "SP98": 0.00214
      },
      "maj_gouv": {
        "Gazole": "2026-05-15 08:21:43",
        "E10": "2026-05-15 08:21:43",
        "SP98": "2026-05-15 08:21:43"
      }
    },
    {
      "id": "33730001",
      "lat": 44.46,
      "lon": -0.375,
      "cp": "33730",
      "ville": "VILLANDRAUT",
      "prix": {
        "Gazole": 0.00209,
        "SP95": 0.00199
      },
      "maj_gouv": {
        "Gazole": "2026-05-13 19:08:22",
        "SP95": "2026-05-13 19:08:22"
      }
    },
    {
      "id": "33320003",
      "lat": 44.881,
      "lon": -0.651,
      "cp": "33320",
      "ville": "Eysines",
      "prix": {
        "Gazole": 0.002061,
        "E10": 0.0019950000000000002,
        "SP98": 0.002109
      },
      "maj_gouv": {
        "Gazole": "2026-05-13 08:23:19",
        "E10": "2026-05-13 08:23:19",
        "SP98": "2026-05-13 08:23:19"
      }
    },
    {
      "id": "33550002",
      "lat": 44.71373,
      "lon": -0.39435,
      "cp": "33550",
      "ville": "Langoiran",
      "prix": {
        "Gazole": 0.002089,
        "SP95": 0.002099,
        "E10": 0.002019,
        "SP98": 0.002139
      },
      "maj_gouv": {
        "Gazole": "2026-05-13 08:25:52",
        "SP95": "2026-05-13 08:25:52",
        "E10": "2026-05-13 08:25:52",
        "SP98": "2026-05-13 08:25:52"
      }
    },
    {
      "id": "33460003",
      "lat": 44.994,
      "lon": -0.693,
      "cp": "33460",
      "ville": "ARSAC",
      "prix": {},
      "maj_gouv": {}
    },
    {
      "id": "33370007",
      "lat": 44.825,
      "lon": -0.444,
      "cp": "33370",
      "ville": "FARGUES-SAINT-HILAIRE",
      "prix": {
        "Gazole": 0.00209,
        "E85": 0.000819,
        "E10": 0.002022,
        "SP98": 0.002099
      },
      "maj_gouv": {
        "Gazole": "2026-05-15 13:46:29",
        "E85": "2026-05-15 13:46:29",
        "E10": "2026-05-15 13:46:29",
        "SP98": "2026-05-15 13:46:30"
      }
    },
    {
      "id": "33000014",
      "lat": 44.855,
      "lon": -0.592,
      "cp": "33000",
      "ville": "BORDEAUX",
      "prix": {
        "Gazole": 0.002099,
        "E10": 0.002039,
        "SP98": 0.002149
      },
      "maj_gouv": {
        "Gazole": "2026-05-15 12:02:45",
        "E10": "2026-05-15 12:02:45",
        "SP98": "2026-05-15 12:02:45"
      }
    },
    {
      "id": "33127002",
      "lat": 44.801,
      "lon": -0.779,
      "cp": "33127",
      "ville": "Saint-Jean-d'Illac",
      "prix": {
        "Gazole": 0.00209,
        "SP95": 0.00199,
        "SP98": 0.00199
      },
      "maj_gouv": {
        "Gazole": "2026-05-13 23:27:11",
        "SP95": "2026-04-22 11:15:43",
        "SP98": "2026-05-06 11:08:54"
      }
    },
    {
      "id": "33430005",
      "lat": 44.439,
      "lon": -0.229,
      "cp": "33430",
      "ville": "BAZAS",
      "prix": {
        "Gazole": 0.002106,
        "E10": 0.002039,
        "SP98": 0.002125
      },
      "maj_gouv": {
        "Gazole": "2026-05-15 12:00:00",
        "E10": "2026-05-15 12:00:00",
        "SP98": "2026-05-15 12:00:00"
      }
    },
    {
      "id": "33710003",
      "lat": 45.076,
      "lon": -0.499,
      "cp": "33710",
      "ville": "PUGNAC",
      "prix": {
        "Gazole": 0.002199,
        "SP95": 0.002109,
        "E85": 0.000798,
        "E10": 0.002059
      },
      "maj_gouv": {
        "Gazole": "2026-05-15 14:57:50",
        "SP95": "2026-05-15 14:57:50",
        "E85": "2026-05-15 14:57:50",
        "E10": "2026-05-15 14:57:50"
      }
    },
    {
      "id": "33110007",
      "lat": 44.86,
      "lon": -0.612,
      "cp": "33110",
      "ville": "LE BOUSCAT",
      "prix": {
        "Gazole": 0.00209,
        "E85": 0.000825
      },
      "maj_gouv": {
        "Gazole": "2026-05-16 00:01:00",
        "E85": "2026-05-16 00:01:00"
      }
    },
    {
      "id": "33502001",
      "lat": 44.898,
      "lon": -0.209,
      "cp": "33500",
      "ville": "LIBOURNE",
      "prix": {
        "Gazole": 0.00209,
        "E10": 0.00199,
        "SP98": 0.00199
      },
      "maj_gouv": {
        "Gazole": "2026-05-14 10:34:17",
        "E10": "2026-05-13 08:19:00",
        "SP98": "2026-05-13 08:19:00"
      }
    },
    {
      "id": "33510006",
      "lat": 44.743110800000004,
      "lon": -1.1005943,
      "cp": "33510",
      "ville": "Andernos-les-Bains",
      "prix": {
        "Gazole": 0.002229,
        "E10": 0.001999,
        "SP98": 0.002106
      },
      "maj_gouv": {
        "Gazole": "2026-05-04 09:50:34",
        "E10": "2026-05-13 09:54:02",
        "SP98": "2026-05-04 09:50:35"
      }
    },
    {
      "id": "33500008",
      "lat": 44.919,
      "lon": -0.242,
      "cp": "33500",
      "ville": "Libourne",
      "prix": {
        "Gazole": 0.002235,
        "E10": 0.002121,
        "SP98": 0.0022519999999999997
      },
      "maj_gouv": {
        "Gazole": "2026-05-14 05:45:00",
        "E10": "2026-05-14 05:45:00",
        "SP98": "2026-05-14 05:45:00"
      }
    },
    {
      "id": "33790001",
      "lat": 44.74436,
      "lon": 0.07909,
      "cp": "33790",
      "ville": "PELLEGRUE",
      "prix": {
        "Gazole": 0.002149,
        "E10": 0.001999,
        "SP98": 0.0021190000000000002
      },
      "maj_gouv": {
        "Gazole": "2026-05-11 17:19:40",
        "E10": "2026-05-11 17:19:40",
        "SP98": "2026-05-11 17:19:40"
      }
    },
    {
      "id": "33240014",
      "lat": 44.968755777045004,
      "lon": -0.37666953771581996,
      "cp": "33240",
      "ville": "CADILLAC-EN-FRONSADAIS",
      "prix": {
        "Gazole": 0.00209,
        "SP95": 0.00199
      },
      "maj_gouv": {
        "Gazole": "2026-05-15 07:41:15",
        "SP95": "2026-05-15 07:41:15"
      }
    },
    {
      "id": "33250004",
      "lat": 45.201,
      "lon": -0.75,
      "cp": "33250",
      "ville": "PAUILLAC",
      "prix": {
        "Gazole": 0.002065,
        "SP95": 0.002055,
        "E10": 0.0020299999999999997,
        "SP98": 0.002105
      },
      "maj_gouv": {
        "Gazole": "2026-05-15 10:07:01",
        "SP95": "2026-05-15 10:07:01",
        "E10": "2026-05-15 10:07:01",
        "SP98": "2026-05-15 10:07:01"
      }
    },
    {
      "id": "33430001",
      "lat": 44.433877400700005,
      "lon": -0.21895288266399998,
      "cp": "33430",
      "ville": "BAZAS",
      "prix": {
        "Gazole": 0.002097,
        "SP95": 0.002109,
        "E10": 0.002039,
        "SP98": 0.0021349999999999997
      },
      "maj_gouv": {
        "Gazole": "2026-05-15 13:16:18",
        "SP95": "2026-05-12 18:57:38",
        "E10": "2026-05-15 13:16:18",
        "SP98": "2026-05-12 18:57:39"
      }
    },
    {
      "id": "33930001",
      "lat": 45.376978748000006,
      "lon": -1.14406334524,
      "cp": "33930",
      "ville": "VENDAYS-MONTALIVET",
      "prix": {
        "Gazole": 0.00209,
        "E10": 0.00199,
        "SP98": 0.00199
      },
      "maj_gouv": {
        "Gazole": "2026-05-15 09:23:06",
        "E10": "2026-05-15 09:23:06",
        "SP98": "2026-05-15 09:23:06"
      }
    },
    {
      "id": "33390003",
      "lat": 45.127,
      "lon": -0.643,
      "cp": "33390",
      "ville": "BLAYE",
      "prix": {
        "Gazole": 0.002095,
        "E85": 0.000756,
        "E10": 0.0019890000000000003,
        "SP98": 0.002063
      },
      "maj_gouv": {
        "Gazole": "2026-05-13 12:28:38",
        "E85": "2026-05-11 12:03:00",
        "E10": "2026-05-11 12:03:00",
        "SP98": "2026-05-04 20:30:00"
      }
    },
    {
      "id": "33920005",
      "lat": 45.18921876384199,
      "lon": -0.4908950744995,
      "cp": "33920",
      "ville": "SAUGON",
      "prix": {
        "Gazole": 0.002306,
        "E85": 0.000929,
        "GPLc": 0.001064,
        "E10": 0.002199,
        "SP98": 0.002278
      },
      "maj_gouv": {
        "Gazole": "2026-05-11 23:59:00",
        "E85": "2026-05-11 23:59:00",
        "GPLc": "2026-05-11 23:59:00",
        "E10": "2026-05-11 23:59:00",
        "SP98": "2026-05-11 23:59:00"
      }
    },
    {
      "id": "33170010",
      "lat": 44.786,
      "lon": -0.595,
      "cp": "33170",
      "ville": "GRADIGNAN",
      "prix": {
        "Gazole": 0.002299,
        "E85": 0.000999,
        "GPLc": 0.001099,
        "E10": 0.002199,
        "SP98": 0.002299
      },
      "maj_gouv": {
        "Gazole": "2026-05-15 06:00:00",
        "E85": "2026-05-15 06:00:00",
        "GPLc": "2026-05-15 06:00:00",
        "E10": "2026-05-15 06:00:00",
        "SP98": "2026-05-15 06:00:00"
      }
    },
    {
      "id": "33127006",
      "lat": 44.81,
      "lon": -0.775,
      "cp": "33127",
      "ville": "Saint-Jean-d'Illac",
      "prix": {
        "Gazole": 0.002183,
        "E10": 0.001996,
        "SP98": 0.002106
      },
      "maj_gouv": {
        "Gazole": "2026-05-04 15:22:35",
        "E10": "2026-05-04 15:22:35",
        "SP98": "2026-05-04 15:22:35"
      }
    },
    {
      "id": "33480002",
      "lat": 45.033,
      "lon": -0.799,
      "cp": "33480",
      "ville": "CASTELNAU-DE-MéDOC",
      "prix": {
        "Gazole": 0.00209,
        "SP95": 0.00199
      },
      "maj_gouv": {
        "Gazole": "2026-05-14 00:01:00",
        "SP95": "2026-05-12 18:15:12"
      }
    },
    {
      "id": "33140006",
      "lat": 44.75214,
      "lon": -0.53211,
      "cp": "33140",
      "ville": "Cadaujac",
      "prix": {
        "Gazole": 0.002099,
        "E10": 0.001999,
        "SP98": 0.002099
      },
      "maj_gouv": {
        "Gazole": "2026-05-12 08:39:20",
        "E10": "2026-05-12 08:39:20",
        "SP98": "2026-05-12 08:39:20"
      }
    },
    {
      "id": "33167001",
      "lat": 44.884,
      "lon": -0.691,
      "cp": "33160",
      "ville": "Saint-Médard-en-Jalles",
      "prix": {
        "Gazole": 0.002045,
        "SP95": 0.002048,
        "E85": 0.000739,
        "GPLc": 0.001059,
        "E10": 0.002019,
        "SP98": 0.002079
      },
      "maj_gouv": {
        "Gazole": "2026-05-16 01:17:00",
        "SP95": "2026-05-16 01:17:00",
        "E85": "2026-05-16 01:17:00",
        "GPLc": "2026-05-16 01:17:00",
        "E10": "2026-05-16 01:17:00",
        "SP98": "2026-05-16 01:17:00"
      }
    },
    {
      "id": "33220001",
      "lat": 44.845,
      "lon": 0.181,
      "cp": "33220",
      "ville": "PORT-SAINTE-FOY-ET-PONCHAPT",
      "prix": {
        "Gazole": 0.002078,
        "SP95": 0.002027,
        "E10": 0.001999,
        "SP98": 0.002089
      },
      "maj_gouv": {
        "Gazole": "2026-05-16 01:18:00",
        "SP95": "2026-05-16 01:18:00",
        "E10": "2026-05-16 01:18:00",
        "SP98": "2026-05-16 01:18:00"
      }
    },
    {
      "id": "33220007",
      "lat": 44.841,
      "lon": 0.23,
      "cp": "33220",
      "ville": "PINEUILH",
      "prix": {
        "Gazole": 0.002195,
        "SP95": 0.002029,
        "E10": 0.0019890000000000003
      },
      "maj_gouv": {
        "Gazole": "2026-04-28 15:43:19",
        "SP95": "2026-04-28 15:43:20",
        "E10": "2026-04-28 15:43:20"
      }
    },
    {
      "id": "33230001",
      "lat": 45.046,
      "lon": -0.121,
      "cp": "33230",
      "ville": "COUTRAS",
      "prix": {
        "Gazole": 0.002089,
        "SP95": 0.002169,
        "E85": 0.000759,
        "E10": 0.002029,
        "SP98": 0.002109
      },
      "maj_gouv": {
        "Gazole": "2026-05-16 01:16:00",
        "SP95": "2026-05-16 01:16:00",
        "E85": "2026-05-16 01:16:00",
        "E10": "2026-05-16 01:16:00",
        "SP98": "2026-05-16 01:16:00"
      }
    },
    {
      "id": "33240010",
      "lat": 44.9790295481,
      "lon": -0.430828070241,
      "cp": "33240",
      "ville": "ST ANDRE DE CUBZAC",
      "prix": {
        "Gazole": 0.00209,
        "E85": 0.000998,
        "GPLc": 0.001048,
        "E10": 0.00199,
        "SP98": 0.00199
      },
      "maj_gouv": {
        "Gazole": "2026-05-16 00:01:00",
        "E85": "2026-05-16 00:01:00",
        "GPLc": "2026-05-16 00:01:00",
        "E10": "2026-05-16 00:01:00",
        "SP98": "2026-05-16 00:01:00"
      }
    },
    {
      "id": "33430002",
      "lat": 44.44,
      "lon": -0.231,
      "cp": "33430",
      "ville": "BAZAS",
      "prix": {
        "Gazole": 0.00209,
        "E10": 0.00199,
        "SP98": 0.00199
      },
      "maj_gouv": {
        "Gazole": "2026-05-14 08:55:12",
        "E10": "2026-05-12 11:47:21",
        "SP98": "2026-05-12 11:47:22"
      }
    },
    {
      "id": "33310008",
      "lat": 44.874,
      "lon": -0.506,
      "cp": "33310",
      "ville": "LORMONT",
      "prix": {
        "Gazole": 0.00209,
        "E85": 0.000841,
        "GPLc": 0.001059,
        "E10": 0.00199,
        "SP98": 0.00199
      },
      "maj_gouv": {
        "Gazole": "2026-05-16 00:01:00",
        "E85": "2026-05-16 00:01:00",
        "GPLc": "2026-05-16 00:01:00",
        "E10": "2026-05-16 00:01:00",
        "SP98": "2026-05-16 00:01:00"
      }
    },
    {
      "id": "33600009",
      "lat": 44.781263681300004,
      "lon": -0.649891423468,
      "cp": "33600",
      "ville": "PESSAC",
      "prix": {
        "Gazole": 0.00209,
        "GPLc": 0.001063,
        "E10": 0.00199,
        "SP98": 0.00199
      },
      "maj_gouv": {
        "Gazole": "2026-05-16 00:01:00",
        "GPLc": "2026-05-16 00:01:00",
        "E10": "2026-05-16 00:01:00",
        "SP98": "2026-05-16 00:01:00"
      }
    },
    {
      "id": "33370016",
      "lat": 44.833,
      "lon": -0.405,
      "cp": "33370",
      "ville": "Sallebœuf",
      "prix": {
        "Gazole": 0.0021579999999999998,
        "SP95": 0.002057,
        "SP98": 0.002114
      },
      "maj_gouv": {
        "Gazole": "2026-05-13 21:20:55",
        "SP95": "2026-05-13 21:20:56",
        "SP98": "2026-05-13 21:20:56"
      }
    },
    {
      "id": "33700021",
      "lat": 44.83265,
      "lon": -0.64392,
      "cp": "33700",
      "ville": "MERIGNAC",
      "prix": {},
      "maj_gouv": {}
    },
    {
      "id": "33000010",
      "lat": 44.841,
      "lon": -0.626,
      "cp": "33200",
      "ville": "Bordeaux",
      "prix": {
        "Gazole": 0.002179,
        "E10": 0.002029,
        "SP98": 0.002145
      },
      "maj_gouv": {
        "Gazole": "2026-05-15 08:36:20",
        "E10": "2026-05-15 08:36:20",
        "SP98": "2026-05-15 08:36:20"
      }
    },
    {
      "id": "33240013",
      "lat": 45.013,
      "lon": -0.425,
      "cp": "33240",
      "ville": "ST ANDRE DE CUBZAC",
      "prix": {
        "Gazole": 0.002099,
        "E85": 0.000756,
        "GPLc": 0.0009809999999999999,
        "E10": 0.0019690000000000003
      },
      "maj_gouv": {
        "Gazole": "2026-05-12 09:18:00",
        "E85": "2026-05-15 09:39:16",
        "GPLc": "2026-04-07 16:53:53",
        "E10": "2026-05-12 09:18:00"
      }
    },
    {
      "id": "33200001",
      "lat": 44.86,
      "lon": -0.634,
      "cp": "33200",
      "ville": "BORDEAUX CAUDERAN",
      "prix": {
        "Gazole": 0.0020459999999999996,
        "E85": 0.000839,
        "E10": 0.002134
      },
      "maj_gouv": {
        "Gazole": "2026-05-13 08:47:29",
        "E85": "2026-04-29 08:48:16",
        "E10": "2026-05-13 08:47:30"
      }
    },
    {
      "id": "33540001",
      "lat": 44.698,
      "lon": -0.089,
      "cp": "33540",
      "ville": "SAUVETERRE-DE-GUYENNE",
      "prix": {
        "Gazole": 0.002169,
        "E85": 0.000759,
        "GPLc": 0.001099,
        "E10": 0.002069,
        "SP98": 0.002139
      },
      "maj_gouv": {
        "Gazole": "2026-05-04 12:33:04",
        "E85": "2026-04-16 11:01:34",
        "GPLc": "2026-04-09 10:55:28",
        "E10": "2026-05-09 10:41:32",
        "SP98": "2026-05-09 10:41:32"
      }
    },
    {
      "id": "33730003",
      "lat": 44.4812157,
      "lon": -0.3671431,
      "cp": "33730",
      "ville": "Noaillan",
      "prix": {
        "Gazole": 0.00221,
        "E10": 0.002021,
        "SP98": 0.002153
      },
      "maj_gouv": {
        "Gazole": "2026-05-05 23:58:00",
        "E10": "2026-05-05 12:38:28",
        "SP98": "2026-05-05 12:38:28"
      }
    },
    {
      "id": "33187002",
      "lat": 44.861,
      "lon": -0.694,
      "cp": "33187",
      "ville": "LE HAILLAN",
      "prix": {
        "Gazole": 0.00209,
        "E10": 0.00199,
        "SP98": 0.00199
      },
      "maj_gouv": {
        "Gazole": "2026-05-16 00:01:00",
        "E10": "2026-05-16 00:01:00",
        "SP98": "2026-05-16 00:01:00"
      }
    },
    {
      "id": "33480003",
      "lat": 45.023,
      "lon": -0.789,
      "cp": "33480",
      "ville": "Avensan",
      "prix": {
        "Gazole": 0.002085,
        "SP95": 0.002055,
        "E85": 0.000798,
        "GPLc": 0.0011899999999999999,
        "E10": 0.002025,
        "SP98": 0.002109
      },
      "maj_gouv": {
        "Gazole": "2026-05-15 04:00:00",
        "SP95": "2026-05-15 04:00:00",
        "E85": "2026-05-15 04:00:00",
        "GPLc": "2026-04-17 04:00:00",
        "E10": "2026-05-15 04:00:00",
        "SP98": "2026-05-15 04:00:00"
      }
    },
    {
      "id": "33600011",
      "lat": 44.792,
      "lon": -0.671,
      "cp": "33600",
      "ville": "PESSAC",
      "prix": {
        "Gazole": 0.00209,
        "E85": 0.000829,
        "E10": 0.00199,
        "SP98": 0.00199
      },
      "maj_gouv": {
        "Gazole": "2026-05-16 00:01:00",
        "E85": "2026-05-16 00:01:00",
        "E10": "2026-05-16 00:01:00",
        "SP98": "2026-05-16 00:01:00"
      }
    },
    {
      "id": "33450009",
      "lat": 44.921730791573005,
      "lon": -0.37072986137220004,
      "cp": "33450",
      "ville": "Izon",
      "prix": {
        "Gazole": 0.002079,
        "E85": 0.000819,
        "E10": 0.002018
      },
      "maj_gouv": {
        "Gazole": "2026-05-14 10:14:47",
        "E85": "2026-05-06 09:55:27",
        "E10": "2026-05-14 10:14:47"
      }
    },
    {
      "id": "33380004",
      "lat": 44.617,
      "lon": -0.918,
      "cp": "33380",
      "ville": "MIOS",
      "prix": {
        "Gazole": 0.002089,
        "E85": 0.00079,
        "E10": 0.002029,
        "SP98": 0.002099
      },
      "maj_gouv": {
        "Gazole": "2026-05-16 01:17:00",
        "E85": "2026-05-16 01:17:00",
        "E10": "2026-05-16 01:17:00",
        "SP98": "2026-05-16 01:17:00"
      }
    },
    {
      "id": "33150003",
      "lat": 44.854,
      "lon": -0.517,
      "cp": "33150",
      "ville": "CENON",
      "prix": {
        "Gazole": 0.002189,
        "E10": 0.002069,
        "SP98": 0.002199
      },
      "maj_gouv": {
        "Gazole": "2026-05-15 12:06:01",
        "E10": "2026-05-15 12:06:01",
        "SP98": "2026-05-15 12:06:00"
      }
    },
    {
      "id": "33121002",
      "lat": 45.079,
      "lon": -1.037,
      "cp": "33121",
      "ville": "CARCANS",
      "prix": {
        "Gazole": 0.00219,
        "SP95": 0.0021000000000000003,
        "SP98": 0.00218
      },
      "maj_gouv": {
        "Gazole": "2026-05-12 09:58:31",
        "SP95": "2026-05-12 09:58:31",
        "SP98": "2026-05-12 09:58:32"
      }
    },
    {
      "id": "33580002",
      "lat": 44.6499822,
      "lon": 0.08761100000000001,
      "cp": "33580",
      "ville": "Monségur",
      "prix": {
        "Gazole": 0.002199,
        "SP95": 0.002115,
        "SP98": 0.002165
      },
      "maj_gouv": {
        "Gazole": "2026-05-05 05:33:20",
        "SP95": "2026-05-05 05:33:20",
        "SP98": "2026-05-05 05:33:20"
      }
    },
    {
      "id": "33700010",
      "lat": 44.84786797488,
      "lon": -0.65871498742554,
      "cp": "33700",
      "ville": "Mérignac",
      "prix": {
        "Gazole": 0.002179,
        "E10": 0.002009,
        "SP98": 0.0021190000000000002
      },
      "maj_gouv": {
        "Gazole": "2026-05-11 10:39:31",
        "E10": "2026-05-11 10:39:31",
        "SP98": "2026-05-15 18:11:11"
      }
    },
    {
      "id": "33470001",
      "lat": 44.619,
      "lon": -1.074,
      "cp": "33470",
      "ville": "GUJAN-MESTRAS",
      "prix": {
        "Gazole": 0.00213,
        "GPLc": 0.0010500000000000002,
        "E10": 0.00204,
        "SP98": 0.002115
      },
      "maj_gouv": {
        "Gazole": "2026-05-15 09:46:49",
        "GPLc": "2026-04-08 07:31:11",
        "E10": "2026-05-14 10:53:41",
        "SP98": "2026-05-14 10:53:41"
      }
    },
    {
      "id": "33480006",
      "lat": 44.967,
      "lon": -0.893,
      "cp": "33480",
      "ville": "SAINTE-HéLèNE",
      "prix": {
        "Gazole": 0.0020870000000000003,
        "E85": 0.0008179999999999999,
        "E10": 0.001999,
        "SP98": 0.002109
      },
      "maj_gouv": {
        "Gazole": "2026-05-15 10:52:26",
        "E85": "2026-04-17 07:58:43",
        "E10": "2026-05-15 10:52:26",
        "SP98": "2026-05-07 09:58:02"
      }
    },
    {
      "id": "33460006",
      "lat": 45.069,
      "lon": -0.723,
      "cp": "33460",
      "ville": "Arcins",
      "prix": {
        "Gazole": 0.0021190000000000002,
        "SP95": 0.002075,
        "SP98": 0.002165
      },
      "maj_gouv": {
        "Gazole": "2026-05-15 10:28:18",
        "SP95": "2026-05-15 10:28:18",
        "SP98": "2026-05-15 10:28:18"
      }
    },
    {
      "id": "33210003",
      "lat": 44.542,
      "lon": -0.254,
      "cp": "33210",
      "ville": "Langon",
      "prix": {
        "Gazole": 0.002089,
        "SP95": 0.002079,
        "E85": 0.0008179999999999999,
        "GPLc": 0.001053,
        "E10": 0.002029,
        "SP98": 0.002099
      },
      "maj_gouv": {
        "Gazole": "2026-05-16 01:18:00",
        "SP95": "2026-05-16 01:18:00",
        "E85": "2026-05-16 01:18:00",
        "GPLc": "2026-05-16 01:18:00",
        "E10": "2026-05-16 01:18:00",
        "SP98": "2026-05-16 01:18:00"
      }
    },
    {
      "id": "33620003",
      "lat": 45.107,
      "lon": -0.341,
      "cp": "33620",
      "ville": "Laruscade",
      "prix": {
        "Gazole": 0.002179,
        "SP95": 0.001999,
        "SP98": 0.002109
      },
      "maj_gouv": {
        "Gazole": "2026-04-22 15:56:05",
        "SP95": "2026-04-22 15:56:05",
        "SP98": "2026-04-22 15:56:05"
      }
    },
    {
      "id": "33700002",
      "lat": 44.834,
      "lon": -0.617,
      "cp": "33700",
      "ville": "MéRIGNAC",
      "prix": {
        "Gazole": 0.002189,
        "E85": 0.000809,
        "E10": 0.002029,
        "SP98": 0.002145
      },
      "maj_gouv": {
        "Gazole": "2026-05-15 16:40:00",
        "E85": "2026-05-15 16:40:00",
        "E10": "2026-05-15 16:40:00",
        "SP98": "2026-05-15 16:40:01"
      }
    },
    {
      "id": "33140009",
      "lat": 44.77,
      "lon": -0.579,
      "cp": "33140",
      "ville": "VILLENAVE D'ORNON",
      "prix": {
        "Gazole": 0.002109,
        "E10": 0.002039
      },
      "maj_gouv": {
        "Gazole": "2026-05-15 12:03:24",
        "E10": "2026-05-15 12:03:24"
      }
    },
    {
      "id": "33340004",
      "lat": 45.312,
      "lon": -0.94,
      "cp": "33340",
      "ville": "Lesparre-Médoc",
      "prix": {
        "Gazole": 0.00212,
        "SP95": 0.0021160000000000003,
        "E85": 0.000771,
        "E10": 0.002038,
        "SP98": 0.002211
      },
      "maj_gouv": {
        "Gazole": "2026-05-16 00:42:00",
        "SP95": "2026-05-16 00:42:00",
        "E85": "2026-05-16 00:42:00",
        "E10": "2026-05-16 00:42:00",
        "SP98": "2026-05-16 00:42:00"
      }
    },
    {
      "id": "33450008",
      "lat": 44.874005618367995,
      "lon": -0.42921932214645,
      "cp": "33450",
      "ville": "Montussan",
      "prix": {
        "Gazole": 0.002099,
        "E85": 0.000798,
        "E10": 0.0020299999999999997
      },
      "maj_gouv": {
        "Gazole": "2026-05-15 10:28:27",
        "E85": "2026-05-15 10:28:28",
        "E10": "2026-05-15 10:29:18"
      }
    },
    {
      "id": "33000016",
      "lat": 44.819,
      "lon": -0.602,
      "cp": "33000",
      "ville": "BORDEAUX",
      "prix": {
        "Gazole": 0.002189,
        "E10": 0.002069,
        "SP98": 0.002219
      },
      "maj_gouv": {
        "Gazole": "2026-05-14 13:11:21",
        "E10": "2026-05-14 13:11:21",
        "SP98": "2026-05-14 13:11:20"
      }
    },
    {
      "id": "33210001",
      "lat": 44.551,
      "lon": -0.265,
      "cp": "33210",
      "ville": "LANGON",
      "prix": {
        "Gazole": 0.00209,
        "GPLc": 0.00107,
        "E10": 0.00199,
        "SP98": 0.00199
      },
      "maj_gouv": {
        "Gazole": "2026-05-14 07:49:01",
        "GPLc": "2026-05-14 07:49:01",
        "E10": "2026-05-14 07:49:01",
        "SP98": "2026-05-14 07:49:01"
      }
    },
    {
      "id": "33500007",
      "lat": 44.9132001846,
      "lon": -0.25401935269000003,
      "cp": "33500",
      "ville": "ARVEYRES",
      "prix": {
        "Gazole": 0.00209,
        "E85": 0.000839,
        "E10": 0.00199
      },
      "maj_gouv": {
        "Gazole": "2026-05-16 00:01:00",
        "E85": "2026-05-16 00:01:00",
        "E10": "2026-05-16 00:01:00"
      }
    },
    {
      "id": "33112001",
      "lat": 45.152,
      "lon": -0.81,
      "cp": "33112",
      "ville": "SAINT-LAURENT-MéDOC",
      "prix": {
        "Gazole": 0.002069,
        "E85": 0.000795,
        "E10": 0.002096,
        "SP98": 0.002169
      },
      "maj_gouv": {
        "Gazole": "2026-05-13 12:07:11",
        "E85": "2026-04-28 07:00:00",
        "E10": "2026-05-05 06:00:00",
        "SP98": "2026-05-05 06:00:00"
      }
    },
    {
      "id": "33470003",
      "lat": 44.622,
      "lon": -1.018,
      "cp": "33470",
      "ville": "LE TEICH",
      "prix": {
        "Gazole": 0.002146,
        "SP95": 0.0021579999999999998,
        "SP98": 0.002198
      },
      "maj_gouv": {
        "Gazole": "2026-05-13 16:18:59",
        "SP95": "2026-05-13 16:18:59",
        "SP98": "2026-05-13 16:18:59"
      }
    },
    {
      "id": "33710002",
      "lat": 45.042117694116,
      "lon": -0.56017088552363,
      "cp": "33710",
      "ville": "Bourg",
      "prix": {
        "Gazole": 0.002099,
        "E85": 0.000829,
        "E10": 0.0019890000000000003,
        "SP98": 0.002109
      },
      "maj_gouv": {
        "Gazole": "2026-05-14 10:36:56",
        "E85": "2026-05-13 18:05:50",
        "E10": "2026-05-12 09:12:12",
        "SP98": "2026-05-13 18:05:50"
      }
    },
    {
      "id": "33240011",
      "lat": 44.989,
      "lon": -0.449,
      "cp": "33240",
      "ville": "Saint-André-de-Cubzac",
      "prix": {
        "Gazole": 0.00209,
        "E85": 0.0008359999999999999
      },
      "maj_gouv": {
        "Gazole": "2026-05-16 00:01:00",
        "E85": "2026-05-16 00:01:00"
      }
    },
    {
      "id": "33750004",
      "lat": 44.86,
      "lon": -0.321,
      "cp": "33750",
      "ville": "Saint-Germain-du-Puch",
      "prix": {
        "Gazole": 0.002149,
        "SP95": 0.002079,
        "SP98": 0.002165
      },
      "maj_gouv": {
        "Gazole": "2026-05-15 11:27:35",
        "SP95": "2026-04-07 07:58:16",
        "SP98": "2026-04-09 06:50:33"
      }
    },
    {
      "id": "33000024",
      "lat": 44.861,
      "lon": -0.57,
      "cp": "33000",
      "ville": "BORDEAUX",
      "prix": {
        "Gazole": 0.00209,
        "E85": 0.000839,
        "E10": 0.00199,
        "SP98": 0.00199
      },
      "maj_gouv": {
        "Gazole": "2026-05-16 00:01:00",
        "E85": "2026-05-16 00:01:00",
        "E10": "2026-05-16 00:01:00",
        "SP98": "2026-05-16 00:01:00"
      }
    },
    {
      "id": "33260001",
      "lat": 44.641,
      "lon": -1.156,
      "cp": "33260",
      "ville": "LA TESTE-DE-BUCH",
      "prix": {
        "Gazole": 0.002129,
        "E85": 0.000819,
        "E10": 0.002029,
        "SP98": 0.002149
      },
      "maj_gouv": {
        "Gazole": "2026-05-15 10:43:48",
        "E85": "2026-04-20 10:55:22",
        "E10": "2026-05-15 10:43:48",
        "SP98": "2026-05-15 10:43:48"
      }
    },
    {
      "id": "33910001",
      "lat": 44.99257,
      "lon": -0.20126,
      "cp": "33910",
      "ville": "Saint-Denis-de-Pile",
      "prix": {
        "Gazole": 0.002111,
        "E85": 0.000798,
        "E10": 0.0020310000000000003,
        "SP98": 0.002146
      },
      "maj_gouv": {
        "Gazole": "2026-05-15 10:33:07",
        "E85": "2026-05-15 10:33:07",
        "E10": "2026-05-15 10:33:07",
        "SP98": "2026-05-15 10:33:07"
      }
    },
    {
      "id": "33500001",
      "lat": 44.901,
      "lon": -0.218,
      "cp": "33500",
      "ville": "LIBOURNE",
      "prix": {
        "Gazole": 0.002059,
        "SP95": 0.002094,
        "E85": 0.0008900000000000001,
        "E10": 0.002049,
        "SP98": 0.002184
      },
      "maj_gouv": {
        "Gazole": "2026-05-16 00:42:00",
        "SP95": "2026-05-16 00:42:00",
        "E85": "2026-05-16 00:42:00",
        "E10": "2026-05-16 00:42:00",
        "SP98": "2026-05-16 00:42:00"
      }
    },
    {
      "id": "33240012",
      "lat": 44.974102327888005,
      "lon": -0.38659220984961,
      "cp": "33240",
      "ville": "La Lande-de-Fronsac",
      "prix": {
        "Gazole": 0.002129,
        "E10": 0.002039,
        "SP98": 0.002179
      },
      "maj_gouv": {
        "Gazole": "2026-05-14 08:37:05",
        "E10": "2026-05-14 08:37:05",
        "SP98": "2026-05-14 08:37:05"
      }
    },
    {
      "id": "33670001",
      "lat": 44.772088427,
      "lon": -0.335077945189,
      "cp": "33670",
      "ville": "Créon",
      "prix": {
        "Gazole": 0.002099,
        "E85": 0.000819,
        "E10": 0.002019,
        "SP98": 0.0021190000000000002
      },
      "maj_gouv": {
        "Gazole": "2026-05-11 12:35:20",
        "E85": "2026-05-07 12:28:15",
        "E10": "2026-05-13 12:17:36",
        "SP98": "2026-05-15 12:12:14"
      }
    },
    {
      "id": "33680001",
      "lat": 44.97654,
      "lon": -1.06739,
      "cp": "33680",
      "ville": "Lacanau",
      "prix": {
        "Gazole": 0.00209
      },
      "maj_gouv": {
        "Gazole": "2026-05-13 18:58:02"
      }
    },
    {
      "id": "33680005",
      "lat": 44.97648,
      "lon": -1.06512,
      "cp": "33680",
      "ville": "LACANAU",
      "prix": {
        "Gazole": 0.002109,
        "SP95": 0.002079,
        "E85": 0.000737,
        "GPLc": 0.000999,
        "E10": 0.002059
      },
      "maj_gouv": {
        "Gazole": "2026-05-08 05:28:05",
        "SP95": "2026-05-07 05:40:37",
        "E85": "2026-04-22 06:44:23",
        "GPLc": "2026-05-07 05:40:37",
        "E10": "2026-05-16 05:48:39"
      }
    },
    {
      "id": "33700023",
      "lat": 44.849709502131,
      "lon": -0.66664775466915,
      "cp": "33700",
      "ville": "MERIGNAC",
      "prix": {
        "Gazole": 0.00209,
        "GPLc": 0.001039,
        "E10": 0.00199,
        "SP98": 0.00199
      },
      "maj_gouv": {
        "Gazole": "2026-05-16 00:01:00",
        "GPLc": "2026-05-16 00:01:00",
        "E10": "2026-05-16 00:01:00",
        "SP98": "2026-05-16 00:01:00"
      }
    },
    {
      "id": "33290001",
      "lat": 44.94839,
      "lon": -0.63068,
      "cp": "33290",
      "ville": "LE PIAN-MéDOC",
      "prix": {
        "Gazole": 0.00209,
        "E85": 0.000869,
        "E10": 0.00199
      },
      "maj_gouv": {
        "Gazole": "2026-05-15 10:53:45",
        "E85": "2026-05-15 10:53:45",
        "E10": "2026-05-15 10:53:45"
      }
    },
    {
      "id": "33260011",
      "lat": 44.618,
      "lon": -1.123,
      "cp": "33260",
      "ville": "LA TESTE-DE-BUCH",
      "prix": {
        "Gazole": 0.00213,
        "SP95": 0.002055,
        "E85": 0.00075,
        "GPLc": 0.001045,
        "E10": 0.001999,
        "SP98": 0.002085
      },
      "maj_gouv": {
        "Gazole": "2026-05-14 10:41:33",
        "SP95": "2026-05-11 08:40:46",
        "E85": "2026-04-15 08:11:17",
        "GPLc": "2026-04-24 12:58:04",
        "E10": "2026-05-11 08:45:08",
        "SP98": "2026-05-11 08:40:46"
      }
    },
    {
      "id": "33650003",
      "lat": 44.684,
      "lon": -0.521,
      "cp": "33650",
      "ville": "La Brède",
      "prix": {
        "Gazole": 0.002099,
        "E85": 0.0008489999999999999,
        "E10": 0.001999,
        "SP98": 0.002149
      },
      "maj_gouv": {
        "Gazole": "2026-05-12 15:08:09",
        "E85": "2026-05-12 15:08:09",
        "E10": "2026-05-12 15:08:09",
        "SP98": "2026-05-12 15:08:09"
      }
    },
    {
      "id": "33310006",
      "lat": 44.879,
      "lon": -0.518,
      "cp": "33310",
      "ville": "LORMONT",
      "prix": {
        "Gazole": 0.0022389999999999997,
        "E85": 0.0008449999999999999,
        "GPLc": 0.001089,
        "E10": 0.002149,
        "SP98": 0.002199
      },
      "maj_gouv": {
        "Gazole": "2026-05-09 00:00:00",
        "E85": "2026-05-09 00:00:00",
        "GPLc": "2026-05-06 00:00:00",
        "E10": "2026-05-09 00:00:00",
        "SP98": "2026-04-30 00:00:00"
      }
    },
    {
      "id": "33360003",
      "lat": 44.783,
      "lon": -0.496,
      "cp": "33360",
      "ville": "LATRESNE",
      "prix": {
        "Gazole": 0.00209,
        "E10": 0.00199
      },
      "maj_gouv": {
        "Gazole": "2026-05-16 00:01:00",
        "E10": "2026-05-16 00:01:00"
      }
    },
    {
      "id": "33720009",
      "lat": 44.562,
      "lon": -0.419,
      "cp": "33720",
      "ville": "LANDIRAS",
      "prix": {
        "Gazole": 0.002089,
        "E10": 0.0019890000000000003,
        "SP98": 0.002109
      },
      "maj_gouv": {
        "Gazole": "2026-05-12 12:35:28",
        "E10": "2026-05-12 12:35:28",
        "SP98": "2026-05-12 12:35:28"
      }
    },
    {
      "id": "33600010",
      "lat": 44.795279940609994,
      "lon": -0.6045088660429899,
      "cp": "33600",
      "ville": "PESSAC",
      "prix": {
        "Gazole": 0.00209,
        "E85": 0.000841
      },
      "maj_gouv": {
        "Gazole": "2026-05-16 00:01:00",
        "E85": "2026-05-16 00:01:00"
      }
    },
    {
      "id": "33190004",
      "lat": 44.58387,
      "lon": -0.06804,
      "cp": "33190",
      "ville": "La Réole",
      "prix": {
        "Gazole": 0.002089,
        "E85": 0.0008179999999999999,
        "GPLc": 0.001049,
        "E10": 0.002029,
        "SP98": 0.002129
      },
      "maj_gouv": {
        "Gazole": "2026-05-13 05:33:10",
        "E85": "2026-05-13 05:33:10",
        "GPLc": "2026-05-06 05:40:09",
        "E10": "2026-05-13 05:33:10",
        "SP98": "2026-05-13 05:33:10"
      }
    },
    {
      "id": "33402001",
      "lat": 44.79956,
      "lon": -0.58415,
      "cp": "33400",
      "ville": "Talence",
      "prix": {
        "Gazole": 0.0020510000000000003,
        "SP95": 0.0020510000000000003,
        "E10": 0.0020150000000000003
      },
      "maj_gouv": {
        "Gazole": "2026-05-14 07:07:55",
        "SP95": "2026-05-14 07:07:56",
        "E10": "2026-05-14 07:07:56"
      }
    },
    {
      "id": "33980002",
      "lat": 44.696,
      "lon": -0.979,
      "cp": "33980",
      "ville": "AUDENGE",
      "prix": {
        "Gazole": 0.002129,
        "SP95": 0.002055,
        "E10": 0.002007,
        "SP98": 0.002139
      },
      "maj_gouv": {
        "Gazole": "2026-05-13 08:33:59",
        "SP95": "2026-05-13 08:33:59",
        "E10": "2026-05-13 08:34:00",
        "SP98": "2026-05-13 08:34:00"
      }
    },
    {
      "id": "33130004",
      "lat": 44.79,
      "lon": -0.567,
      "cp": "33130",
      "ville": "BèGLES",
      "prix": {
        "Gazole": 0.002095,
        "E10": 0.0020139999999999997,
        "SP98": 0.002165
      },
      "maj_gouv": {
        "Gazole": "2026-05-15 14:44:53",
        "E10": "2026-05-15 14:44:53",
        "SP98": "2026-05-15 09:22:18"
      }
    },
    {
      "id": "33930002",
      "lat": 45.35615,
      "lon": -1.06209,
      "cp": "33930",
      "ville": "VENDAYS-MONTALIVET",
      "prix": {
        "Gazole": 0.0022299999999999998,
        "E85": 0.0008399999999999999,
        "E10": 0.00206,
        "SP98": 0.0022
      },
      "maj_gouv": {
        "Gazole": "2026-05-12 09:56:35",
        "E85": "2026-05-12 09:56:35",
        "E10": "2026-05-12 09:56:35",
        "SP98": "2026-05-12 09:56:35"
      }
    },
    {
      "id": "33080001",
      "lat": 44.884,
      "lon": -0.563,
      "cp": "33300",
      "ville": "BORDEAUX",
      "prix": {
        "Gazole": 0.002085,
        "E85": 0.000756,
        "GPLc": 0.001059,
        "E10": 0.0019950000000000002,
        "SP98": 0.0020800000000000003
      },
      "maj_gouv": {
        "Gazole": "2026-05-15 09:57:54",
        "E85": "2026-05-15 09:57:54",
        "GPLc": "2026-04-10 14:57:42",
        "E10": "2026-05-13 14:26:40",
        "SP98": "2026-05-15 09:57:54"
      }
    },
    {
      "id": "33390001",
      "lat": 45.19,
      "lon": -0.619,
      "cp": "33390",
      "ville": "EYRANS",
      "prix": {
        "Gazole": 0.00209,
        "E10": 0.00199,
        "SP98": 0.00199
      },
      "maj_gouv": {
        "Gazole": "2026-05-15 07:53:08",
        "E10": "2026-05-15 07:53:08",
        "SP98": "2026-05-15 07:53:08"
      }
    },
    {
      "id": "33610008",
      "lat": 44.746,
      "lon": -0.703,
      "cp": "33610",
      "ville": "Cestas",
      "prix": {
        "Gazole": 0.0023580000000000003,
        "E10": 0.002378,
        "SP98": 0.002528
      },
      "maj_gouv": {
        "Gazole": "2026-05-15 09:30:00",
        "E10": "2026-05-15 09:30:00",
        "SP98": "2026-05-15 09:30:00"
      }
    },
    {
      "id": "33250006",
      "lat": 45.193589,
      "lon": -0.749764,
      "cp": "33250",
      "ville": "PAUILLAC",
      "prix": {
        "Gazole": 0.0021000000000000003,
        "SP95": 0.002055,
        "SP98": 0.002149
      },
      "maj_gouv": {
        "Gazole": "2026-05-12 10:17:13",
        "SP95": "2026-05-12 10:17:13",
        "SP98": "2026-05-12 10:17:13"
      }
    },
    {
      "id": "33260012",
      "lat": 44.646,
      "lon": -1.157,
      "cp": "33260",
      "ville": "LA TESTE",
      "prix": {
        "Gazole": 0.00209,
        "E85": 0.0008349999999999999,
        "GPLc": 0.001046,
        "E10": 0.00199,
        "SP98": 0.00199
      },
      "maj_gouv": {
        "Gazole": "2026-05-16 00:01:00",
        "E85": "2026-05-16 00:01:00",
        "GPLc": "2026-05-16 00:01:00",
        "E10": "2026-05-16 00:01:00",
        "SP98": "2026-05-16 00:01:00"
      }
    },
    {
      "id": "33750003",
      "lat": 44.881,
      "lon": -0.356,
      "cp": "33750",
      "ville": "Beychac-et-Caillau",
      "prix": {
        "Gazole": 0.00209,
        "E85": 0.000829,
        "E10": 0.00199
      },
      "maj_gouv": {
        "Gazole": "2026-05-16 00:01:00",
        "E85": "2026-05-16 00:01:00",
        "E10": "2026-05-16 00:01:00"
      }
    },
    {
      "id": "33840003",
      "lat": 44.286238402129,
      "lon": -0.22900636350622,
      "cp": "33840",
      "ville": "CAPTIEUX",
      "prix": {
        "Gazole": 0.0024289999999999997,
        "GPLc": 0.001149,
        "E10": 0.002359,
        "SP98": 0.0024289999999999997
      },
      "maj_gouv": {
        "Gazole": "2026-05-15 21:00:00",
        "GPLc": "2026-05-15 21:00:00",
        "E10": "2026-05-15 21:00:00",
        "SP98": "2026-05-15 21:00:00"
      }
    },
    {
      "id": "33290003",
      "lat": 44.95436,
      "lon": -0.62917,
      "cp": "33290",
      "ville": "LE PIAN-MéDOC",
      "prix": {
        "Gazole": 0.0021349999999999997,
        "E85": 0.0008179999999999999,
        "GPLc": 0.0010500000000000002,
        "E10": 0.0020350000000000004,
        "SP98": 0.00209
      },
      "maj_gouv": {
        "Gazole": "2026-05-14 08:47:14",
        "E85": "2026-04-22 08:21:48",
        "GPLc": "2026-04-24 08:50:44",
        "E10": "2026-05-14 08:47:14",
        "SP98": "2026-05-14 08:47:14"
      }
    },
    {
      "id": "33720008",
      "lat": 44.645,
      "lon": -0.436,
      "cp": "33720",
      "ville": "PODENSAC",
      "prix": {
        "Gazole": 0.00209,
        "E85": 0.000998,
        "GPLc": 0.001078,
        "E10": 0.00199,
        "SP98": 0.00199
      },
      "maj_gouv": {
        "Gazole": "2026-05-16 00:01:00",
        "E85": "2026-05-16 00:01:00",
        "GPLc": "2026-05-16 00:01:00",
        "E10": "2026-05-16 00:01:00",
        "SP98": "2026-05-16 00:01:00"
      }
    },
    {
      "id": "33520003",
      "lat": 44.888,
      "lon": -0.581,
      "cp": "33520",
      "ville": "Bruges",
      "prix": {
        "Gazole": 0.0022589999999999997,
        "GPLc": 0.001039,
        "E10": 0.0021019999999999997,
        "SP98": 0.002202
      },
      "maj_gouv": {
        "Gazole": "2026-05-14 07:41:00",
        "GPLc": "2026-05-14 07:41:00",
        "E10": "2026-05-14 07:41:00",
        "SP98": "2026-05-14 07:41:00"
      }
    },
    {
      "id": "33760001",
      "lat": 44.735,
      "lon": -0.26,
      "cp": "33760",
      "ville": "TARGON",
      "prix": {
        "Gazole": 0.00219,
        "SP95": 0.00199
      },
      "maj_gouv": {
        "Gazole": "2026-05-15 10:02:40",
        "SP95": "2026-05-11 10:27:57"
      }
    },
    {
      "id": "33310007",
      "lat": 44.871271371999995,
      "lon": -0.505591860198,
      "cp": "33310",
      "ville": "LORMONT",
      "prix": {
        "Gazole": 0.00209,
        "E85": 0.000841,
        "GPLc": 0.001059,
        "E10": 0.00199,
        "SP98": 0.00199
      },
      "maj_gouv": {
        "Gazole": "2026-05-16 00:01:00",
        "E85": "2026-05-16 00:01:00",
        "GPLc": "2026-05-16 00:01:00",
        "E10": "2026-05-16 00:01:00",
        "SP98": "2026-05-16 00:01:00"
      }
    },
    {
      "id": "33830005",
      "lat": 44.50865,
      "lon": -0.78425,
      "cp": "33830",
      "ville": "Belin-Béliet",
      "prix": {
        "Gazole": 0.002169,
        "E85": 0.0008179999999999999,
        "E10": 0.002059,
        "SP98": 0.002159
      },
      "maj_gouv": {
        "Gazole": "2026-05-15 07:09:29",
        "E85": "2026-04-16 09:15:39",
        "E10": "2026-05-15 07:09:29",
        "SP98": "2026-05-13 07:06:00"
      }
    },
    {
      "id": "33220006",
      "lat": 44.826,
      "lon": 0.221,
      "cp": "33220",
      "ville": "PINEUILH",
      "prix": {
        "Gazole": 0.002078,
        "SP95": 0.002027,
        "E85": 0.000725,
        "E10": 0.001987,
        "SP98": 0.002089
      },
      "maj_gouv": {
        "Gazole": "2026-05-16 01:17:00",
        "SP95": "2026-05-16 01:17:00",
        "E85": "2026-05-16 01:17:00",
        "E10": "2026-05-16 01:17:00",
        "SP98": "2026-05-16 01:17:00"
      }
    },
    {
      "id": "33460004",
      "lat": 44.9994213,
      "lon": -0.618851,
      "cp": "33460",
      "ville": "MACAU",
      "prix": {
        "Gazole": 0.002189,
        "SP95": 0.002053,
        "E10": 0.0020259999999999996,
        "SP98": 0.002108
      },
      "maj_gouv": {
        "Gazole": "2026-05-05 08:41:11",
        "SP95": "2026-05-05 08:41:11",
        "E10": "2026-05-05 08:41:11",
        "SP98": "2026-05-05 08:41:11"
      }
    },
    {
      "id": "33920003",
      "lat": 45.139,
      "lon": -0.443,
      "cp": "33920",
      "ville": "Saint-Savin",
      "prix": {
        "Gazole": 0.002129,
        "SP95": 0.002029,
        "E10": 0.0019890000000000003
      },
      "maj_gouv": {
        "Gazole": "2026-05-13 10:31:08",
        "SP95": "2026-05-13 10:31:08",
        "E10": "2026-05-13 10:31:08"
      }
    },
    {
      "id": "33600013",
      "lat": 44.785,
      "lon": -0.636,
      "cp": "33600",
      "ville": "Pessac",
      "prix": {
        "Gazole": 0.00209,
        "E85": 0.000829,
        "GPLc": 0.001063,
        "E10": 0.00199,
        "SP98": 0.0020800000000000003
      },
      "maj_gouv": {
        "Gazole": "2026-05-15 07:12:37",
        "E85": "2026-05-15 07:12:37",
        "GPLc": "2026-05-15 07:12:37",
        "E10": "2026-05-15 07:12:37",
        "SP98": "2026-05-15 07:12:37"
      }
    },
    {
      "id": "33620001",
      "lat": 45.095,
      "lon": -0.387,
      "cp": "33620",
      "ville": "CAVIGNAC",
      "prix": {
        "Gazole": 0.002169,
        "E85": 0.000759,
        "E10": 0.002069,
        "SP98": 0.002139
      },
      "maj_gouv": {
        "Gazole": "2026-05-07 11:24:06",
        "E85": "2026-05-07 11:24:06",
        "E10": "2026-05-09 11:18:37",
        "SP98": "2026-05-09 11:18:38"
      }
    },
    {
      "id": "33000021",
      "lat": 44.831,
      "lon": -0.558,
      "cp": "33800",
      "ville": "BORDEAUX",
      "prix": {
        "Gazole": 0.00209,
        "E85": 0.000839,
        "E10": 0.00199,
        "SP98": 0.00199
      },
      "maj_gouv": {
        "Gazole": "2026-05-16 00:01:00",
        "E85": "2026-05-16 00:01:00",
        "E10": "2026-05-16 00:01:00",
        "SP98": "2026-05-16 00:01:00"
      }
    },
    {
      "id": "33990002",
      "lat": 45.194,
      "lon": -1.051,
      "cp": "33990",
      "ville": "HOURTIN",
      "prix": {},
      "maj_gouv": {}
    },
    {
      "id": "33230002",
      "lat": 45.0483566606,
      "lon": -0.122292144133,
      "cp": "33230",
      "ville": "COUTRAS",
      "prix": {
        "Gazole": 0.0021190000000000002,
        "E85": 0.000759,
        "E10": 0.002029,
        "SP98": 0.002139
      },
      "maj_gouv": {
        "Gazole": "2026-05-15 07:30:00",
        "E85": "2026-05-15 07:30:00",
        "E10": "2026-05-15 07:30:00",
        "SP98": "2026-05-15 07:30:00"
      }
    },
    {
      "id": "33124001",
      "lat": 44.522291100000004,
      "lon": -0.0467252,
      "cp": "33124",
      "ville": "AILLAS",
      "prix": {
        "Gazole": 0.0022789999999999998,
        "E10": 0.002159
      },
      "maj_gouv": {
        "Gazole": "2026-05-11 08:20:53",
        "E10": "2026-05-06 09:44:54"
      }
    },
    {
      "id": "33610007",
      "lat": 44.743,
      "lon": -0.706,
      "cp": "33610",
      "ville": "CESTAS",
      "prix": {
        "Gazole": 0.0025099999999999996,
        "E10": 0.002378,
        "SP98": 0.002528
      },
      "maj_gouv": {
        "Gazole": "2026-05-15 09:30:00",
        "E10": "2026-05-15 09:30:00",
        "SP98": "2026-05-15 09:30:00"
      }
    },
    {
      "id": "33770001",
      "lat": 44.548,
      "lon": -0.877,
      "cp": "33770",
      "ville": "SALLES",
      "prix": {
        "Gazole": 0.002169,
        "E85": 0.00082,
        "E10": 0.002029,
        "SP98": 0.002099
      },
      "maj_gouv": {
        "Gazole": "2026-05-15 09:33:36",
        "E85": "2026-05-12 09:07:41",
        "E10": "2026-05-15 09:33:36",
        "SP98": "2026-05-12 09:07:41"
      }
    },
    {
      "id": "33000023",
      "lat": 44.829,
      "lon": -0.541,
      "cp": "33100",
      "ville": "BORDEAUX",
      "prix": {
        "Gazole": 0.00209,
        "E85": 0.000829,
        "E10": 0.00199,
        "SP98": 0.00199
      },
      "maj_gouv": {
        "Gazole": "2026-05-16 00:01:00",
        "E85": "2026-05-16 00:01:00",
        "E10": "2026-05-16 00:01:00",
        "SP98": "2026-05-16 00:01:00"
      }
    },
    {
      "id": "33440004",
      "lat": 44.954,
      "lon": -0.534,
      "cp": "33440",
      "ville": "Saint-Louis-de-Montferrand",
      "prix": {
        "Gazole": 0.0022389999999999997,
        "SP95": 0.0022589999999999997,
        "SP98": 0.0023490000000000004
      },
      "maj_gouv": {
        "Gazole": "2026-05-15 07:33:33",
        "SP95": "2026-05-15 07:33:33",
        "SP98": "2026-05-15 07:33:33"
      }
    },
    {
      "id": "33380001",
      "lat": 44.637,
      "lon": -0.96,
      "cp": "33380",
      "ville": "BIGANOS",
      "prix": {
        "Gazole": 0.002089,
        "E85": 0.00079,
        "GPLc": 0.001039,
        "E10": 0.002019,
        "SP98": 0.002095
      },
      "maj_gouv": {
        "Gazole": "2026-05-15 10:30:00",
        "E85": "2026-04-30 09:52:22",
        "GPLc": "2026-05-04 10:43:01",
        "E10": "2026-05-15 10:30:00",
        "SP98": "2026-05-15 10:30:00"
      }
    },
    {
      "id": "33610001",
      "lat": 44.739698435813004,
      "lon": -0.6812641196847201,
      "cp": "33610",
      "ville": "CESTAS",
      "prix": {
        "Gazole": 0.002159,
        "E85": 0.000746,
        "E10": 0.002059,
        "SP98": 0.002139
      },
      "maj_gouv": {
        "Gazole": "2026-05-15 10:03:27",
        "E85": "2026-04-28 11:01:42",
        "E10": "2026-05-15 10:03:28",
        "SP98": "2026-05-15 10:03:28"
      }
    },
    {
      "id": "33680004",
      "lat": 45.005501818215,
      "lon": -1.1683849296802,
      "cp": "33680",
      "ville": "Lacanau",
      "prix": {
        "Gazole": 0.002348,
        "E10": 0.002114,
        "SP98": 0.002218
      },
      "maj_gouv": {
        "Gazole": "2026-04-07 20:22:23",
        "E10": "2026-04-07 20:22:23",
        "SP98": "2026-04-07 20:22:23"
      }
    },
    {
      "id": "33450007",
      "lat": 44.916,
      "lon": -0.422,
      "cp": "33450",
      "ville": "Saint-Loubès",
      "prix": {
        "Gazole": 0.0021219999999999998,
        "SP95": 0.002084,
        "SP98": 0.00217
      },
      "maj_gouv": {
        "Gazole": "2026-05-15 08:34:57",
        "SP95": "2026-05-15 08:34:57",
        "SP98": "2026-05-15 08:34:57"
      }
    },
    {
      "id": "33420003",
      "lat": 44.861,
      "lon": -0.256,
      "cp": "33420",
      "ville": "GENISSAC",
      "prix": {
        "Gazole": 0.0022400000000000002,
        "E10": 0.002092,
        "SP98": 0.002173
      },
      "maj_gouv": {
        "Gazole": "2026-05-06 20:37:19",
        "E10": "2026-05-06 20:37:19",
        "SP98": "2026-05-06 20:37:20"
      }
    },
    {
      "id": "33720006",
      "lat": 44.64717,
      "lon": -0.35066,
      "cp": "33720",
      "ville": "PODENSAC",
      "prix": {
        "Gazole": 0.00227,
        "SP95": 0.00226,
        "SP98": 0.00233
      },
      "maj_gouv": {
        "Gazole": "2026-05-15 09:06:28",
        "SP95": "2026-05-15 09:06:29",
        "SP98": "2026-05-15 09:06:29"
      }
    },
    {
      "id": "33127004",
      "lat": 44.842,
      "lon": -0.77,
      "cp": "33127",
      "ville": "MARTIGNAS-SUR-JALLE",
      "prix": {
        "Gazole": 0.002183,
        "E85": 0.000819,
        "E10": 0.001996,
        "SP98": 0.002106
      },
      "maj_gouv": {
        "Gazole": "2026-05-04 14:27:17",
        "E85": "2026-04-20 17:53:44",
        "E10": "2026-05-04 14:27:18",
        "SP98": "2026-05-04 14:27:18"
      }
    },
    {
      "id": "33720005",
      "lat": 44.633,
      "lon": -0.335,
      "cp": "33720",
      "ville": "Cérons",
      "prix": {
        "Gazole": 0.00209,
        "SP98": 0.00199
      },
      "maj_gouv": {
        "Gazole": "2026-05-14 06:43:37",
        "SP98": "2026-05-14 06:43:37"
      }
    },
    {
      "id": "33560002",
      "lat": 44.907,
      "lon": -0.489,
      "cp": "33560",
      "ville": "Sainte-Eulalie",
      "prix": {
        "Gazole": 0.0020510000000000003,
        "E85": 0.000725,
        "GPLc": 0.001059,
        "E10": 0.002019,
        "SP98": 0.002099
      },
      "maj_gouv": {
        "Gazole": "2026-05-15 09:21:56",
        "E85": "2026-05-15 09:21:56",
        "GPLc": "2026-05-15 13:14:18",
        "E10": "2026-05-15 09:21:57",
        "SP98": "2026-05-15 09:21:57"
      }
    },
    {
      "id": "33730002",
      "lat": 44.443,
      "lon": -0.327,
      "cp": "33730",
      "ville": "PRECHAC",
      "prix": {
        "Gazole": 0.00225,
        "E10": 0.0020800000000000003
      },
      "maj_gouv": {
        "Gazole": "2026-05-08 10:48:48",
        "E10": "2026-05-12 11:16:09"
      }
    },
    {
      "id": "33140010",
      "lat": 44.729,
      "lon": -0.53,
      "cp": "33140",
      "ville": "CADAUJAC",
      "prix": {
        "Gazole": 0.002331,
        "E85": 0.0010940000000000001,
        "E10": 0.00214,
        "SP98": 0.002277
      },
      "maj_gouv": {
        "Gazole": "2026-05-02 08:04:17",
        "E85": "2026-05-02 08:04:17",
        "E10": "2026-05-02 08:04:17",
        "SP98": "2026-05-02 08:04:17"
      }
    },
    {
      "id": "33700020",
      "lat": 44.842,
      "lon": -0.666,
      "cp": "33700",
      "ville": "MERIGNAC",
      "prix": {
        "Gazole": 0.00209,
        "GPLc": 0.001059
      },
      "maj_gouv": {
        "Gazole": "2026-05-16 00:01:00",
        "GPLc": "2026-05-16 00:01:00"
      }
    },
    {
      "id": "33440002",
      "lat": 44.919,
      "lon": -0.48,
      "cp": "33440",
      "ville": "AMBARèS-ET-LAGRAVE",
      "prix": {
        "Gazole": 0.0020510000000000003,
        "E85": 0.000725,
        "E10": 0.002019,
        "SP98": 0.002099
      },
      "maj_gouv": {
        "Gazole": "2026-05-15 09:35:58",
        "E85": "2026-05-15 09:35:58",
        "E10": "2026-05-15 09:35:58",
        "SP98": "2026-05-15 09:35:59"
      }
    },
    {
      "id": "33350003",
      "lat": 44.852595022009,
      "lon": -0.046338847269563,
      "cp": "33350",
      "ville": "CASTILLON-LA-BATAILLE",
      "prix": {
        "Gazole": 0.00211,
        "SP95": 0.002039,
        "E10": 0.0019890000000000003
      },
      "maj_gouv": {
        "Gazole": "2026-05-13 07:20:09",
        "SP95": "2026-05-13 07:20:09",
        "E10": "2026-05-13 07:20:09"
      }
    },
    {
      "id": "33720001",
      "lat": 44.65647,
      "lon": -0.36582,
      "cp": "33720",
      "ville": "Podensac",
      "prix": {
        "Gazole": 0.002089,
        "SP95": 0.002079,
        "GPLc": 0.001053,
        "SP98": 0.002099
      },
      "maj_gouv": {
        "Gazole": "2026-05-11 09:19:07",
        "SP95": "2026-05-11 09:19:08",
        "GPLc": "2026-05-12 15:43:57",
        "SP98": "2026-05-15 08:50:10"
      }
    },
    {
      "id": "33370015",
      "lat": 44.867477485277995,
      "lon": -0.49283912227866994,
      "cp": "33370",
      "ville": "ARTIGUES",
      "prix": {
        "Gazole": 0.00209,
        "E10": 0.00199,
        "SP98": 0.00199
      },
      "maj_gouv": {
        "Gazole": "2026-05-16 00:01:00",
        "E10": "2026-05-16 00:01:00",
        "SP98": "2026-05-16 00:01:00"
      }
    },
    {
      "id": "33300005",
      "lat": 44.8619,
      "lon": -0.58571999999999,
      "cp": "33300",
      "ville": "BORDEAUX",
      "prix": {
        "Gazole": 0.00209,
        "E10": 0.00199
      },
      "maj_gouv": {
        "Gazole": "2026-05-16 00:01:00",
        "E10": "2026-05-16 00:01:00"
      }
    },
    {
      "id": "33410006",
      "lat": 44.646,
      "lon": -0.324,
      "cp": "33410",
      "ville": "Béguey",
      "prix": {
        "Gazole": 0.002089,
        "SP95": 0.002079,
        "E10": 0.002029,
        "SP98": 0.002099
      },
      "maj_gouv": {
        "Gazole": "2026-05-16 01:18:00",
        "SP95": "2026-05-16 01:18:00",
        "E10": "2026-05-16 01:18:00",
        "SP98": "2026-05-16 01:18:00"
      }
    },
    {
      "id": "33210011",
      "lat": 44.5700702602,
      "lon": -0.299294925695,
      "cp": "33210",
      "ville": "LANGON",
      "prix": {
        "Gazole": 0.00209,
        "E85": 0.000929,
        "E10": 0.00199,
        "SP98": 0.00199
      },
      "maj_gouv": {
        "Gazole": "2026-05-16 00:01:00",
        "E85": "2026-05-16 00:01:00",
        "E10": "2026-05-16 00:01:00",
        "SP98": "2026-05-16 00:01:00"
      }
    },
    {
      "id": "33523001",
      "lat": 44.874,
      "lon": -0.617,
      "cp": "33520",
      "ville": "Bruges",
      "prix": {
        "Gazole": 0.002139,
        "E85": 0.000739,
        "E10": 0.002039,
        "SP98": 0.0021190000000000002
      },
      "maj_gouv": {
        "Gazole": "2026-05-09 06:30:33",
        "E85": "2026-05-09 06:30:33",
        "E10": "2026-05-15 07:45:00",
        "SP98": "2026-05-15 07:45:00"
      }
    },
    {
      "id": "33323001",
      "lat": 44.80581,
      "lon": -0.55642,
      "cp": "33130",
      "ville": "BèGLES",
      "prix": {
        "Gazole": 0.002009,
        "SP95": 0.0019890000000000003,
        "SP98": 0.002029
      },
      "maj_gouv": {
        "Gazole": "2026-05-12 09:00:00",
        "SP95": "2026-05-12 09:00:00",
        "SP98": "2026-05-12 09:00:00"
      }
    },
    {
      "id": "33133002",
      "lat": 44.996,
      "lon": -0.275,
      "cp": "33133",
      "ville": "GALGON",
      "prix": {
        "Gazole": 0.002109,
        "E85": 0.000759,
        "E10": 0.002058
      },
      "maj_gouv": {
        "Gazole": "2026-05-15 07:38:10",
        "E85": "2026-05-15 07:38:10",
        "E10": "2026-05-15 07:38:10"
      }
    },
    {
      "id": "33410003",
      "lat": 44.653404892308004,
      "lon": -0.33569817467419,
      "cp": "33410",
      "ville": "Béguey",
      "prix": {
        "Gazole": 0.002089,
        "SP95": 0.002079,
        "E85": 0.000798,
        "E10": 0.002029,
        "SP98": 0.002099
      },
      "maj_gouv": {
        "Gazole": "2026-05-15 09:16:20",
        "SP95": "2026-05-15 09:16:20",
        "E85": "2026-05-14 16:21:19",
        "E10": "2026-05-15 09:16:20",
        "SP98": "2026-05-15 09:16:20"
      }
    },
    {
      "id": "33480007",
      "lat": 45.029,
      "lon": -0.787,
      "cp": "33480",
      "ville": "Castelnau-de-Médoc",
      "prix": {
        "Gazole": 0.002094,
        "E10": 0.002034,
        "SP98": 0.002126
      },
      "maj_gouv": {
        "Gazole": "2026-05-15 07:51:00",
        "E10": "2026-05-15 07:51:00",
        "SP98": "2026-05-15 07:51:00"
      }
    },
    {
      "id": "33110003",
      "lat": 44.861,
      "lon": -0.588,
      "cp": "33110",
      "ville": "LE BOUSCAT",
      "prix": {
        "Gazole": 0.00248,
        "SP95": 0.00199,
        "SP98": 0.002036
      },
      "maj_gouv": {
        "Gazole": "2026-04-25 17:04:54",
        "SP95": "2026-04-25 17:04:54",
        "SP98": "2026-04-25 17:04:54"
      }
    },
    {
      "id": "33390004",
      "lat": 45.291,
      "lon": -0.607,
      "cp": "33820",
      "ville": "Saint-Ciers-sur-Gironde",
      "prix": {
        "Gazole": 0.002199,
        "E85": 0.000787,
        "E10": 0.0020440000000000002,
        "SP98": 0.002163
      },
      "maj_gouv": {
        "Gazole": "2026-05-15 18:59:57",
        "E85": "2026-05-15 18:59:57",
        "E10": "2026-05-15 18:59:58",
        "SP98": "2026-05-15 18:59:58"
      }
    },
    {
      "id": "33138001",
      "lat": 44.703,
      "lon": -1.037,
      "cp": "33138",
      "ville": "Lanton",
      "prix": {
        "Gazole": 0.002129,
        "E10": 0.002029,
        "SP98": 0.002169
      },
      "maj_gouv": {
        "Gazole": "2026-05-15 10:31:22",
        "E10": "2026-05-15 10:31:22",
        "SP98": "2026-05-15 10:31:22"
      }
    },
    {
      "id": "33350002",
      "lat": 44.854,
      "lon": -0.061,
      "cp": "33350",
      "ville": "Saint-Magne-de-Castillon",
      "prix": {
        "Gazole": 0.002064,
        "SP95": 0.002039,
        "E85": 0.000883,
        "E10": 0.002019,
        "SP98": 0.002161
      },
      "maj_gouv": {
        "Gazole": "2026-05-16 01:18:00",
        "SP95": "2026-05-16 01:18:00",
        "E85": "2026-05-16 01:18:00",
        "E10": "2026-05-16 01:18:00",
        "SP98": "2026-05-16 01:18:00"
      }
    },
    {
      "id": "23300008",
      "lat": 44.776,
      "lon": -0.595,
      "cp": "33170",
      "ville": "Gradignan",
      "prix": {
        "Gazole": 0.002199,
        "E85": 0.000855,
        "E10": 0.002129,
        "SP98": 0.002219
      },
      "maj_gouv": {
        "Gazole": "2026-05-15 00:01:00",
        "E85": "2026-05-15 00:01:00",
        "E10": "2026-05-15 00:01:00",
        "SP98": "2026-05-15 00:01:00"
      }
    },
    {
      "id": "33850001",
      "lat": 44.74793434,
      "lon": -0.59066386,
      "cp": "33850",
      "ville": "LéOGNAN",
      "prix": {
        "Gazole": 0.002074,
        "E85": 0.000699,
        "E10": 0.002034,
        "SP98": 0.002098
      },
      "maj_gouv": {
        "Gazole": "2026-05-12 14:37:44",
        "E85": "2026-04-24 14:40:16",
        "E10": "2026-05-15 11:59:29",
        "SP98": "2026-05-15 11:59:29"
      }
    },
    {
      "id": "33360002",
      "lat": 44.76511,
      "lon": -0.4852,
      "cp": "33360",
      "ville": "Camblanes-et-Meynac",
      "prix": {
        "Gazole": 0.002085,
        "E85": 0.000743,
        "E10": 0.00204,
        "SP98": 0.00212
      },
      "maj_gouv": {
        "Gazole": "2026-05-15 09:09:17",
        "E85": "2026-05-07 08:38:21",
        "E10": "2026-05-15 09:09:17",
        "SP98": "2026-05-15 09:09:17"
      }
    },
    {
      "id": "33130002",
      "lat": 44.792771609106,
      "lon": -0.53415800912901,
      "cp": "33130",
      "ville": "BEGLES",
      "prix": {
        "Gazole": 0.002106,
        "SP95": 0.0020859999999999997,
        "GPLc": 0.000949,
        "E10": 0.002034,
        "SP98": 0.002169
      },
      "maj_gouv": {
        "Gazole": "2026-05-15 22:39:00",
        "SP95": "2026-05-15 22:39:00",
        "GPLc": "2026-05-15 22:39:00",
        "E10": "2026-05-15 22:39:00",
        "SP98": "2026-05-15 22:39:00"
      }
    },
    {
      "id": "33410001",
      "lat": 44.636,
      "lon": -0.323,
      "cp": "33410",
      "ville": "CADILLAC",
      "prix": {},
      "maj_gouv": {}
    },
    {
      "id": "33470002",
      "lat": 44.638,
      "lon": -1.067,
      "cp": "33470",
      "ville": "GUJAN-MESTRAS",
      "prix": {
        "Gazole": 0.00215,
        "SP95": 0.0020499999999999997,
        "SP98": 0.0021360000000000003
      },
      "maj_gouv": {
        "Gazole": "2026-05-12 09:47:34",
        "SP95": "2026-05-12 09:47:34",
        "SP98": "2026-05-12 09:47:34"
      }
    },
    {
      "id": "33610005",
      "lat": 44.78,
      "lon": -0.69,
      "cp": "33610",
      "ville": "CESTAS",
      "prix": {
        "Gazole": 0.002091,
        "SP95": 0.0020299999999999997,
        "GPLc": 0.001021,
        "E10": 0.00199,
        "SP98": 0.002085
      },
      "maj_gouv": {
        "Gazole": "2026-05-13 08:30:00",
        "SP95": "2026-05-13 08:30:00",
        "GPLc": "2026-04-18 08:30:00",
        "E10": "2026-05-13 08:30:00",
        "SP98": "2026-05-13 08:30:00"
      }
    },
    {
      "id": "33680006",
      "lat": 44.8753,
      "lon": -1.08692,
      "cp": "33680",
      "ville": "Le Porge",
      "prix": {
        "Gazole": 0.0021520000000000003,
        "E10": 0.002019,
        "SP98": 0.002132
      },
      "maj_gouv": {
        "Gazole": "2026-05-12 06:03:03",
        "E10": "2026-05-12 06:03:03",
        "SP98": "2026-05-12 06:03:03"
      }
    },
    {
      "id": "33240007",
      "lat": 44.996,
      "lon": -0.44,
      "cp": "33240",
      "ville": "SAINT-ANDRé-DE-CUBZAC",
      "prix": {
        "Gazole": 0.002099,
        "E10": 0.001999,
        "SP98": 0.0021190000000000002
      },
      "maj_gouv": {
        "Gazole": "2026-05-12 07:48:53",
        "E10": "2026-05-15 08:04:09",
        "SP98": "2026-05-15 08:04:09"
      }
    },
    {
      "id": "33300003",
      "lat": 44.863,
      "lon": -0.567,
      "cp": "33300",
      "ville": "BORDEAUX",
      "prix": {
        "Gazole": 0.002149,
        "SP95": 0.0021190000000000002,
        "E10": 0.00202
      },
      "maj_gouv": {
        "Gazole": "2026-05-15 09:38:31",
        "SP95": "2026-05-15 09:38:31",
        "E10": "2026-05-15 09:38:31"
      }
    },
    {
      "id": "33640003",
      "lat": 44.7,
      "lon": -0.464,
      "cp": "33640",
      "ville": "BEAUTIRAN",
      "prix": {
        "Gazole": 0.002099,
        "E85": 0.0008489999999999999,
        "E10": 0.002039,
        "SP98": 0.002149
      },
      "maj_gouv": {
        "Gazole": "2026-05-12 09:06:25",
        "E85": "2026-05-12 09:06:25",
        "E10": "2026-05-15 19:30:00",
        "SP98": "2026-05-12 09:06:25"
      }
    },
    {
      "id": "33340003",
      "lat": 45.289,
      "lon": -0.924,
      "cp": "33340",
      "ville": "LESPARRE-MéDOC",
      "prix": {
        "Gazole": 0.002068,
        "E85": 0.000766,
        "E10": 0.002034,
        "SP98": 0.002105
      },
      "maj_gouv": {
        "Gazole": "2026-05-15 08:30:00",
        "E85": "2026-05-15 08:30:00",
        "E10": "2026-05-15 08:30:00",
        "SP98": "2026-05-15 08:30:00"
      }
    },
    {
      "id": "33660003",
      "lat": 45.015,
      "lon": -0.013,
      "cp": "33660",
      "ville": "SAINT SEURIN SUR L ISLE",
      "prix": {
        "Gazole": 0.0021190000000000002,
        "SP95": 0.002129,
        "E85": 0.000759,
        "GPLc": 0.0010789999999999999,
        "SP98": 0.002169
      },
      "maj_gouv": {
        "Gazole": "2026-05-15 11:05:02",
        "SP95": "2026-05-15 11:05:02",
        "E85": "2026-05-15 11:05:02",
        "GPLc": "2026-05-15 11:05:02",
        "SP98": "2026-05-15 11:05:02"
      }
    },
    {
      "id": "33830001",
      "lat": 44.50065716,
      "lon": -0.79000976,
      "cp": "33830",
      "ville": "BELIN-BELIET",
      "prix": {
        "Gazole": 0.002169,
        "E10": 0.002059
      },
      "maj_gouv": {
        "Gazole": "2026-05-15 08:02:56",
        "E10": "2026-05-15 08:02:57"
      }
    },
    {
      "id": "33210010",
      "lat": 44.54883,
      "lon": -0.25317,
      "cp": "33210",
      "ville": "LANGON",
      "prix": {
        "Gazole": 0.002089,
        "SP95": 0.002079,
        "E10": 0.002029
      },
      "maj_gouv": {
        "Gazole": "2026-05-11 09:14:01",
        "SP95": "2026-05-11 09:14:01",
        "E10": "2026-05-15 08:23:19"
      }
    },
    {
      "id": "33650004",
      "lat": 44.66,
      "lon": -0.597,
      "cp": "33650",
      "ville": "SAUCATS",
      "prix": {
        "Gazole": 0.002099,
        "SP95": 0.00202,
        "E10": 0.001999
      },
      "maj_gouv": {
        "Gazole": "2026-05-11 09:11:12",
        "SP95": "2026-05-11 09:11:12",
        "E10": "2026-05-11 09:11:12"
      }
    },
    {
      "id": "33380002",
      "lat": 44.691,
      "lon": -0.858,
      "cp": "33380",
      "ville": "MARCHEPRIME",
      "prix": {
        "Gazole": 0.0021669999999999997,
        "E85": 0.000819,
        "E10": 0.0020350000000000004,
        "SP98": 0.002149
      },
      "maj_gouv": {
        "Gazole": "2026-05-13 10:52:51",
        "E85": "2026-04-15 06:48:20",
        "E10": "2026-05-13 10:52:52",
        "SP98": "2026-05-13 10:52:52"
      }
    },
    {
      "id": "33270001",
      "lat": 44.814200912622994,
      "lon": -0.5242757748,
      "cp": "33270",
      "ville": "Bouliac",
      "prix": {
        "Gazole": 0.002085,
        "E85": 0.000756,
        "GPLc": 0.001059,
        "E10": 0.002009,
        "SP98": 0.002085
      },
      "maj_gouv": {
        "Gazole": "2026-05-15 09:26:51",
        "E85": "2026-05-15 09:26:51",
        "GPLc": "2026-05-04 09:51:00",
        "E10": "2026-05-15 09:26:51",
        "SP98": "2026-05-15 09:26:52"
      }
    },
    {
      "id": "33780001",
      "lat": 45.514,
      "lon": -1.113,
      "cp": "33780",
      "ville": "Soulac-sur-Mer",
      "prix": {
        "Gazole": 0.002068,
        "E85": 0.000766,
        "E10": 0.002034,
        "SP98": 0.002105
      },
      "maj_gouv": {
        "Gazole": "2026-05-15 14:59:29",
        "E85": "2026-05-15 14:59:29",
        "E10": "2026-05-15 14:59:29",
        "SP98": "2026-05-15 14:59:29"
      }
    },
    {
      "id": "33490004",
      "lat": 44.574980414883996,
      "lon": -0.25492902257619,
      "cp": "33490",
      "ville": "Saint-Maixant",
      "prix": {
        "Gazole": 0.002195,
        "SP95": 0.002079,
        "SP98": 0.00215
      },
      "maj_gouv": {
        "Gazole": "2026-05-06 15:36:47",
        "SP95": "2026-05-06 15:36:47",
        "SP98": "2026-05-06 15:36:47"
      }
    },
    {
      "id": "33190005",
      "lat": 44.585,
      "lon": -0.081,
      "cp": "33190",
      "ville": "Gironde-sur-Dropt",
      "prix": {
        "Gazole": 0.00209,
        "E10": 0.00199,
        "SP98": 0.00199
      },
      "maj_gouv": {
        "Gazole": "2026-05-15 19:58:21",
        "E10": "2026-05-15 19:58:21",
        "SP98": "2026-05-15 19:58:21"
      }
    },
    {
      "id": "33000022",
      "lat": 44.837,
      "lon": -0.599,
      "cp": "33000",
      "ville": "BORDEAUX",
      "prix": {
        "Gazole": 0.00209,
        "E85": 0.000843
      },
      "maj_gouv": {
        "Gazole": "2026-05-16 00:01:00",
        "E85": "2026-05-16 00:01:00"
      }
    },
    {
      "id": "33500005",
      "lat": 44.90603,
      "lon": -0.23355,
      "cp": "33500",
      "ville": "LIBOURNE",
      "prix": {
        "Gazole": 0.002062,
        "E10": 0.002019,
        "SP98": 0.002139
      },
      "maj_gouv": {
        "Gazole": "2026-05-15 12:19:47",
        "E10": "2026-05-15 08:45:00",
        "SP98": "2026-05-15 08:45:00"
      }
    },
    {
      "id": "33700025",
      "lat": 44.828,
      "lon": -0.621,
      "cp": "33700",
      "ville": "Mérignac",
      "prix": {
        "Gazole": 0.002189,
        "E85": 0.000756,
        "E10": 0.002019,
        "SP98": 0.0021349999999999997
      },
      "maj_gouv": {
        "Gazole": "2026-05-11 19:00:56",
        "E85": "2026-05-11 19:00:57",
        "E10": "2026-05-11 19:00:57",
        "SP98": "2026-05-11 19:00:57"
      }
    },
    {
      "id": "33240003",
      "lat": 44.969,
      "lon": -0.377,
      "cp": "33240",
      "ville": "CADILLAC-EN-FRONSADAIS",
      "prix": {
        "Gazole": 0.00225,
        "SP95": 0.00199
      },
      "maj_gouv": {
        "Gazole": "2026-04-30 07:46:29",
        "SP95": "2026-04-30 07:46:29"
      }
    },
    {
      "id": "33820001",
      "lat": 45.227,
      "lon": -0.573,
      "cp": "33820",
      "ville": "Étauliers",
      "prix": {
        "Gazole": 0.002179,
        "SP95": 0.002059,
        "E10": 0.001999
      },
      "maj_gouv": {
        "Gazole": "2026-05-07 09:24:39",
        "SP95": "2026-05-07 09:24:39",
        "E10": "2026-05-07 09:24:39"
      }
    },
    {
      "id": "33140012",
      "lat": 44.774,
      "lon": -0.563,
      "cp": "33140",
      "ville": "VILLENAVE D'ORNON",
      "prix": {
        "Gazole": 0.002084,
        "GPLc": 0.0009809999999999999,
        "E10": 0.001983,
        "SP98": 0.0020859999999999997
      },
      "maj_gouv": {
        "Gazole": "2026-05-15 09:26:22",
        "GPLc": "2026-05-13 09:25:41",
        "E10": "2026-05-13 09:25:41",
        "SP98": "2026-05-13 09:25:41"
      }
    },
    {
      "id": "33400005",
      "lat": 44.807,
      "lon": -0.573,
      "cp": "33400",
      "ville": "TALENCE",
      "prix": {
        "Gazole": 0.002095,
        "SP95": 0.002068,
        "E85": 0.000798,
        "E10": 0.0020139999999999997
      },
      "maj_gouv": {
        "Gazole": "2026-05-15 10:44:54",
        "SP95": "2026-05-15 10:44:54",
        "E85": "2026-05-15 10:44:54",
        "E10": "2026-05-15 10:44:55"
      }
    },
    {
      "id": "33510003",
      "lat": 44.745,
      "lon": -1.093,
      "cp": "33510",
      "ville": "Andernos-les-Bains",
      "prix": {
        "Gazole": 0.002129,
        "SP95": 0.002069,
        "E10": 0.001999,
        "SP98": 0.002099
      },
      "maj_gouv": {
        "Gazole": "2026-05-13 10:07:21",
        "SP95": "2026-05-04 11:40:52",
        "E10": "2026-05-09 10:26:08",
        "SP98": "2026-05-12 08:50:27"
      }
    },
    {
      "id": "33310009",
      "lat": 44.865,
      "lon": -0.52,
      "cp": "33310",
      "ville": "Lormont",
      "prix": {
        "Gazole": 0.0021520000000000003,
        "SP95": 0.0020710000000000004,
        "E85": 0.000832,
        "E10": 0.0020369999999999997,
        "SP98": 0.002159
      },
      "maj_gouv": {
        "Gazole": "2026-05-15 04:50:15",
        "SP95": "2026-05-15 04:50:15",
        "E85": "2026-05-15 04:50:15",
        "E10": "2026-05-15 04:50:15",
        "SP98": "2026-05-15 04:50:15"
      }
    },
    {
      "id": "33950003",
      "lat": 44.790339898736,
      "lon": -1.1460824064777,
      "cp": "33950",
      "ville": "LEGE-CAP-FERRET",
      "prix": {
        "Gazole": 0.002149,
        "SP95": 0.001999,
        "SP98": 0.002149
      },
      "maj_gouv": {
        "Gazole": "2026-05-13 10:10:35",
        "SP95": "2026-05-13 10:10:35",
        "SP98": "2026-05-04 15:51:51"
      }
    },
    {
      "id": "33113002",
      "lat": 44.429,
      "lon": -0.491,
      "cp": "33113",
      "ville": "SAINT-SYMPHORIEN",
      "prix": {
        "Gazole": 0.002079,
        "E10": 0.001965,
        "SP98": 0.002075
      },
      "maj_gouv": {
        "Gazole": "2026-05-11 11:15:16",
        "E10": "2026-05-11 11:15:16",
        "SP98": "2026-05-11 11:15:16"
      }
    },
    {
      "id": "33850002",
      "lat": 44.734,
      "lon": -0.599,
      "cp": "33850",
      "ville": "LéOGNAN",
      "prix": {
        "Gazole": 0.002175,
        "E85": 0.000746,
        "E10": 0.002069,
        "SP98": 0.002144
      },
      "maj_gouv": {
        "Gazole": "2026-05-08 18:14:56",
        "E85": "2026-04-22 09:06:46",
        "E10": "2026-05-08 18:14:56",
        "SP98": "2026-05-08 18:14:56"
      }
    },
    {
      "id": "33740001",
      "lat": 44.769,
      "lon": -1.111,
      "cp": "33740",
      "ville": "Arès",
      "prix": {
        "Gazole": 0.002129,
        "SP95": 0.002069,
        "E85": 0.0008990000000000001,
        "E10": 0.002029,
        "SP98": 0.002089
      },
      "maj_gouv": {
        "Gazole": "2026-05-16 01:18:00",
        "SP95": "2026-05-16 01:18:00",
        "E85": "2026-05-16 01:18:00",
        "E10": "2026-05-16 01:18:00",
        "SP98": "2026-05-16 01:18:00"
      }
    },
    {
      "id": "33600006",
      "lat": 44.799,
      "lon": -0.664,
      "cp": "33600",
      "ville": "Pessac",
      "prix": {
        "Gazole": 0.00216,
        "E10": 0.00204,
        "SP98": 0.00212
      },
      "maj_gouv": {
        "Gazole": "2026-05-14 06:30:00",
        "E10": "2026-05-14 06:30:00",
        "SP98": "2026-05-14 06:30:00"
      }
    },
    {
      "id": "33260010",
      "lat": 44.549,
      "lon": -1.158,
      "cp": "33260",
      "ville": "La Teste-de-Buch",
      "prix": {
        "Gazole": 0.0022570000000000003,
        "E10": 0.002118,
        "SP98": 0.002199
      },
      "maj_gouv": {
        "Gazole": "2026-05-06 07:12:00",
        "E10": "2026-05-06 07:12:00",
        "SP98": "2026-05-06 07:12:00"
      }
    },
    {
      "id": "33240005",
      "lat": 44.975,
      "lon": -0.433,
      "cp": "33240",
      "ville": "Cubzac-les-Ponts",
      "prix": {
        "Gazole": 0.0023020000000000002,
        "E85": 0.000998,
        "GPLc": 0.001206,
        "E10": 0.0021739999999999997,
        "SP98": 0.0022229999999999997
      },
      "maj_gouv": {
        "Gazole": "2026-05-12 11:18:59",
        "E85": "2026-05-12 11:18:59",
        "GPLc": "2026-05-12 11:18:59",
        "E10": "2026-05-12 11:19:00",
        "SP98": "2026-05-12 11:18:59"
      }
    },
    {
      "id": "33400011",
      "lat": 44.807,
      "lon": -0.591,
      "cp": "33400",
      "ville": "BORDEAUX TALENCE",
      "prix": {
        "Gazole": 0.002153,
        "SP98": 0.002199
      },
      "maj_gouv": {
        "Gazole": "2026-05-15 17:48:57",
        "SP98": "2026-05-15 17:48:57"
      }
    },
    {
      "id": "33220004",
      "lat": 44.8428524219,
      "lon": 0.205146156449,
      "cp": "33220",
      "ville": "PORT-SAINTE-FOY-ET-PONCHAPT",
      "prix": {
        "Gazole": 0.00215,
        "E10": 0.002048,
        "SP98": 0.002163
      },
      "maj_gouv": {
        "Gazole": "2026-05-12 12:16:30",
        "E10": "2026-05-12 12:16:30",
        "SP98": "2026-05-12 12:16:30"
      }
    },
    {
      "id": "33370002",
      "lat": 44.838,
      "lon": -0.486,
      "cp": "33370",
      "ville": "TRESSES",
      "prix": {
        "Gazole": 0.00209
      },
      "maj_gouv": {
        "Gazole": "2026-05-14 08:21:42"
      }
    },
    {
      "id": "33320009",
      "lat": 44.912,
      "lon": -0.668,
      "cp": "33320",
      "ville": "LE TAILLAN-MEDOC",
      "prix": {
        "Gazole": 0.002175,
        "SP95": 0.0020350000000000004,
        "SP98": 0.002099
      },
      "maj_gouv": {
        "Gazole": "2026-05-11 15:34:50",
        "SP95": "2026-05-11 15:34:50",
        "SP98": "2026-05-11 15:34:50"
      }
    },
    {
      "id": "33490002",
      "lat": 44.57218746814,
      "lon": -0.18357356360874,
      "cp": "33490",
      "ville": "Saint-Pierre-d'Aurillac",
      "prix": {
        "Gazole": 0.00209,
        "E10": 0.00199,
        "SP98": 0.00199
      },
      "maj_gouv": {
        "Gazole": "2026-05-14 00:40:00",
        "E10": "2026-05-05 08:53:40",
        "SP98": "2026-05-05 08:53:40"
      }
    },
    {
      "id": "33000015",
      "lat": 44.835,
      "lon": -0.599,
      "cp": "33000",
      "ville": "BORDEAUX",
      "prix": {
        "Gazole": 0.002099,
        "SP98": 0.002139
      },
      "maj_gouv": {
        "Gazole": "2026-05-15 12:02:26",
        "SP98": "2026-05-15 12:02:26"
      }
    },
    {
      "id": "33400009",
      "lat": 44.789,
      "lon": -0.587,
      "cp": "33400",
      "ville": "TALENCE",
      "prix": {
        "Gazole": 0.002069,
        "E10": 0.002029,
        "SP98": 0.002199
      },
      "maj_gouv": {
        "Gazole": "2026-05-15 12:05:25",
        "E10": "2026-05-15 12:05:25",
        "SP98": "2026-05-15 12:05:25"
      }
    },
    {
      "id": "33450005",
      "lat": 44.921,
      "lon": -0.45,
      "cp": "33450",
      "ville": "Saint-Loubès",
      "prix": {
        "Gazole": 0.00209,
        "E10": 0.00199,
        "SP98": 0.00199
      },
      "maj_gouv": {
        "Gazole": "2026-05-15 16:20:24",
        "E10": "2026-05-15 16:20:24",
        "SP98": "2026-05-15 16:20:24"
      }
    },
    {
      "id": "33370008",
      "lat": 44.868,
      "lon": -0.497,
      "cp": "33370",
      "ville": "Artigues-près-Bordeaux",
      "prix": {
        "Gazole": 0.002161,
        "SP95": 0.002057,
        "E10": 0.001993,
        "SP98": 0.002114
      },
      "maj_gouv": {
        "Gazole": "2026-05-11 14:49:17",
        "SP95": "2026-05-11 14:49:17",
        "E10": "2026-05-11 14:49:17",
        "SP98": "2026-05-11 14:49:17"
      }
    },
    {
      "id": "33370014",
      "lat": 44.84,
      "lon": -0.492,
      "cp": "33370",
      "ville": "TRESSES",
      "prix": {
        "Gazole": 0.00209,
        "E85": 0.000829,
        "GPLc": 0.001029,
        "E10": 0.00199
      },
      "maj_gouv": {
        "Gazole": "2026-05-16 00:01:00",
        "E85": "2026-05-16 00:01:00",
        "GPLc": "2026-05-16 00:01:00",
        "E10": "2026-05-16 00:01:00"
      }
    },
    {
      "id": "33290009",
      "lat": 44.911,
      "lon": -0.624,
      "cp": "33290",
      "ville": "BLANQUEFORT",
      "prix": {
        "Gazole": 0.00209,
        "E85": 0.000869,
        "E10": 0.00199,
        "SP98": 0.00199
      },
      "maj_gouv": {
        "Gazole": "2026-05-16 00:01:00",
        "E85": "2026-05-16 00:01:00",
        "E10": "2026-05-16 00:01:00",
        "SP98": "2026-05-16 00:01:00"
      }
    },
    {
      "id": "33950001",
      "lat": 44.750968603,
      "lon": -1.18038073853,
      "cp": "33950",
      "ville": "LEGE-CAP-FERRET",
      "prix": {
        "Gazole": 0.002129,
        "E85": 0.0008990000000000001,
        "GPLc": 0.0011,
        "E10": 0.002029,
        "SP98": 0.002089
      },
      "maj_gouv": {
        "Gazole": "2026-05-15 09:03:32",
        "E85": "2026-05-15 09:03:32",
        "GPLc": "2026-05-15 09:03:32",
        "E10": "2026-05-15 09:03:32",
        "SP98": "2026-05-15 09:03:32"
      }
    },
    {
      "id": "33660004",
      "lat": 45.001,
      "lon": 0.037,
      "cp": "33660",
      "ville": "Gours",
      "prix": {
        "Gazole": 0.00209,
        "E85": 0.0009519999999999999,
        "GPLc": 0.0010580000000000001,
        "E10": 0.00199,
        "SP98": 0.00199
      },
      "maj_gouv": {
        "Gazole": "2026-05-16 00:01:00",
        "E85": "2026-05-16 00:01:00",
        "GPLc": "2026-05-16 00:01:00",
        "E10": "2026-05-16 00:01:00",
        "SP98": "2026-05-16 00:01:00"
      }
    },
    {
      "id": "33290004",
      "lat": 44.94765,
      "lon": -0.60351,
      "cp": "33290",
      "ville": "PAREMPUYRE",
      "prix": {
        "Gazole": 0.002144,
        "SP95": 0.002069,
        "E85": 0.0008179999999999999,
        "E10": 0.002018
      },
      "maj_gouv": {
        "Gazole": "2026-05-12 09:19:31",
        "SP95": "2026-05-15 09:13:44",
        "E85": "2026-04-30 09:48:51",
        "E10": "2026-05-12 09:19:31"
      }
    },
    {
      "id": "33700001",
      "lat": 44.83,
      "lon": -0.654,
      "cp": "33700",
      "ville": "MERIGNAC",
      "prix": {
        "Gazole": 0.002091,
        "SP95": 0.0020870000000000003,
        "E85": 0.000756,
        "GPLc": 0.001066,
        "E10": 0.002019,
        "SP98": 0.002154
      },
      "maj_gouv": {
        "Gazole": "2026-05-14 22:43:00",
        "SP95": "2026-05-14 22:43:00",
        "E85": "2026-05-14 22:43:00",
        "GPLc": "2026-05-14 22:43:00",
        "E10": "2026-05-14 22:43:00",
        "SP98": "2026-05-14 22:43:00"
      }
    },
    {
      "id": "33120007",
      "lat": 44.65,
      "lon": -1.187,
      "cp": "33120",
      "ville": "ARCACHON",
      "prix": {
        "Gazole": 0.00209,
        "E10": 0.00199,
        "SP98": 0.00199
      },
      "maj_gouv": {
        "Gazole": "2026-05-16 00:01:00",
        "E10": "2026-05-16 00:01:00",
        "SP98": "2026-05-16 00:01:00"
      }
    },
    {
      "id": "33560004",
      "lat": 44.888,
      "lon": -0.517,
      "cp": "33560",
      "ville": "Carbon-Blanc",
      "prix": {
        "Gazole": 0.00209,
        "E10": 0.00199,
        "SP98": 0.00199
      },
      "maj_gouv": {
        "Gazole": "2026-05-16 00:01:00",
        "E10": "2026-05-16 00:01:00",
        "SP98": "2026-05-16 00:01:00"
      }
    },
    {
      "id": "33450002",
      "lat": 44.912,
      "lon": -0.391,
      "cp": "33450",
      "ville": "Saint-Sulpice-et-Cameyrac",
      "prix": {
        "Gazole": 0.0021680000000000002,
        "E85": 0.0008179999999999999,
        "E10": 0.002018,
        "SP98": 0.002089
      },
      "maj_gouv": {
        "Gazole": "2026-05-06 10:03:36",
        "E85": "2026-05-06 10:03:36",
        "E10": "2026-05-06 10:03:36",
        "SP98": "2026-05-06 10:03:36"
      }
    },
    {
      "id": "33420002",
      "lat": 44.8297056195,
      "lon": -0.190388244327,
      "cp": "33420",
      "ville": "GRéZILLAC",
      "prix": {
        "Gazole": 0.002149,
        "E85": 0.0008489999999999999,
        "E10": 0.002049,
        "SP98": 0.002149
      },
      "maj_gouv": {
        "Gazole": "2026-05-12 09:29:52",
        "E85": "2026-04-23 11:29:27",
        "E10": "2026-05-12 09:29:52",
        "SP98": "2026-05-12 09:29:53"
      }
    },
    {
      "id": "33170005",
      "lat": 44.785863382799995,
      "lon": -0.603423825687,
      "cp": "33170",
      "ville": "GRADIGNAN",
      "prix": {
        "Gazole": 0.0021520000000000003,
        "SP98": 0.002085
      },
      "maj_gouv": {
        "Gazole": "2026-05-15 10:28:24",
        "SP98": "2026-05-15 10:28:25"
      }
    },
    {
      "id": "33170008",
      "lat": 44.777,
      "lon": -0.61,
      "cp": "33170",
      "ville": "GRADIGNAN",
      "prix": {
        "Gazole": 0.00209,
        "E85": 0.000829,
        "E10": 0.00199
      },
      "maj_gouv": {
        "Gazole": "2026-05-16 00:01:00",
        "E85": "2026-05-16 00:01:00",
        "E10": "2026-05-16 00:01:00"
      }
    },
    {
      "id": "33133003",
      "lat": 44.989,
      "lon": -0.27,
      "cp": "33133",
      "ville": "GALGON",
      "prix": {
        "Gazole": 0.00225
      },
      "maj_gouv": {
        "Gazole": "2026-05-06 11:16:15"
      }
    },
    {
      "id": "33160003",
      "lat": 44.905,
      "lon": -0.746,
      "cp": "33160",
      "ville": "SAINT-MéDARD-EN-JALLES",
      "prix": {
        "Gazole": 0.002059,
        "SP95": 0.002069,
        "E85": 0.000798,
        "SP98": 0.002129
      },
      "maj_gouv": {
        "Gazole": "2026-05-15 09:19:02",
        "SP95": "2026-05-15 09:19:03",
        "E85": "2026-05-15 09:19:03",
        "SP98": "2026-05-15 09:19:03"
      }
    },
    {
      "id": "33320008",
      "lat": 44.893,
      "lon": -0.666,
      "cp": "33320",
      "ville": "EYSINES",
      "prix": {
        "Gazole": 0.00209,
        "E85": 0.000869,
        "GPLc": 0.001059,
        "E10": 0.00199,
        "SP98": 0.00199
      },
      "maj_gouv": {
        "Gazole": "2026-05-16 00:01:00",
        "E85": "2026-05-16 00:01:00",
        "GPLc": "2026-05-16 00:01:00",
        "E10": "2026-05-16 00:01:00",
        "SP98": "2026-05-16 00:01:00"
      }
    },
    {
      "id": "24400001",
      "lat": 44.902,
      "lon": -0.508,
      "cp": "33530",
      "ville": "BASSENS",
      "prix": {
        "Gazole": 0.002199,
        "E85": 0.00079,
        "E10": 0.002069,
        "SP98": 0.002159
      },
      "maj_gouv": {
        "Gazole": "2026-05-06 10:27:27",
        "E85": "2026-04-23 13:50:48",
        "E10": "2026-05-06 10:27:28",
        "SP98": "2026-05-06 10:27:28"
      }
    },
    {
      "id": "33260005",
      "lat": 44.61039,
      "lon": -1.146,
      "cp": "33260",
      "ville": "LA TESTE-DE-BUCH",
      "prix": {
        "Gazole": 0.00213,
        "SP95": 0.002055,
        "E85": 0.0008179999999999999,
        "E10": 0.001999
      },
      "maj_gouv": {
        "Gazole": "2026-05-15 09:41:32",
        "SP95": "2026-05-11 10:18:50",
        "E85": "2026-04-25 10:07:19",
        "E10": "2026-05-11 10:18:51"
      }
    },
    {
      "id": "33110009",
      "lat": 44.868255999999995,
      "lon": -0.607723,
      "cp": "33110",
      "ville": "LE BOUSCAT",
      "prix": {
        "Gazole": 0.002209,
        "E85": 0.0008449999999999999,
        "E10": 0.0021190000000000002,
        "SP98": 0.002219
      },
      "maj_gouv": {
        "Gazole": "2026-05-14 23:50:00",
        "E85": "2026-05-14 23:50:00",
        "E10": "2026-05-14 23:50:00",
        "SP98": "2026-05-14 23:50:00"
      }
    },
    {
      "id": "33120003",
      "lat": 44.652,
      "lon": -1.147,
      "cp": "33120",
      "ville": "ARCACHON",
      "prix": {
        "Gazole": 0.002199,
        "E85": 0.0008449999999999999,
        "GPLc": 0.001089,
        "E10": 0.0021190000000000002,
        "SP98": 0.002219
      },
      "maj_gouv": {
        "Gazole": "2026-05-13 07:30:00",
        "E85": "2026-05-13 07:30:00",
        "GPLc": "2026-05-13 07:30:00",
        "E10": "2026-05-13 07:30:00",
        "SP98": "2026-05-13 07:30:00"
      }
    },
    {
      "id": "33170003",
      "lat": 44.786,
      "lon": -0.596,
      "cp": "33170",
      "ville": "GRADIGNAN",
      "prix": {
        "Gazole": 0.002169,
        "E85": 0.000855,
        "GPLc": 0.001089,
        "E10": 0.002109,
        "SP98": 0.002189
      },
      "maj_gouv": {
        "Gazole": "2026-05-15 06:00:00",
        "E85": "2026-05-15 06:00:00",
        "GPLc": "2026-05-15 06:00:00",
        "E10": "2026-05-15 06:00:00",
        "SP98": "2026-05-15 06:00:00"
      }
    },
    {
      "id": "33920006",
      "lat": 45.188854000000006,
      "lon": -0.492614,
      "cp": "33920",
      "ville": "SAUGON",
      "prix": {
        "Gazole": 0.0023599999999999997,
        "GPLc": 0.00106,
        "E10": 0.00219,
        "SP98": 0.00229
      },
      "maj_gouv": {
        "Gazole": "2026-05-13 06:00:00",
        "GPLc": "2026-01-23 10:40:39",
        "E10": "2026-05-06 06:00:00",
        "SP98": "2026-05-06 06:00:00"
      }
    },
    {
      "id": "33700022",
      "lat": 44.85,
      "lon": -0.667,
      "cp": "33700",
      "ville": "MERIGNAC",
      "prix": {
        "Gazole": 0.00209,
        "E85": 0.000829,
        "GPLc": 0.001039,
        "E10": 0.00199
      },
      "maj_gouv": {
        "Gazole": "2026-05-16 00:01:00",
        "E85": "2026-05-16 00:01:00",
        "GPLc": "2026-05-16 00:01:00",
        "E10": "2026-05-16 00:01:00"
      }
    },
    {
      "id": "33380005",
      "lat": 44.66,
      "lon": -0.829,
      "cp": "33380",
      "ville": "MIOS",
      "prix": {
        "Gazole": 0.00209,
        "E85": 0.000864,
        "E10": 0.00199,
        "SP98": 0.00199
      },
      "maj_gouv": {
        "Gazole": "2026-05-16 00:01:00",
        "E85": "2026-05-16 00:01:00",
        "E10": "2026-05-16 00:01:00",
        "SP98": "2026-05-16 00:01:00"
      }
    },
    {
      "id": "33720010",
      "lat": 44.647490999999995,
      "lon": -0.43686300000000006,
      "cp": "33720",
      "ville": "SAINT MICHEL DE RIEUFRET",
      "prix": {
        "Gazole": 0.002441,
        "GPLc": 0.001108,
        "E10": 0.0024609999999999996,
        "SP98": 0.002611
      },
      "maj_gouv": {
        "Gazole": "2026-05-15 09:30:00",
        "GPLc": "2026-05-15 09:30:00",
        "E10": "2026-05-15 09:30:00",
        "SP98": "2026-05-15 09:30:00"
      }
    },
    {
      "id": "33750007",
      "lat": 44.820943081885,
      "lon": -0.2837606139632,
      "cp": "33750",
      "ville": "Saint-Quentin-de-Baron",
      "prix": {},
      "maj_gouv": {}
    },
    {
      "id": "33680003",
      "lat": 45.001960010000005,
      "lon": -1.20044403,
      "cp": "33680",
      "ville": "Lacanau-Océan",
      "prix": {
        "Gazole": 0.0023,
        "E10": 0.00202,
        "SP98": 0.0020499999999999997
      },
      "maj_gouv": {
        "Gazole": "2026-04-22 10:10:33",
        "E10": "2026-04-29 09:23:29",
        "SP98": "2026-04-22 10:10:33"
      }
    },
    {
      "id": "33480008",
      "lat": 45.067462953669995,
      "lon": -0.7945346539476199,
      "cp": "33480",
      "ville": "LISTRAC MEDOC",
      "prix": {
        "Gazole": 0.00209,
        "SP95": 0.0019399999999999999
      },
      "maj_gouv": {
        "Gazole": "2026-05-13 19:38:16",
        "SP95": "2026-05-11 08:11:15"
      }
    },
    {
      "id": "33700012",
      "lat": 44.856,
      "lon": -0.654,
      "cp": "33700",
      "ville": "Mérignac",
      "prix": {
        "Gazole": 0.002179,
        "E85": 0.000798,
        "E10": 0.002009,
        "SP98": 0.0021190000000000002
      },
      "maj_gouv": {
        "Gazole": "2026-05-07 07:38:14",
        "E85": "2026-05-15 08:37:10",
        "E10": "2026-05-08 07:24:53",
        "SP98": "2026-05-08 07:24:54"
      }
    },
    {
      "id": "33220009",
      "lat": 44.842,
      "lon": 0.228,
      "cp": "33220",
      "ville": "PINEUILH",
      "prix": {
        "Gazole": 0.00209,
        "E10": 0.00199,
        "SP98": 0.00199
      },
      "maj_gouv": {
        "Gazole": "2026-05-15 08:36:43",
        "E10": "2026-05-15 08:36:43",
        "SP98": "2026-05-15 08:36:43"
      }
    }
  ]
}