{
  "departement": "32",
  "date": "2026-05-16",
  "stations": [
    {
      "id": "32300003",
      "lat": 43.517,
      "lon": 0.414,
      "cp": "32300",
      "ville": "MIRANDE",
      "prix": {
        "Gazole": 0.00221,
        "SP95": 0.00199,
        "E85": 0.001062
      },
      "maj_gouv": {
        "Gazole": "2026-05-13 07:53:53",
        "SP95": "2026-05-13 07:53:53",
        "E85": "2026-04-30 09:57:11"
      }
    },
    {
      "id": "32600001",
      "lat": 43.614,
      "lon": 1.089,
      "cp": "32600",
      "ville": "L'Isle-Jourdain",
      "prix": {
        "Gazole": 0.002129,
        "SP95": 0.002109,
        "E10": 0.002079,
        "SP98": 0.002179
      },
      "maj_gouv": {
        "Gazole": "2026-05-12 08:24:31",
        "SP95": "2026-05-15 08:36:52",
        "E10": "2026-05-15 08:36:52",
        "SP98": "2026-05-15 08:36:52"
      }
    },
    {
      "id": "32150002",
      "lat": 43.935,
      "lon": -0.062,
      "cp": "32150",
      "ville": "Cazaubon",
      "prix": {
        "Gazole": 0.002149,
        "E10": 0.002019,
        "SP98": 0.002159
      },
      "maj_gouv": {
        "Gazole": "2026-05-13 08:08:44",
        "E10": "2026-05-13 08:08:45",
        "SP98": "2026-05-06 12:44:36"
      }
    },
    {
      "id": "32130003",
      "lat": 43.48982650000001,
      "lon": 0.9319067,
      "cp": "32130",
      "ville": "Samatan",
      "prix": {
        "Gazole": 0.002139,
        "SP95": 0.002109,
        "SP98": 0.002183
      },
      "maj_gouv": {
        "Gazole": "2026-05-15 10:29:32",
        "SP95": "2026-05-15 10:29:32",
        "SP98": "2026-05-15 10:29:32"
      }
    },
    {
      "id": "32100001",
      "lat": 43.948,
      "lon": 0.372,
      "cp": "32100",
      "ville": "Condom",
      "prix": {
        "Gazole": 0.00209,
        "GPLc": 0.00124,
        "E10": 0.00199,
        "SP98": 0.00199
      },
      "maj_gouv": {
        "Gazole": "2026-05-15 07:33:50",
        "GPLc": "2026-05-15 07:33:51",
        "E10": "2026-05-15 07:33:51",
        "SP98": "2026-05-15 07:33:51"
      }
    },
    {
      "id": "32000008",
      "lat": 43.649,
      "lon": 0.595,
      "cp": "32000",
      "ville": "AUCH",
      "prix": {
        "Gazole": 0.002139,
        "E10": 0.002069,
        "SP98": 0.002159
      },
      "maj_gouv": {
        "Gazole": "2026-05-13 11:08:51",
        "E10": "2026-05-13 11:08:51",
        "SP98": "2026-05-13 11:09:19"
      }
    },
    {
      "id": "32380001",
      "lat": 43.886,
      "lon": 0.761,
      "cp": "32380",
      "ville": "SAINT-CLAR",
      "prix": {
        "Gazole": 0.0021469999999999996,
        "E10": 0.002029,
        "SP98": 0.002149
      },
      "maj_gouv": {
        "Gazole": "2026-05-15 10:03:37",
        "E10": "2026-05-15 10:03:37",
        "SP98": "2026-05-15 10:03:37"
      }
    },
    {
      "id": "32500003",
      "lat": 43.842,
      "lon": 0.661,
      "cp": "32500",
      "ville": "Fleurance",
      "prix": {
        "Gazole": 0.001811,
        "SP95": 0.001871
      },
      "maj_gouv": {
        "Gazole": "2026-01-30 08:30:23",
        "SP95": "2026-01-16 09:27:43"
      }
    },
    {
      "id": "32500007",
      "lat": 43.85157962654,
      "lon": 0.6612435179699999,
      "cp": "32500",
      "ville": "Fleurance",
      "prix": {
        "Gazole": 0.002148,
        "E10": 0.002028,
        "SP98": 0.002148
      },
      "maj_gouv": {
        "Gazole": "2026-05-12 16:49:07",
        "E10": "2026-05-12 16:49:07",
        "SP98": "2026-05-12 16:49:07"
      }
    },
    {
      "id": "32000006",
      "lat": 43.664,
      "lon": 0.618,
      "cp": "32000",
      "ville": "AUCH",
      "prix": {
        "Gazole": 0.002099,
        "E85": 0.000798,
        "E10": 0.002055,
        "SP98": 0.0021190000000000002
      },
      "maj_gouv": {
        "Gazole": "2026-05-15 07:48:10",
        "E85": "2026-05-15 16:11:50",
        "E10": "2026-05-12 13:34:38",
        "SP98": "2026-05-12 13:34:38"
      }
    },
    {
      "id": "32110003",
      "lat": 43.770040633052,
      "lon": -0.030182771766235,
      "cp": "32110",
      "ville": "NOGARO",
      "prix": {
        "Gazole": 0.002129,
        "E85": 0.000919,
        "E10": 0.002115
      },
      "maj_gouv": {
        "Gazole": "2026-05-13 10:25:36",
        "E85": "2026-05-13 10:25:36",
        "E10": "2026-05-13 10:25:36"
      }
    },
    {
      "id": "32190003",
      "lat": 43.766,
      "lon": 0.311,
      "cp": "32190",
      "ville": "VIC-FEZENSAC",
      "prix": {
        "Gazole": 0.002109,
        "E10": 0.002055,
        "SP98": 0.002165
      },
      "maj_gouv": {
        "Gazole": "2026-05-14 09:00:00",
        "E10": "2026-05-14 09:00:00",
        "SP98": "2026-05-14 09:00:00"
      }
    },
    {
      "id": "32340001",
      "lat": 43.998,
      "lon": 0.757,
      "cp": "32340",
      "ville": "MIRADOUX",
      "prix": {
        "Gazole": 0.00219,
        "E10": 0.0020800000000000003,
        "SP98": 0.0022
      },
      "maj_gouv": {
        "Gazole": "2026-05-11 17:07:45",
        "E10": "2026-05-12 11:07:35",
        "SP98": "2026-05-08 10:20:06"
      }
    },
    {
      "id": "32800003",
      "lat": 43.863811151531,
      "lon": 0.10728169416186,
      "cp": "32800",
      "ville": "EAUZE",
      "prix": {
        "Gazole": 0.002098,
        "E10": 0.001999,
        "SP98": 0.002099
      },
      "maj_gouv": {
        "Gazole": "2026-05-13 17:57:42",
        "E10": "2026-04-27 18:00:00",
        "SP98": "2026-04-27 18:00:00"
      }
    },
    {
      "id": "32130004",
      "lat": 43.4941819,
      "lon": 0.93155706137464,
      "cp": "32130",
      "ville": "SAMATAN",
      "prix": {
        "Gazole": 0.00209,
        "E10": 0.00199,
        "SP98": 0.00199
      },
      "maj_gouv": {
        "Gazole": "2026-05-14 00:05:00",
        "E10": "2026-05-07 11:04:11",
        "SP98": "2026-05-07 11:04:11"
      }
    },
    {
      "id": "32100003",
      "lat": 43.965,
      "lon": 0.367,
      "cp": "32100",
      "ville": "Condom",
      "prix": {
        "Gazole": 0.0021190000000000002,
        "E10": 0.002047,
        "SP98": 0.0022730000000000003
      },
      "maj_gouv": {
        "Gazole": "2026-05-14 09:24:21",
        "E10": "2026-05-15 14:58:25",
        "SP98": "2026-05-15 14:58:25"
      }
    },
    {
      "id": "32400003",
      "lat": 43.668,
      "lon": -0.079,
      "cp": "32400",
      "ville": "Riscle",
      "prix": {
        "Gazole": 0.00225,
        "E10": 0.00199
      },
      "maj_gouv": {
        "Gazole": "2026-05-12 18:35:50",
        "E10": "2026-05-12 18:35:50"
      }
    },
    {
      "id": "32550001",
      "lat": 43.617,
      "lon": 0.575,
      "cp": "32550",
      "ville": "PAVIE",
      "prix": {
        "Gazole": 0.00209
      },
      "maj_gouv": {
        "Gazole": "2026-05-14 03:00:00"
      }
    },
    {
      "id": "32800001",
      "lat": 43.86386,
      "lon": 0.10749,
      "cp": "32800",
      "ville": "Eauze",
      "prix": {
        "Gazole": 0.002098
      },
      "maj_gouv": {
        "Gazole": "2026-05-13 18:00:00"
      }
    },
    {
      "id": "32500001",
      "lat": 43.860269167695996,
      "lon": 0.6592991017000001,
      "cp": "32500",
      "ville": "FLEURANCE",
      "prix": {
        "Gazole": 0.002159,
        "E10": 0.002039,
        "SP98": 0.002159
      },
      "maj_gouv": {
        "Gazole": "2026-05-12 09:32:56",
        "E10": "2026-05-12 09:32:56",
        "SP98": "2026-05-04 15:00:00"
      }
    },
    {
      "id": "32230003",
      "lat": 43.518,
      "lon": 0.172,
      "cp": "32230",
      "ville": "MARCIAC",
      "prix": {
        "Gazole": 0.002189,
        "E10": 0.002089,
        "SP98": 0.002159
      },
      "maj_gouv": {
        "Gazole": "2026-05-07 10:00:00",
        "E10": "2026-05-07 10:00:00",
        "SP98": "2026-05-07 10:00:00"
      }
    },
    {
      "id": "32110001",
      "lat": 43.759,
      "lon": -0.033,
      "cp": "32110",
      "ville": "NOGARO",
      "prix": {
        "E10": 0.00197,
        "SP98": 0.002094
      },
      "maj_gouv": {
        "E10": "2026-05-15 08:32:44",
        "SP98": "2026-05-15 08:32:44"
      }
    },
    {
      "id": "32460001",
      "lat": 43.778,
      "lon": -0.191,
      "cp": "32460",
      "ville": "LE HOUGA",
      "prix": {
        "Gazole": 0.0022299999999999998,
        "E85": 0.00094,
        "E10": 0.0020800000000000003
      },
      "maj_gouv": {
        "Gazole": "2026-05-08 10:50:54",
        "E85": "2026-04-22 15:05:05",
        "E10": "2026-05-12 11:17:18"
      }
    },
    {
      "id": "32190001",
      "lat": 43.755,
      "lon": 0.295,
      "cp": "32190",
      "ville": "VIC-FEZENSAC",
      "prix": {
        "Gazole": 0.002199,
        "SP95": 0.002095,
        "SP98": 0.002169
      },
      "maj_gouv": {
        "Gazole": "2026-04-28 11:19:34",
        "SP95": "2026-04-28 11:19:34",
        "SP98": "2026-04-28 11:19:34"
      }
    },
    {
      "id": "32200006",
      "lat": 43.628,
      "lon": 0.878,
      "cp": "32200",
      "ville": "Gimont",
      "prix": {
        "Gazole": 0.00209,
        "SP95": 0.00199
      },
      "maj_gouv": {
        "Gazole": "2026-05-14 09:18:30",
        "SP95": "2026-05-14 09:18:30"
      }
    },
    {
      "id": "32810003",
      "lat": 43.712,
      "lon": 0.622,
      "cp": "32810",
      "ville": "Preignan",
      "prix": {
        "Gazole": 0.00209,
        "SP95": 0.00199
      },
      "maj_gouv": {
        "Gazole": "2026-05-14 06:16:00",
        "SP95": "2026-03-04 05:43:00"
      }
    },
    {
      "id": "32300001",
      "lat": 43.501,
      "lon": 0.394,
      "cp": "32300",
      "ville": "MIRANDE",
      "prix": {
        "Gazole": 0.002165,
        "E10": 0.002065,
        "SP98": 0.002199
      },
      "maj_gouv": {
        "Gazole": "2026-05-15 11:30:30",
        "E10": "2026-05-15 11:30:30",
        "SP98": "2026-05-15 11:30:31"
      }
    },
    {
      "id": "32000002",
      "lat": 43.655,
      "lon": 0.566,
      "cp": "32000",
      "ville": "AUCH",
      "prix": {
        "Gazole": 0.002213,
        "E85": 0.00088,
        "E10": 0.002137
      },
      "maj_gouv": {
        "Gazole": "2026-05-12 16:30:01",
        "E85": "2026-05-12 16:30:01",
        "E10": "2026-05-12 16:30:01"
      }
    },
    {
      "id": "32000005",
      "lat": 43.637,
      "lon": 0.59,
      "cp": "32000",
      "ville": "AUCH",
      "prix": {
        "Gazole": 0.00225
      },
      "maj_gouv": {
        "Gazole": "2026-04-08 09:13:58"
      }
    },
    {
      "id": "32220001",
      "lat": 43.47068,
      "lon": 0.92231,
      "cp": "32220",
      "ville": "Lombez",
      "prix": {
        "Gazole": 0.002179,
        "SP95": 0.002089,
        "GPLc": 0.001189,
        "E10": 0.002039,
        "SP98": 0.002129
      },
      "maj_gouv": {
        "Gazole": "2026-05-12 08:23:02",
        "SP95": "2026-05-04 09:55:03",
        "GPLc": "2026-04-03 08:30:00",
        "E10": "2026-05-04 09:55:03",
        "SP98": "2026-05-04 09:55:03"
      }
    },
    {
      "id": "32120002",
      "lat": 43.731,
      "lon": 0.881,
      "cp": "32120",
      "ville": "MAUVEZIN",
      "prix": {
        "Gazole": 0.0021190000000000002,
        "E85": 0.000795,
        "E10": 0.002099,
        "SP98": 0.002179
      },
      "maj_gouv": {
        "Gazole": "2026-05-15 16:11:20",
        "E85": "2026-05-15 16:11:20",
        "E10": "2026-05-15 16:11:20",
        "SP98": "2026-05-15 16:11:20"
      }
    },
    {
      "id": "32100002",
      "lat": 43.95976,
      "lon": 0.37835,
      "cp": "32100",
      "ville": "Condom",
      "prix": {
        "Gazole": 0.002099,
        "E10": 0.0019950000000000002,
        "SP98": 0.002148
      },
      "maj_gouv": {
        "Gazole": "2026-05-15 07:21:37",
        "E10": "2026-05-15 07:22:29",
        "SP98": "2026-05-15 07:21:37"
      }
    },
    {
      "id": "84400008",
      "lat": 43.824,
      "lon": -0.155,
      "cp": "32240",
      "ville": "Toujouse",
      "prix": {
        "Gazole": 0.0022299999999999998,
        "E10": 0.0020800000000000003,
        "SP98": 0.0022
      },
      "maj_gouv": {
        "Gazole": "2026-05-08 10:51:40",
        "E10": "2026-05-12 11:17:40",
        "SP98": "2026-04-27 08:27:20"
      }
    },
    {
      "id": "32200001",
      "lat": 43.626,
      "lon": 0.88,
      "cp": "32200",
      "ville": "GIMONT",
      "prix": {
        "Gazole": 0.002229,
        "E85": 0.000959,
        "E10": 0.002079,
        "SP98": 0.002199
      },
      "maj_gouv": {
        "Gazole": "2026-05-06 11:04:07",
        "E85": "2026-05-06 11:04:07",
        "E10": "2026-05-06 11:04:07",
        "SP98": "2026-05-06 11:04:07"
      }
    },
    {
      "id": "32000001",
      "lat": 43.631,
      "lon": 0.582,
      "cp": "32000",
      "ville": "Auch",
      "prix": {
        "Gazole": 0.002099,
        "E10": 0.002055,
        "SP98": 0.0021190000000000002
      },
      "maj_gouv": {
        "Gazole": "2026-05-15 09:17:43",
        "E10": "2026-05-13 08:23:54",
        "SP98": "2026-05-13 08:23:54"
      }
    },
    {
      "id": "32600002",
      "lat": 43.601,
      "lon": 1.069,
      "cp": "32600",
      "ville": "L'ISLE-JOURDAIN",
      "prix": {
        "Gazole": 0.002139,
        "SP95": 0.002109,
        "E85": 0.000929
      },
      "maj_gouv": {
        "Gazole": "2026-05-11 15:37:18",
        "SP95": "2026-05-11 15:37:19",
        "E85": "2026-05-11 15:37:19"
      }
    },
    {
      "id": "32700002",
      "lat": 43.936,
      "lon": 0.643,
      "cp": "32700",
      "ville": "LECTOURE",
      "prix": {
        "Gazole": 0.002145,
        "E85": 0.0008179999999999999,
        "GPLc": 0.00109,
        "E10": 0.002028,
        "SP98": 0.002148
      },
      "maj_gouv": {
        "Gazole": "2026-05-13 08:59:07",
        "E85": "2026-04-17 08:51:42",
        "GPLc": "2026-05-04 16:35:12",
        "E10": "2026-05-13 08:59:07",
        "SP98": "2026-05-13 08:59:07"
      }
    },
    {
      "id": "32310004",
      "lat": 43.869,
      "lon": 0.392,
      "cp": "32310",
      "ville": "Valence-sur-Baïse",
      "prix": {
        "Gazole": 0.002189,
        "E10": 0.002065,
        "SP98": 0.002199
      },
      "maj_gouv": {
        "Gazole": "2026-05-10 16:42:24",
        "E10": "2026-05-10 16:42:24",
        "SP98": "2026-05-10 16:42:24"
      }
    },
    {
      "id": "32400006",
      "lat": 43.657,
      "lon": -0.075,
      "cp": "32400",
      "ville": "RISCLE",
      "prix": {
        "Gazole": 0.002099,
        "SP95": 0.002079,
        "E10": 0.002029
      },
      "maj_gouv": {
        "Gazole": "2026-05-13 13:42:41",
        "SP95": "2026-05-13 13:42:42",
        "E10": "2026-05-13 13:42:42"
      }
    },
    {
      "id": "32500005",
      "lat": 43.853,
      "lon": 0.664,
      "cp": "32500",
      "ville": "Fleurance",
      "prix": {
        "Gazole": 0.00209,
        "SP95": 0.00199
      },
      "maj_gouv": {
        "Gazole": "2026-05-15 07:14:27",
        "SP95": "2026-03-20 11:00:31"
      }
    },
    {
      "id": "32150003",
      "lat": 43.934,
      "lon": -0.064,
      "cp": "32150",
      "ville": "Cazaubon",
      "prix": {
        "Gazole": 0.00225,
        "SP95": 0.00199,
        "GPLc": 0.00111,
        "SP98": 0.00199
      },
      "maj_gouv": {
        "Gazole": "2026-05-11 07:08:34",
        "SP95": "2026-05-09 08:53:53",
        "GPLc": "2026-04-08 09:11:34",
        "SP98": "2026-05-09 08:53:53"
      }
    },
    {
      "id": "32160001",
      "lat": 43.601,
      "lon": 0.042,
      "cp": "32160",
      "ville": "Plaisance",
      "prix": {
        "Gazole": 0.002149,
        "SP95": 0.002079,
        "E10": 0.002029,
        "SP98": 0.002149
      },
      "maj_gouv": {
        "Gazole": "2026-05-13 08:58:47",
        "SP95": "2026-05-13 08:58:47",
        "E10": "2026-05-13 08:58:47",
        "SP98": "2026-05-13 08:58:47"
      }
    },
    {
      "id": "32500002",
      "lat": 43.844,
      "lon": 0.662,
      "cp": "32500",
      "ville": "FLEURANCE",
      "prix": {
        "Gazole": 0.00209,
        "E10": 0.00199,
        "SP98": 0.00199
      },
      "maj_gouv": {
        "Gazole": "2026-05-15 09:52:16",
        "E10": "2026-04-23 08:49:06",
        "SP98": "2026-04-23 08:49:06"
      }
    },
    {
      "id": "32140001",
      "lat": 43.443,
      "lon": 0.578,
      "cp": "32140",
      "ville": "Masseube",
      "prix": {
        "Gazole": 0.002198,
        "E85": 0.0008100000000000001,
        "E10": 0.002058,
        "SP98": 0.002145
      },
      "maj_gouv": {
        "Gazole": "2026-05-05 20:06:22",
        "E85": "2026-05-09 20:54:03",
        "E10": "2026-05-09 20:54:03",
        "SP98": "2026-05-09 20:54:03"
      }
    },
    {
      "id": "32700001",
      "lat": 43.917,
      "lon": 0.628,
      "cp": "32700",
      "ville": "LECTOURE",
      "prix": {
        "Gazole": 0.00225,
        "SP95": 0.00215,
        "GPLc": 0.00115,
        "SP98": 0.00218
      },
      "maj_gouv": {
        "Gazole": "2026-04-15 21:04:11",
        "SP95": "2026-04-15 21:04:11",
        "GPLc": "2026-04-15 21:04:11",
        "SP98": "2026-04-15 21:04:11"
      }
    },
    {
      "id": "32300002",
      "lat": 43.515,
      "lon": 0.399,
      "cp": "32300",
      "ville": "MIRANDE",
      "prix": {
        "Gazole": 0.00221,
        "E10": 0.002065,
        "SP98": 0.002199
      },
      "maj_gouv": {
        "Gazole": "2026-05-06 10:40:24",
        "E10": "2026-05-06 10:40:24",
        "SP98": "2026-05-06 10:40:24"
      }
    },
    {
      "id": "32260002",
      "lat": 43.494,
      "lon": 0.594,
      "cp": "32260",
      "ville": "Seissan",
      "prix": {
        "Gazole": 0.002199,
        "SP95": 0.0021190000000000002,
        "E10": 0.002069
      },
      "maj_gouv": {
        "Gazole": "2026-05-06 07:35:58",
        "SP95": "2026-05-08 06:54:26",
        "E10": "2026-05-08 06:54:26"
      }
    },
    {
      "id": "32250001",
      "lat": 43.950187988262996,
      "lon": 0.20801008897301998,
      "cp": "32250",
      "ville": "MONTREAL du GERS",
      "prix": {
        "Gazole": 0.00217,
        "E10": 0.00206,
        "SP98": 0.00218
      },
      "maj_gouv": {
        "Gazole": "2026-05-15 08:28:40",
        "E10": "2026-05-15 08:28:40",
        "SP98": "2026-05-06 07:05:39"
      }
    },
    {
      "id": "32190005",
      "lat": 43.765126752445994,
      "lon": 0.16785321503403,
      "cp": "32190",
      "ville": "Dému",
      "prix": {
        "Gazole": 0.00209,
        "E10": 0.00199,
        "SP98": 0.00199
      },
      "maj_gouv": {
        "Gazole": "2026-05-15 08:14:47",
        "E10": "2026-05-15 08:14:47",
        "SP98": "2026-05-15 08:14:47"
      }
    },
    {
      "id": "32000004",
      "lat": 43.664,
      "lon": 0.591,
      "cp": "32000",
      "ville": "AUCH",
      "prix": {
        "Gazole": 0.002099,
        "E85": 0.00078,
        "GPLc": 0.0011790000000000001,
        "E10": 0.002055,
        "SP98": 0.0021190000000000002
      },
      "maj_gouv": {
        "Gazole": "2026-05-13 10:35:00",
        "E85": "2026-04-22 18:26:26",
        "GPLc": "2026-04-16 08:55:07",
        "E10": "2026-05-12 09:29:15",
        "SP98": "2026-05-12 09:29:15"
      }
    }
  ]
}