{
  "departement": "39",
  "date": "2026-05-16",
  "stations": [
    {
      "id": "39100006",
      "lat": 47.10875,
      "lon": 5.50677,
      "cp": "39100",
      "ville": "Dole",
      "prix": {
        "Gazole": 0.002094,
        "SP95": 0.002078,
        "E85": 0.000798,
        "GPLc": 0.0010960000000000002,
        "E10": 0.002024
      },
      "maj_gouv": {
        "Gazole": "2026-05-15 06:05:58",
        "SP95": "2026-05-15 06:05:58",
        "E85": "2026-05-15 06:09:13",
        "GPLc": "2026-04-16 06:42:35",
        "E10": "2026-05-15 06:05:58"
      }
    },
    {
      "id": "39260003",
      "lat": 46.439,
      "lon": 5.722,
      "cp": "39260",
      "ville": "MOIRANS EN MONTAGNE",
      "prix": {
        "Gazole": 0.002139,
        "E10": 0.002039,
        "SP98": 0.002149
      },
      "maj_gouv": {
        "Gazole": "2026-05-12 16:49:12",
        "E10": "2026-05-04 17:08:30",
        "SP98": "2026-05-04 17:08:30"
      }
    },
    {
      "id": "39700013",
      "lat": 47.116137241037,
      "lon": 5.5385215038275,
      "cp": "39700",
      "ville": "ROCHEFORT SUR NENON",
      "prix": {},
      "maj_gouv": {}
    },
    {
      "id": "39120002",
      "lat": 46.958,
      "lon": 5.409,
      "cp": "39120",
      "ville": "ASNANS-BEAUVOISIN",
      "prix": {
        "Gazole": 0.002139,
        "E10": 0.002049,
        "SP98": 0.002169
      },
      "maj_gouv": {
        "Gazole": "2026-05-15 09:40:03",
        "E10": "2026-05-15 09:40:03",
        "SP98": "2026-05-15 09:40:03"
      }
    },
    {
      "id": "39100008",
      "lat": 47.089,
      "lon": 5.481,
      "cp": "39100",
      "ville": "Dole",
      "prix": {
        "Gazole": 0.002089,
        "SP95": 0.002079,
        "E85": 0.000859,
        "E10": 0.002029
      },
      "maj_gouv": {
        "Gazole": "2026-05-15 14:08:14",
        "SP95": "2026-05-15 14:08:14",
        "E85": "2026-05-15 14:08:14",
        "E10": "2026-05-15 14:08:14"
      }
    },
    {
      "id": "39570009",
      "lat": 46.672167699999996,
      "lon": 5.5787266,
      "cp": "39570",
      "ville": "perrigny",
      "prix": {
        "Gazole": 0.002159,
        "SP95": 0.002049,
        "E10": 0.002039
      },
      "maj_gouv": {
        "Gazole": "2026-05-15 15:00:11",
        "SP95": "2026-05-15 15:00:11",
        "E10": "2026-05-15 15:00:11"
      }
    },
    {
      "id": "39230004",
      "lat": 46.846,
      "lon": 5.477,
      "cp": "39230",
      "ville": "CHAUMERGY",
      "prix": {
        "Gazole": 0.0022370000000000003,
        "SP95": 0.002181,
        "SP98": 0.0022389999999999997
      },
      "maj_gouv": {
        "Gazole": "2026-05-11 18:28:22",
        "SP95": "2026-05-11 18:28:22",
        "SP98": "2026-05-11 18:28:22"
      }
    },
    {
      "id": "39100011",
      "lat": 47.080169000000005,
      "lon": 5.4622,
      "cp": "39100",
      "ville": "FOUCHERANS",
      "prix": {
        "Gazole": 0.002094,
        "E10": 0.002024
      },
      "maj_gouv": {
        "Gazole": "2026-05-15 09:18:33",
        "E10": "2026-05-15 09:18:33"
      }
    },
    {
      "id": "39210001",
      "lat": 46.757,
      "lon": 5.614,
      "cp": "39210",
      "ville": "VOITEUR",
      "prix": {
        "Gazole": 0.0022890000000000002,
        "E10": 0.002159,
        "SP98": 0.002199
      },
      "maj_gouv": {
        "Gazole": "2026-04-24 00:01:00",
        "E10": "2026-05-15 15:03:55",
        "SP98": "2026-04-03 00:00:00"
      }
    },
    {
      "id": "39700014",
      "lat": 47.151,
      "lon": 5.727,
      "cp": "39700",
      "ville": "Ranchot",
      "prix": {
        "Gazole": 0.00209
      },
      "maj_gouv": {
        "Gazole": "2026-05-14 08:07:43"
      }
    },
    {
      "id": "39210003",
      "lat": 46.763,
      "lon": 5.599,
      "cp": "39210",
      "ville": "DOMBLANS ( 39210 )",
      "prix": {},
      "maj_gouv": {}
    },
    {
      "id": "39460001",
      "lat": 46.658,
      "lon": 6.074,
      "cp": "39460",
      "ville": "FONCINE LE HAUT",
      "prix": {
        "Gazole": 0.002199,
        "E85": 0.000999,
        "E10": 0.002079,
        "SP98": 0.002149
      },
      "maj_gouv": {
        "Gazole": "2026-05-11 15:34:51",
        "E85": "2026-05-11 15:34:51",
        "E10": "2026-05-11 15:34:51",
        "SP98": "2026-05-11 15:34:51"
      }
    },
    {
      "id": "39230001",
      "lat": 46.82826,
      "lon": 5.56786,
      "cp": "39230",
      "ville": "SELLIèRES",
      "prix": {
        "Gazole": 0.0022890000000000002,
        "SP95": 0.002169,
        "SP98": 0.002199
      },
      "maj_gouv": {
        "Gazole": "2026-04-24 08:56:50",
        "SP95": "2026-04-24 08:56:51",
        "SP98": "2026-04-24 08:56:51"
      }
    },
    {
      "id": "39500007",
      "lat": 47.048889,
      "lon": 5.429444,
      "cp": "39500",
      "ville": "DAMPARIS",
      "prix": {
        "Gazole": 0.002362
      },
      "maj_gouv": {
        "Gazole": "2026-05-15 00:00:00"
      }
    },
    {
      "id": "39100005",
      "lat": 47.064,
      "lon": 5.455,
      "cp": "39100",
      "ville": "Choisey",
      "prix": {
        "Gazole": 0.002095,
        "GPLc": 0.0010969999999999999,
        "E10": 0.002025,
        "SP98": 0.002183
      },
      "maj_gouv": {
        "Gazole": "2026-05-15 10:17:06",
        "GPLc": "2026-04-29 10:25:01",
        "E10": "2026-05-15 10:17:06",
        "SP98": "2026-05-15 10:17:06"
      }
    },
    {
      "id": "39402001",
      "lat": 46.52443,
      "lon": 6.02145,
      "cp": "39400",
      "ville": "MOREZ",
      "prix": {
        "Gazole": 0.00229,
        "SP95": 0.00215,
        "SP98": 0.00217
      },
      "maj_gouv": {
        "Gazole": "2026-04-27 07:41:19",
        "SP95": "2026-04-22 07:40:50",
        "SP98": "2026-04-22 07:40:50"
      }
    },
    {
      "id": "39300004",
      "lat": 46.74,
      "lon": 5.916,
      "cp": "39300",
      "ville": "Champagnole",
      "prix": {
        "Gazole": 0.002156,
        "E85": 0.0008179999999999999,
        "E10": 0.002045,
        "SP98": 0.0021669999999999997
      },
      "maj_gouv": {
        "Gazole": "2026-05-15 11:14:41",
        "E85": "2026-04-22 10:04:24",
        "E10": "2026-05-15 11:14:41",
        "SP98": "2026-05-15 11:14:41"
      }
    },
    {
      "id": "39500001",
      "lat": 47.04162,
      "lon": 5.41781,
      "cp": "39500",
      "ville": "TAVAUX",
      "prix": {
        "Gazole": 0.002139,
        "E85": 0.0008179999999999999,
        "E10": 0.002019,
        "SP98": 0.002132
      },
      "maj_gouv": {
        "Gazole": "2026-05-13 06:24:07",
        "E85": "2026-04-23 09:39:39",
        "E10": "2026-05-05 07:48:18",
        "SP98": "2026-05-09 08:23:52"
      }
    },
    {
      "id": "39220002",
      "lat": 46.53,
      "lon": 6.135,
      "cp": "39220",
      "ville": "BOIS-D'AMONT",
      "prix": {
        "Gazole": 0.0022890000000000002,
        "E10": 0.002159,
        "SP98": 0.002199
      },
      "maj_gouv": {
        "Gazole": "2026-04-24 00:01:00",
        "E10": "2026-05-15 14:59:03",
        "SP98": "2026-04-03 00:01:00"
      }
    },
    {
      "id": "39400003",
      "lat": 46.549,
      "lon": 6.016,
      "cp": "39400",
      "ville": "Morbier",
      "prix": {
        "Gazole": 0.0022789999999999998,
        "SP95": 0.002159,
        "SP98": 0.002199
      },
      "maj_gouv": {
        "Gazole": "2026-04-24 00:01:00",
        "SP95": "2026-05-15 15:00:51",
        "SP98": "2026-04-03 00:00:00"
      }
    },
    {
      "id": "39100010",
      "lat": 47.098,
      "lon": 5.5,
      "cp": "39100",
      "ville": "Dole",
      "prix": {
        "Gazole": 0.0022890000000000002,
        "SP95": 0.002199,
        "E85": 0.0008489999999999999
      },
      "maj_gouv": {
        "Gazole": "2026-04-23 00:00:00",
        "SP95": "2026-04-15 00:00:00",
        "E85": "2026-04-15 00:00:00"
      }
    },
    {
      "id": "39000004",
      "lat": 46.67,
      "lon": 5.571,
      "cp": "39000",
      "ville": "LONS-LE-SAUNIER",
      "prix": {
        "Gazole": 0.0022890000000000002,
        "SP95": 0.002159,
        "SP98": 0.002199
      },
      "maj_gouv": {
        "Gazole": "2026-04-24 00:01:00",
        "SP95": "2026-05-15 15:05:09",
        "SP98": "2026-04-03 00:00:00"
      }
    },
    {
      "id": "39130004",
      "lat": 46.5769840204,
      "lon": 5.74694452849,
      "cp": "39130",
      "ville": "CLAIRVAUX-LES-LACS",
      "prix": {
        "Gazole": 0.00209,
        "SP95": 0.00199
      },
      "maj_gouv": {
        "Gazole": "2026-05-15 17:21:08",
        "SP95": "2026-04-16 08:00:00"
      }
    },
    {
      "id": "39200005",
      "lat": 46.38038,
      "lon": 5.83492,
      "cp": "39200",
      "ville": "Saint-Claude",
      "prix": {
        "Gazole": 0.002089,
        "SP95": 0.002085,
        "E10": 0.0020150000000000003
      },
      "maj_gouv": {
        "Gazole": "2026-05-15 08:09:29",
        "SP95": "2026-05-15 08:09:29",
        "E10": "2026-05-15 08:09:29"
      }
    },
    {
      "id": "39300001",
      "lat": 46.749,
      "lon": 5.907,
      "cp": "39300",
      "ville": "CHAMPAGNOLE",
      "prix": {
        "Gazole": 0.002189,
        "GPLc": 0.001099,
        "E10": 0.002049,
        "SP98": 0.002169
      },
      "maj_gouv": {
        "Gazole": "2026-05-11 09:39:36",
        "GPLc": "2026-04-16 11:46:12",
        "E10": "2026-05-11 09:39:36",
        "SP98": "2026-05-11 09:39:36"
      }
    },
    {
      "id": "39400002",
      "lat": 46.501,
      "lon": 6.028,
      "cp": "39220",
      "ville": "La Doye",
      "prix": {
        "Gazole": 0.002125,
        "E85": 0.0008179999999999999,
        "E10": 0.002069,
        "SP98": 0.00216
      },
      "maj_gouv": {
        "Gazole": "2026-05-15 15:35:27",
        "E85": "2026-04-22 14:32:32",
        "E10": "2026-05-15 15:35:27",
        "SP98": "2026-05-15 15:35:27"
      }
    },
    {
      "id": "39140001",
      "lat": 46.746,
      "lon": 5.457,
      "cp": "39140",
      "ville": "BLETTERANS",
      "prix": {
        "Gazole": 0.002211
      },
      "maj_gouv": {
        "Gazole": "2026-05-13 10:48:24"
      }
    },
    {
      "id": "39600002",
      "lat": 46.915,
      "lon": 5.757,
      "cp": "39600",
      "ville": "Arbois",
      "prix": {
        "Gazole": 0.002189,
        "E85": 0.000799,
        "E10": 0.002099,
        "SP98": 0.002169
      },
      "maj_gouv": {
        "Gazole": "2026-05-15 14:26:28",
        "E85": "2026-04-17 17:51:39",
        "E10": "2026-05-15 14:26:28",
        "SP98": "2026-04-27 11:45:14"
      }
    },
    {
      "id": "39300006",
      "lat": 46.746,
      "lon": 5.92,
      "cp": "39300",
      "ville": "Champagnole",
      "prix": {
        "Gazole": 0.002162,
        "SP95": 0.002106,
        "E10": 0.002049
      },
      "maj_gouv": {
        "Gazole": "2026-05-16 01:15:00",
        "SP95": "2026-05-16 01:15:00",
        "E10": "2026-05-16 01:15:00"
      }
    },
    {
      "id": "39220006",
      "lat": 46.486,
      "lon": 6.055,
      "cp": "39220",
      "ville": "LES ROUSSES",
      "prix": {
        "Gazole": 0.002125,
        "E85": 0.000798,
        "E10": 0.002069,
        "SP98": 0.00216
      },
      "maj_gouv": {
        "Gazole": "2026-05-15 15:59:50",
        "E85": "2026-05-15 11:36:13",
        "E10": "2026-05-15 11:36:13",
        "SP98": "2026-05-15 15:59:50"
      }
    },
    {
      "id": "35800003",
      "lat": 46.839,
      "lon": 5.687,
      "cp": "39800",
      "ville": "POLIGNY",
      "prix": {
        "Gazole": 0.002155,
        "E10": 0.002089,
        "SP98": 0.002175
      },
      "maj_gouv": {
        "Gazole": "2026-05-13 09:47:34",
        "E10": "2026-05-15 10:54:55",
        "SP98": "2026-05-15 10:54:55"
      }
    },
    {
      "id": "39100013",
      "lat": 47.097241,
      "lon": 5.50206,
      "cp": "39100",
      "ville": "DOLE",
      "prix": {
        "Gazole": 0.002145,
        "E10": 0.001999,
        "SP98": 0.002112
      },
      "maj_gouv": {
        "Gazole": "2026-05-07 11:02:30",
        "E10": "2026-05-07 11:02:30",
        "SP98": "2026-05-07 11:02:30"
      }
    },
    {
      "id": "39410002",
      "lat": 47.02503,
      "lon": 5.338101999999999,
      "cp": "39410",
      "ville": "SAINT-AUBIN",
      "prix": {
        "Gazole": 0.002179,
        "E10": 0.001999,
        "SP98": 0.0021190000000000002
      },
      "maj_gouv": {
        "Gazole": "2026-05-06 15:05:02",
        "E10": "2026-05-06 15:05:02",
        "SP98": "2026-05-06 15:05:02"
      }
    },
    {
      "id": "39500010",
      "lat": 47.04522,
      "lon": 5.421996999999999,
      "cp": "39500",
      "ville": "TAVAUX",
      "prix": {
        "Gazole": 0.002094,
        "E85": 0.000798,
        "E10": 0.002039,
        "SP98": 0.002173
      },
      "maj_gouv": {
        "Gazole": "2026-05-15 16:22:24",
        "E85": "2026-05-15 16:22:24",
        "E10": "2026-05-15 16:22:24",
        "SP98": "2026-05-15 16:22:24"
      }
    },
    {
      "id": "39700018",
      "lat": 47.152,
      "lon": 5.76,
      "cp": "39700",
      "ville": "FRAISANS",
      "prix": {
        "Gazole": 0.002115,
        "E10": 0.0020299999999999997,
        "SP98": 0.00212
      },
      "maj_gouv": {
        "Gazole": "2026-05-15 09:37:01",
        "E10": "2026-05-05 14:11:11",
        "SP98": "2026-05-05 14:11:11"
      }
    },
    {
      "id": "39800004",
      "lat": 46.847052999999995,
      "lon": 5.698015,
      "cp": "39800",
      "ville": "POLIGNY",
      "prix": {
        "Gazole": 0.002155,
        "E10": 0.002089,
        "SP98": 0.002175
      },
      "maj_gouv": {
        "Gazole": "2026-05-13 09:47:11",
        "E10": "2026-05-15 10:51:09",
        "SP98": "2026-05-15 10:51:09"
      }
    },
    {
      "id": "39150002",
      "lat": 46.58,
      "lon": 5.954,
      "cp": "39150",
      "ville": "Saint-Laurent-en-Grandvaux",
      "prix": {
        "Gazole": 0.0022890000000000002,
        "SP95": 0.002199,
        "E85": 0.00095
      },
      "maj_gouv": {
        "Gazole": "2026-04-30 08:16:14",
        "SP95": "2026-04-30 08:16:14",
        "E85": "2026-04-30 08:16:14"
      }
    },
    {
      "id": "39140006",
      "lat": 46.776,
      "lon": 5.523,
      "cp": "39140",
      "ville": "Arlay",
      "prix": {
        "Gazole": 0.0024289999999999997,
        "GPLc": 0.001149,
        "E10": 0.002359,
        "SP98": 0.0024289999999999997
      },
      "maj_gouv": {
        "Gazole": "2026-05-16 00:01:00",
        "GPLc": "2026-05-16 00:01:00",
        "E10": "2026-05-16 00:01:00",
        "SP98": "2026-05-16 00:01:00"
      }
    },
    {
      "id": "39000007",
      "lat": 46.68,
      "lon": 5.572,
      "cp": "39000",
      "ville": "Lons-le-Saunier",
      "prix": {
        "Gazole": 0.00209,
        "E85": 0.000859,
        "E10": 0.00199,
        "SP98": 0.00199
      },
      "maj_gouv": {
        "Gazole": "2026-05-16 00:01:00",
        "E85": "2026-05-16 00:01:00",
        "E10": "2026-05-16 00:01:00",
        "SP98": "2026-05-16 00:01:00"
      }
    },
    {
      "id": "39100004",
      "lat": 47.086,
      "lon": 5.496,
      "cp": "39100",
      "ville": "Dole",
      "prix": {
        "Gazole": 0.002215,
        "E10": 0.002021,
        "SP98": 0.002125
      },
      "maj_gouv": {
        "Gazole": "2026-05-08 06:31:00",
        "E10": "2026-05-08 06:31:00",
        "SP98": "2026-05-08 06:31:00"
      }
    },
    {
      "id": "39700012",
      "lat": 47.117,
      "lon": 5.539,
      "cp": "39700",
      "ville": "ROCHEFORT SUR NENON",
      "prix": {
        "E85": 0.000823
      },
      "maj_gouv": {
        "E85": "2026-05-16 00:01:00"
      }
    },
    {
      "id": "39230003",
      "lat": 46.826,
      "lon": 5.574,
      "cp": "39230",
      "ville": "Toulouse-le-Château",
      "prix": {
        "Gazole": 0.0022890000000000002,
        "SP95": 0.002169,
        "SP98": 0.002199
      },
      "maj_gouv": {
        "Gazole": "2026-04-23 08:20:36",
        "SP95": "2026-04-15 07:39:33",
        "SP98": "2026-04-15 07:39:33"
      }
    },
    {
      "id": "39220004",
      "lat": 46.47731233759401,
      "lon": 6.0650331274283005,
      "cp": "39220",
      "ville": "LES ROUSSES",
      "prix": {
        "Gazole": 0.002299,
        "SP95": 0.002169,
        "E85": 0.0008990000000000001,
        "GPLc": 0.001099
      },
      "maj_gouv": {
        "Gazole": "2026-04-24 08:02:52",
        "SP95": "2026-05-13 18:54:54",
        "E85": "2026-04-24 08:03:41",
        "GPLc": "2026-04-15 11:47:49"
      }
    },
    {
      "id": "39110003",
      "lat": 46.92428073,
      "lon": 5.88581893,
      "cp": "39110",
      "ville": "SALINS-LES-BAINS",
      "prix": {
        "Gazole": 0.00209,
        "E10": 0.002099,
        "SP98": 0.002199
      },
      "maj_gouv": {
        "Gazole": "2026-05-15 15:14:00",
        "E10": "2026-05-15 15:14:00",
        "SP98": "2026-05-15 15:14:00"
      }
    },
    {
      "id": "39380002",
      "lat": 46.98101,
      "lon": 5.60756,
      "cp": "39380",
      "ville": "MONT-SOUS-VAUDREY",
      "prix": {
        "Gazole": 0.0022890000000000002,
        "SP95": 0.002169,
        "SP98": 0.002199
      },
      "maj_gouv": {
        "Gazole": "2026-04-23 09:12:21",
        "SP95": "2026-04-20 09:13:12",
        "SP98": "2026-04-20 09:13:12"
      }
    },
    {
      "id": "39220005",
      "lat": 46.478735905036004,
      "lon": 6.064013480641201,
      "cp": "39220",
      "ville": "Les Rousses",
      "prix": {
        "Gazole": 0.00229,
        "SP95": 0.002111,
        "SP98": 0.0022040000000000002
      },
      "maj_gouv": {
        "Gazole": "2026-05-08 10:04:21",
        "SP95": "2026-05-06 16:52:34",
        "SP98": "2026-05-06 16:52:34"
      }
    },
    {
      "id": "39600001",
      "lat": 46.911,
      "lon": 5.77,
      "cp": "39600",
      "ville": "Arbois",
      "prix": {
        "Gazole": 0.0022789999999999998,
        "E85": 0.0008990000000000001,
        "E10": 0.002159,
        "SP98": 0.002199
      },
      "maj_gouv": {
        "Gazole": "2026-04-24 00:01:00",
        "E85": "2026-04-24 00:01:00",
        "E10": "2026-05-15 14:57:50",
        "SP98": "2026-04-03 00:00:00"
      }
    },
    {
      "id": "39570004",
      "lat": 46.67,
      "lon": 5.526,
      "cp": "39570",
      "ville": "Montmorot",
      "prix": {
        "Gazole": 0.002169,
        "SP95": 0.002115,
        "E85": 0.000819,
        "GPLc": 0.001099,
        "SP98": 0.002149
      },
      "maj_gouv": {
        "Gazole": "2026-05-12 08:48:54",
        "SP95": "2026-05-05 14:01:46",
        "E85": "2026-05-05 14:01:46",
        "GPLc": "2026-04-17 10:31:16",
        "SP98": "2026-05-05 14:01:46"
      }
    },
    {
      "id": "39500004",
      "lat": 47.047,
      "lon": 5.427,
      "cp": "39500",
      "ville": "Tavaux",
      "prix": {
        "E10": 0.00199,
        "SP98": 0.00199
      },
      "maj_gouv": {
        "E10": "2026-05-15 14:08:45",
        "SP98": "2026-05-15 14:08:45"
      }
    },
    {
      "id": "39130009",
      "lat": 46.662,
      "lon": 5.776,
      "cp": "39130",
      "ville": "Doucier",
      "prix": {
        "Gazole": 0.0020819999999999996,
        "E10": 0.002
      },
      "maj_gouv": {
        "Gazole": "2026-05-15 06:59:59",
        "E10": "2026-05-11 10:57:08"
      }
    },
    {
      "id": "39230002",
      "lat": 46.808,
      "lon": 5.582,
      "cp": "39230",
      "ville": "MANTRY",
      "prix": {
        "Gazole": 0.0022890000000000002,
        "SP95": 0.002169,
        "E85": 0.000999,
        "SP98": 0.002199
      },
      "maj_gouv": {
        "Gazole": "2026-04-22 22:45:00",
        "SP95": "2026-04-14 22:45:00",
        "E85": "2026-04-14 22:45:00",
        "SP98": "2026-04-14 22:45:00"
      }
    },
    {
      "id": "39170001",
      "lat": 46.403,
      "lon": 5.794,
      "cp": "39170",
      "ville": "SAINT-LUPICIN",
      "prix": {
        "Gazole": 0.0022040000000000002,
        "SP95": 0.002092
      },
      "maj_gouv": {
        "Gazole": "2026-05-12 18:15:00",
        "SP95": "2026-05-14 19:15:00"
      }
    },
    {
      "id": "39100012",
      "lat": 47.086,
      "lon": 5.49,
      "cp": "39100",
      "ville": "DOLE",
      "prix": {
        "Gazole": 0.002094,
        "GPLc": 0.0010960000000000002,
        "E10": 0.002024,
        "SP98": 0.002124
      },
      "maj_gouv": {
        "Gazole": "2026-05-15 08:21:48",
        "GPLc": "2026-04-15 10:00:35",
        "E10": "2026-05-15 08:21:48",
        "SP98": "2026-05-07 08:08:37"
      }
    },
    {
      "id": "39130008",
      "lat": 46.575,
      "lon": 5.751,
      "cp": "39130",
      "ville": "Clairvaux-les-Lacs",
      "prix": {
        "Gazole": 0.002249,
        "SP95": 0.002139,
        "SP98": 0.002199
      },
      "maj_gouv": {
        "Gazole": "2026-05-10 09:11:37",
        "SP95": "2026-05-10 09:11:37",
        "SP98": "2026-05-10 09:11:37"
      }
    },
    {
      "id": "39570008",
      "lat": 46.676,
      "lon": 5.524,
      "cp": "39570",
      "ville": "MONTMOROT",
      "prix": {
        "Gazole": 0.002169,
        "E85": 0.0008179999999999999,
        "GPLc": 0.001099,
        "E10": 0.002039,
        "SP98": 0.002149
      },
      "maj_gouv": {
        "Gazole": "2026-05-12 09:41:34",
        "E85": "2026-04-16 09:43:00",
        "GPLc": "2026-05-07 16:49:55",
        "E10": "2026-05-04 17:14:16",
        "SP98": "2026-05-07 16:49:55"
      }
    },
    {
      "id": "39160001",
      "lat": 46.442,
      "lon": 5.343,
      "cp": "39160",
      "ville": "SAINT-AMOUR",
      "prix": {
        "Gazole": 0.002165,
        "E10": 0.002075,
        "SP98": 0.002165
      },
      "maj_gouv": {
        "Gazole": "2026-05-15 10:06:52",
        "E10": "2026-05-12 10:22:30",
        "SP98": "2026-05-15 10:06:52"
      }
    },
    {
      "id": "39170002",
      "lat": 46.381,
      "lon": 5.778,
      "cp": "39170",
      "ville": "Lavans-lès-Saint-Claude",
      "prix": {
        "Gazole": 0.0022789999999999998,
        "SP95": 0.002159,
        "SP98": 0.002199
      },
      "maj_gouv": {
        "Gazole": "2026-04-24 00:01:00",
        "SP95": "2026-05-15 14:59:35",
        "SP98": "2026-04-03 00:02:00"
      }
    },
    {
      "id": "39270001",
      "lat": 46.521,
      "lon": 5.61,
      "cp": "39270",
      "ville": "Orgelet",
      "prix": {
        "Gazole": 0.002269,
        "SP95": 0.002129,
        "E85": 0.0008990000000000001
      },
      "maj_gouv": {
        "Gazole": "2026-05-04 18:54:22",
        "SP95": "2026-05-04 18:54:23",
        "E85": "2026-04-27 19:06:03"
      }
    },
    {
      "id": "39240001",
      "lat": 46.394,
      "lon": 5.57,
      "cp": "39240",
      "ville": "ARINTHOD",
      "prix": {
        "Gazole": 0.002199,
        "E10": 0.002099,
        "SP98": 0.002169
      },
      "maj_gouv": {
        "Gazole": "2026-05-11 11:42:17",
        "E10": "2026-05-04 08:49:45",
        "SP98": "2026-04-27 14:59:41"
      }
    },
    {
      "id": "39380001",
      "lat": 46.982,
      "lon": 5.582,
      "cp": "39380",
      "ville": "BANS",
      "prix": {
        "Gazole": 0.002159,
        "E10": 0.0021190000000000002,
        "SP98": 0.002179
      },
      "maj_gouv": {
        "Gazole": "2026-05-15 12:58:57",
        "E10": "2026-05-15 12:58:57",
        "SP98": "2026-05-15 12:58:57"
      }
    },
    {
      "id": "39500006",
      "lat": 47.07224,
      "lon": 5.41392,
      "cp": "39500",
      "ville": "DAMPARIS",
      "prix": {
        "Gazole": 0.002109,
        "E85": 0.000819,
        "E10": 0.001999,
        "SP98": 0.002149
      },
      "maj_gouv": {
        "Gazole": "2026-05-12 13:16:55",
        "E85": "2026-04-21 11:19:28",
        "E10": "2026-04-27 13:15:53",
        "SP98": "2026-05-12 13:16:55"
      }
    },
    {
      "id": "39200003",
      "lat": 46.379,
      "lon": 5.839,
      "cp": "39200",
      "ville": "Saint-Claude",
      "prix": {
        "Gazole": 0.00209,
        "GPLc": 0.00107,
        "E10": 0.00199,
        "SP98": 0.00199
      },
      "maj_gouv": {
        "Gazole": "2026-05-15 07:16:18",
        "GPLc": "2026-05-15 07:16:18",
        "E10": "2026-05-15 07:16:18",
        "SP98": "2026-05-15 07:16:18"
      }
    },
    {
      "id": "39100003",
      "lat": 47.02,
      "lon": 5.495,
      "cp": "39100",
      "ville": "Parcey",
      "prix": {},
      "maj_gouv": {}
    },
    {
      "id": "39150001",
      "lat": 46.572,
      "lon": 5.956,
      "cp": "39150",
      "ville": "Saint-Laurent-en-Grandvaux",
      "prix": {
        "Gazole": 0.00213,
        "GPLc": 0.001039,
        "E10": 0.002079,
        "SP98": 0.002149
      },
      "maj_gouv": {
        "Gazole": "2026-05-15 09:17:19",
        "GPLc": "2026-04-08 08:18:03",
        "E10": "2026-05-07 08:55:30",
        "SP98": "2026-05-07 08:55:30"
      }
    },
    {
      "id": "39300008",
      "lat": 46.748652,
      "lon": 5.905161,
      "cp": "39300",
      "ville": "CHAMPAGNOLE",
      "prix": {
        "Gazole": 0.002156,
        "E10": 0.002045,
        "SP98": 0.0021669999999999997
      },
      "maj_gouv": {
        "Gazole": "2026-05-15 11:16:51",
        "E10": "2026-05-15 11:17:16",
        "SP98": "2026-05-15 11:17:17"
      }
    },
    {
      "id": "39270002",
      "lat": 46.533,
      "lon": 5.605,
      "cp": "39270",
      "ville": "ORGELET",
      "prix": {
        "Gazole": 0.002159,
        "E85": 0.000829,
        "E10": 0.002099,
        "SP98": 0.002189
      },
      "maj_gouv": {
        "Gazole": "2026-05-14 12:20:10",
        "E85": "2026-05-14 12:20:10",
        "E10": "2026-05-14 12:20:10",
        "SP98": "2026-05-14 12:20:11"
      }
    },
    {
      "id": "39140003",
      "lat": 46.745,
      "lon": 5.45,
      "cp": "39140",
      "ville": "Bletterans",
      "prix": {
        "Gazole": 0.002099,
        "SP95": 0.002139,
        "SP98": 0.002159
      },
      "maj_gouv": {
        "Gazole": "2026-05-12 08:21:12",
        "SP95": "2026-05-14 05:47:35",
        "SP98": "2026-05-14 05:47:35"
      }
    },
    {
      "id": "39000010",
      "lat": 46.674094018411004,
      "lon": 5.5395137771469996,
      "cp": "39000",
      "ville": "LONS LE SAUNIER",
      "prix": {
        "Gazole": 0.002169,
        "GPLc": 0.001099,
        "E10": 0.002039,
        "SP98": 0.002149
      },
      "maj_gouv": {
        "Gazole": "2026-05-13 08:49:13",
        "GPLc": "2026-05-09 09:10:43",
        "E10": "2026-05-09 09:10:43",
        "SP98": "2026-05-09 09:10:43"
      }
    },
    {
      "id": "39130010",
      "lat": 46.577049585039,
      "lon": 5.7537848437034,
      "cp": "39130",
      "ville": "CLAIRVAUX LES LACS",
      "prix": {
        "Gazole": 0.00209,
        "E10": 0.00199,
        "SP98": 0.00199
      },
      "maj_gouv": {
        "Gazole": "2026-05-14 07:26:45",
        "E10": "2026-05-14 07:26:45",
        "SP98": "2026-05-14 07:26:45"
      }
    },
    {
      "id": "39120003",
      "lat": 46.971070999999995,
      "lon": 5.397918000000001,
      "cp": "39120",
      "ville": "chaussin",
      "prix": {
        "Gazole": 0.0022890000000000002,
        "SP95": 0.002169,
        "SP98": 0.002199
      },
      "maj_gouv": {
        "Gazole": "2026-04-22 18:10:00",
        "SP95": "2026-04-14 18:30:00",
        "SP98": "2026-04-14 18:30:00"
      }
    },
    {
      "id": "39200002",
      "lat": 46.38322076,
      "lon": 5.861767489999999,
      "cp": "39200",
      "ville": "SAINT-CLAUDE",
      "prix": {},
      "maj_gouv": {}
    },
    {
      "id": "39700015",
      "lat": 47.146967000000004,
      "lon": 5.579313000000001,
      "cp": "39700",
      "ville": "Audelange",
      "prix": {
        "Gazole": 0.002236,
        "GPLc": 0.00116,
        "E10": 0.002112,
        "SP98": 0.002182
      },
      "maj_gouv": {
        "Gazole": "2026-05-13 06:00:00",
        "GPLc": "2026-05-13 06:00:00",
        "E10": "2026-05-13 06:00:00",
        "SP98": "2026-05-13 06:00:00"
      }
    },
    {
      "id": "39700017",
      "lat": 47.149047,
      "lon": 5.583634,
      "cp": "39700",
      "ville": "Romange",
      "prix": {
        "Gazole": 0.002236,
        "GPLc": 0.00116,
        "E10": 0.002112,
        "SP98": 0.002182
      },
      "maj_gouv": {
        "Gazole": "2026-05-13 06:00:00",
        "GPLc": "2026-05-12 06:00:00",
        "E10": "2026-05-13 06:00:00",
        "SP98": "2026-05-13 06:00:00"
      }
    },
    {
      "id": "39190007",
      "lat": 46.57352,
      "lon": 5.434063,
      "cp": "39190",
      "ville": "beaufort orbagna",
      "prix": {
        "Gazole": 0.00209,
        "E85": 0.000949,
        "E10": 0.00199,
        "SP98": 0.00199
      },
      "maj_gouv": {
        "Gazole": "2026-05-15 13:45:25",
        "E85": "2026-05-15 13:45:25",
        "E10": "2026-05-15 13:45:25",
        "SP98": "2026-05-15 13:45:25"
      }
    },
    {
      "id": "39570010",
      "lat": 46.669,
      "lon": 5.576,
      "cp": "39570",
      "ville": "PERRIGNY",
      "prix": {
        "Gazole": 0.00209,
        "E10": 0.00199,
        "SP98": 0.00199
      },
      "maj_gouv": {
        "Gazole": "2026-05-15 16:55:56",
        "E10": "2026-05-15 16:55:56",
        "SP98": "2026-05-15 16:55:56"
      }
    },
    {
      "id": "39200007",
      "lat": 46.383,
      "lon": 5.862,
      "cp": "39200",
      "ville": "SAINT-CLAUDE",
      "prix": {
        "Gazole": 0.0022890000000000002,
        "SP95": 0.002099,
        "SP98": 0.002199
      },
      "maj_gouv": {
        "Gazole": "2026-04-24 09:00:28",
        "SP95": "2026-04-24 09:00:28",
        "SP98": "2026-04-24 09:00:28"
      }
    },
    {
      "id": "39110007",
      "lat": 46.949,
      "lon": 5.874,
      "cp": "39110",
      "ville": "Salins-les-Bains",
      "prix": {
        "Gazole": 0.00209,
        "E85": 0.000889,
        "E10": 0.00199,
        "SP98": 0.00199
      },
      "maj_gouv": {
        "Gazole": "2026-05-16 00:01:00",
        "E85": "2026-05-16 00:01:00",
        "E10": "2026-05-16 00:01:00",
        "SP98": "2026-05-16 00:01:00"
      }
    }
  ]
}