{
  "departement": "07",
  "date": "2026-05-16",
  "stations": [
    {
      "id": "7290000",
      "lat": 45.160197050871,
      "lon": 4.6328811656225,
      "cp": "07290",
      "ville": "Satillieu",
      "prix": {
        "Gazole": 0.002106,
        "SP95": 0.002076
      },
      "maj_gouv": {
        "Gazole": "2026-05-15 15:42:34",
        "SP95": "2026-05-15 15:42:34"
      }
    },
    {
      "id": "7380002",
      "lat": 44.6498922918,
      "lon": 4.32447950169,
      "cp": "07380",
      "ville": "LALEVADE-D'ARDèCHE",
      "prix": {
        "Gazole": 0.002126,
        "E85": 0.000819,
        "E10": 0.0020499999999999997,
        "SP98": 0.00213
      },
      "maj_gouv": {
        "Gazole": "2026-05-15 08:14:48",
        "E85": "2026-05-13 08:14:15",
        "E10": "2026-05-15 08:14:48",
        "SP98": "2026-05-15 08:14:48"
      }
    },
    {
      "id": "7430002",
      "lat": 45.261,
      "lon": 4.703,
      "cp": "07430",
      "ville": "DAVéZIEUX",
      "prix": {
        "Gazole": 0.0021520000000000003,
        "E85": 0.0007930000000000001,
        "E10": 0.002062,
        "SP98": 0.002141
      },
      "maj_gouv": {
        "Gazole": "2026-05-15 10:24:25",
        "E85": "2026-05-15 10:24:26",
        "E10": "2026-05-15 10:24:26",
        "SP98": "2026-05-12 07:21:08"
      }
    },
    {
      "id": "7100006",
      "lat": 45.235,
      "lon": 4.672,
      "cp": "07100",
      "ville": "ANNONAY",
      "prix": {},
      "maj_gouv": {}
    },
    {
      "id": "7130005",
      "lat": 44.958,
      "lon": 4.847,
      "cp": "07130",
      "ville": "CORNAS",
      "prix": {
        "Gazole": 0.00209,
        "E10": 0.00199,
        "SP98": 0.00199
      },
      "maj_gouv": {
        "Gazole": "2026-05-14 09:13:19",
        "E10": "2026-05-14 09:13:19",
        "SP98": "2026-05-14 09:13:19"
      }
    },
    {
      "id": "7430005",
      "lat": 45.255958944463,
      "lon": 4.68816473454,
      "cp": "07430",
      "ville": "Davézieux",
      "prix": {
        "Gazole": 0.002129,
        "E85": 0.000819,
        "GPLc": 0.001095,
        "E10": 0.002089,
        "SP98": 0.002129
      },
      "maj_gouv": {
        "Gazole": "2026-05-15 17:07:25",
        "E85": "2026-05-06 14:57:01",
        "GPLc": "2026-05-15 17:09:43",
        "E10": "2026-05-15 17:07:25",
        "SP98": "2026-05-15 17:07:25"
      }
    },
    {
      "id": "7200008",
      "lat": 44.6320217749,
      "lon": 4.37986312289,
      "cp": "07200",
      "ville": "AUBENAS",
      "prix": {
        "Gazole": 0.00209,
        "E85": 0.000839,
        "E10": 0.00199
      },
      "maj_gouv": {
        "Gazole": "2026-05-16 00:01:00",
        "E85": "2026-05-16 00:01:00",
        "E10": "2026-05-16 00:01:00"
      }
    },
    {
      "id": "7230001",
      "lat": 44.459,
      "lon": 4.215,
      "cp": "07230",
      "ville": "Lablachère",
      "prix": {
        "Gazole": 0.002129,
        "E85": 0.0008179999999999999,
        "E10": 0.002079
      },
      "maj_gouv": {
        "Gazole": "2026-05-14 03:00:00",
        "E85": "2026-04-17 07:39:37",
        "E10": "2026-05-14 03:00:00"
      }
    },
    {
      "id": "7250001",
      "lat": 44.747,
      "lon": 4.745,
      "cp": "07250",
      "ville": "Le Pouzin",
      "prix": {
        "Gazole": 0.002186,
        "SP95": 0.00199
      },
      "maj_gouv": {
        "Gazole": "2026-05-13 16:17:42",
        "SP95": "2026-05-13 16:17:43"
      }
    },
    {
      "id": "7200014",
      "lat": 44.5502236,
      "lon": 4.4159574659091,
      "cp": "07200",
      "ville": "Vogüé",
      "prix": {
        "Gazole": 0.002162,
        "SP95": 0.002159,
        "SP98": 0.002178
      },
      "maj_gouv": {
        "Gazole": "2026-05-12 08:28:23",
        "SP95": "2026-05-12 08:28:23",
        "SP98": "2026-05-12 08:28:23"
      }
    },
    {
      "id": "7100007",
      "lat": 45.257,
      "lon": 4.673,
      "cp": "07100",
      "ville": "Annonay",
      "prix": {
        "Gazole": 0.002129,
        "SP95": 0.002089,
        "SP98": 0.002129
      },
      "maj_gouv": {
        "Gazole": "2026-05-14 12:04:30",
        "SP95": "2026-05-14 12:04:30",
        "SP98": "2026-05-14 12:04:30"
      }
    },
    {
      "id": "7140002",
      "lat": 44.406,
      "lon": 4.13,
      "cp": "07140",
      "ville": "chambonas",
      "prix": {
        "Gazole": 0.002109,
        "SP95": 0.0021190000000000002,
        "E85": 0.000819,
        "SP98": 0.002169
      },
      "maj_gouv": {
        "Gazole": "2026-05-13 18:04:36",
        "SP95": "2026-05-13 18:04:36",
        "E85": "2026-05-06 16:31:43",
        "SP98": "2026-05-13 18:04:36"
      }
    },
    {
      "id": "7190001",
      "lat": 44.822,
      "lon": 4.584,
      "cp": "07190",
      "ville": "Saint-Sauveur-de-Montagut",
      "prix": {
        "Gazole": 0.00225,
        "SP95": 0.0020299999999999997,
        "SP98": 0.00212
      },
      "maj_gouv": {
        "Gazole": "2026-04-10 13:10:20",
        "SP95": "2026-05-09 11:43:30",
        "SP98": "2026-04-02 14:51:44"
      }
    },
    {
      "id": "7270001",
      "lat": 44.982,
      "lon": 4.569,
      "cp": "07270",
      "ville": "LAMASTRE",
      "prix": {
        "Gazole": 0.00225,
        "SP95": 0.00211,
        "E10": 0.002129
      },
      "maj_gouv": {
        "Gazole": "2026-05-08 08:28:43",
        "SP95": "2026-05-08 08:28:44",
        "E10": "2026-05-13 12:05:55"
      }
    },
    {
      "id": "7170002",
      "lat": 44.57059,
      "lon": 4.4591,
      "cp": "07170",
      "ville": "Lavilledieu",
      "prix": {
        "Gazole": 0.0021190000000000002,
        "SP95": 0.002109,
        "E85": 0.000889,
        "GPLc": 0.001029,
        "E10": 0.002069,
        "SP98": 0.002149
      },
      "maj_gouv": {
        "Gazole": "2026-05-15 17:27:58",
        "SP95": "2026-05-15 17:44:36",
        "E85": "2026-05-15 17:44:36",
        "GPLc": "2026-04-07 14:33:12",
        "E10": "2026-05-15 17:44:36",
        "SP98": "2026-05-15 17:44:36"
      }
    },
    {
      "id": "7210001",
      "lat": 44.715,
      "lon": 4.615,
      "cp": "07210",
      "ville": "ALISSAS",
      "prix": {
        "Gazole": 0.002129,
        "SP95": 0.0021190000000000002,
        "E85": 0.000789,
        "E10": 0.002079,
        "SP98": 0.002159
      },
      "maj_gouv": {
        "Gazole": "2026-05-11 09:21:25",
        "SP95": "2026-05-15 08:11:16",
        "E85": "2026-05-02 09:34:07",
        "E10": "2026-05-15 08:11:16",
        "SP98": "2026-05-15 08:11:16"
      }
    },
    {
      "id": "7300008",
      "lat": 45.072586854366,
      "lon": 4.8210354374187,
      "cp": "07300",
      "ville": "TOURNON",
      "prix": {
        "Gazole": 0.002209,
        "SP95": 0.002109,
        "E10": 0.002079
      },
      "maj_gouv": {
        "Gazole": "2026-05-15 23:54:00",
        "SP95": "2026-05-15 23:54:00",
        "E10": "2026-05-15 23:54:00"
      }
    },
    {
      "id": "7320004",
      "lat": 45.012764000000004,
      "lon": 4.387518,
      "cp": "07320",
      "ville": "Saint-Agrève",
      "prix": {
        "Gazole": 0.002219,
        "SP95": 0.0021190000000000002,
        "SP98": 0.002189
      },
      "maj_gouv": {
        "Gazole": "2026-05-06 09:22:08",
        "SP95": "2026-05-06 09:22:24",
        "SP98": "2026-04-28 16:22:22"
      }
    },
    {
      "id": "7120005",
      "lat": 44.472,
      "lon": 4.356,
      "cp": "07120",
      "ville": "Pradons",
      "prix": {
        "Gazole": 0.0021469999999999996,
        "E10": 0.00199,
        "SP98": 0.00199
      },
      "maj_gouv": {
        "Gazole": "2026-05-07 07:44:47",
        "E10": "2026-05-07 07:44:47",
        "SP98": "2026-05-07 07:44:47"
      }
    },
    {
      "id": "7160003",
      "lat": 44.914,
      "lon": 4.442,
      "cp": "07160",
      "ville": "Le Cheylard",
      "prix": {
        "Gazole": 0.002249,
        "SP95": 0.002169,
        "SP98": 0.002199
      },
      "maj_gouv": {
        "Gazole": "2026-05-09 08:00:00",
        "SP95": "2026-05-13 12:00:00",
        "SP98": "2026-05-13 12:00:00"
      }
    },
    {
      "id": "7000003",
      "lat": 44.729,
      "lon": 4.569,
      "cp": "07000",
      "ville": "VEYRAS",
      "prix": {
        "Gazole": 0.002199,
        "E10": 0.002099,
        "SP98": 0.002149
      },
      "maj_gouv": {
        "Gazole": "2026-05-12 05:43:58",
        "E10": "2026-05-12 05:43:58",
        "SP98": "2026-05-12 05:43:58"
      }
    },
    {
      "id": "7400005",
      "lat": 44.535469322758,
      "lon": 4.6877142394562,
      "cp": "07400",
      "ville": "LE TEIL",
      "prix": {
        "Gazole": 0.0021190000000000002,
        "E85": 0.0008179999999999999,
        "E10": 0.002019
      },
      "maj_gouv": {
        "Gazole": "2026-05-15 09:21:06",
        "E85": "2026-05-11 08:23:34",
        "E10": "2026-05-15 09:21:06"
      }
    },
    {
      "id": "7200006",
      "lat": 44.599599809299995,
      "lon": 4.38424813182,
      "cp": "07200",
      "ville": "SAINT-ÉTIENNE-DE-FONTBELLON",
      "prix": {
        "Gazole": 0.002089,
        "SP95": 0.002078,
        "GPLc": 0.001064,
        "E10": 0.002048,
        "SP98": 0.002112
      },
      "maj_gouv": {
        "Gazole": "2026-05-15 13:01:29",
        "SP95": "2026-05-15 09:00:16",
        "GPLc": "2026-05-13 12:24:07",
        "E10": "2026-05-15 09:00:16",
        "SP98": "2026-05-13 12:24:07"
      }
    },
    {
      "id": "7400002",
      "lat": 44.559,
      "lon": 4.69,
      "cp": "07400",
      "ville": "Le Teil",
      "prix": {
        "Gazole": 0.002129,
        "E85": 0.000798,
        "E10": 0.002039,
        "SP98": 0.002179
      },
      "maj_gouv": {
        "Gazole": "2026-05-15 00:14:00",
        "E85": "2026-05-15 08:00:35",
        "E10": "2026-05-15 00:14:00",
        "SP98": "2026-05-15 00:14:00"
      }
    },
    {
      "id": "7380001",
      "lat": 44.644662804300005,
      "lon": 4.32898392299,
      "cp": "07380",
      "ville": "Lalevade-d'ardèche",
      "prix": {},
      "maj_gouv": {}
    },
    {
      "id": "7100008",
      "lat": 45.241,
      "lon": 4.69,
      "cp": "07100",
      "ville": "ANNONAY",
      "prix": {
        "Gazole": 0.002218,
        "SP95": 0.002128,
        "E85": 0.00091
      },
      "maj_gouv": {
        "Gazole": "2026-05-13 08:55:12",
        "SP95": "2026-05-13 08:55:12",
        "E85": "2026-05-13 08:55:12"
      }
    },
    {
      "id": "7150003",
      "lat": 44.407,
      "lon": 4.394,
      "cp": "07150",
      "ville": "VALLON-PONT-D'ARC",
      "prix": {
        "Gazole": 0.002229,
        "SP95": 0.002137,
        "E10": 0.002079,
        "SP98": 0.002196
      },
      "maj_gouv": {
        "Gazole": "2026-05-07 10:44:41",
        "SP95": "2026-05-07 10:44:41",
        "E10": "2026-05-07 10:44:41",
        "SP98": "2026-05-07 10:44:41"
      }
    },
    {
      "id": "7470001",
      "lat": 44.801,
      "lon": 3.972,
      "cp": "07470",
      "ville": "Coucouron",
      "prix": {
        "Gazole": 0.002199,
        "SP95": 0.002069,
        "E85": 0.000859,
        "E10": 0.002019
      },
      "maj_gouv": {
        "Gazole": "2026-05-15 06:28:30",
        "SP95": "2026-04-23 07:12:10",
        "E85": "2026-04-23 07:12:10",
        "E10": "2026-04-23 07:12:10"
      }
    },
    {
      "id": "7500002",
      "lat": 44.919774904095995,
      "lon": 4.8614537844062005,
      "cp": "07130",
      "ville": "Soyons",
      "prix": {
        "Gazole": 0.002089,
        "E85": 0.000798,
        "E10": 0.002056,
        "SP98": 0.002118
      },
      "maj_gouv": {
        "Gazole": "2026-05-12 18:50:59",
        "E85": "2026-05-15 17:44:00",
        "E10": "2026-05-15 17:44:00",
        "SP98": "2026-05-15 17:44:00"
      }
    },
    {
      "id": "7200011",
      "lat": 44.648,
      "lon": 4.44,
      "cp": "07200",
      "ville": "Vesseaux",
      "prix": {
        "Gazole": 0.002226,
        "SP95": 0.002178
      },
      "maj_gouv": {
        "Gazole": "2026-05-12 14:10:00",
        "SP95": "2026-05-12 14:10:00"
      }
    },
    {
      "id": "7250004",
      "lat": 44.75628,
      "lon": 4.75673,
      "cp": "07250",
      "ville": "LE POUZIN",
      "prix": {
        "Gazole": 0.002269,
        "SP95": 0.002089,
        "GPLc": 0.001095,
        "SP98": 0.002149
      },
      "maj_gouv": {
        "Gazole": "2026-05-13 08:42:34",
        "SP95": "2026-05-07 23:59:00",
        "GPLc": "2026-05-07 23:59:00",
        "SP98": "2026-05-07 23:59:00"
      }
    },
    {
      "id": "7800001",
      "lat": 44.863,
      "lon": 4.836,
      "cp": "07800",
      "ville": "CHARMES-SUR-RHôNE",
      "prix": {
        "Gazole": 0.00209,
        "E10": 0.00199,
        "SP98": 0.00199
      },
      "maj_gouv": {
        "Gazole": "2026-05-14 11:28:55",
        "E10": "2026-05-14 11:28:55",
        "SP98": "2026-05-14 11:28:56"
      }
    },
    {
      "id": "7800008",
      "lat": 44.857,
      "lon": 4.83,
      "cp": "07800",
      "ville": "Saint-Georges-les-Bains",
      "prix": {
        "Gazole": 0.002149,
        "E10": 0.002089,
        "SP98": 0.002179
      },
      "maj_gouv": {
        "Gazole": "2026-05-08 08:25:14",
        "E10": "2026-04-28 09:38:06",
        "SP98": "2026-04-28 09:38:06"
      }
    },
    {
      "id": "7300005",
      "lat": 45.055,
      "lon": 4.832,
      "cp": "07300",
      "ville": "Tournon-sur-Rhône",
      "prix": {
        "Gazole": 0.002085,
        "SP95": 0.002042,
        "E10": 0.0020350000000000004
      },
      "maj_gouv": {
        "Gazole": "2026-05-16 01:16:00",
        "SP95": "2026-05-16 01:16:00",
        "E10": "2026-05-16 01:16:00"
      }
    },
    {
      "id": "7170003",
      "lat": 44.572,
      "lon": 4.512,
      "cp": "07170",
      "ville": "VILLENEUVE DE BERG",
      "prix": {
        "Gazole": 0.0021190000000000002,
        "E85": 0.000819,
        "E10": 0.002069,
        "SP98": 0.002189
      },
      "maj_gouv": {
        "Gazole": "2026-05-15 14:20:40",
        "E85": "2026-05-05 10:43:13",
        "E10": "2026-05-15 14:20:40",
        "SP98": "2026-05-15 14:20:40"
      }
    },
    {
      "id": "7580002",
      "lat": 44.584,
      "lon": 4.532,
      "cp": "07580",
      "ville": "Saint-Jean-le-Centenier",
      "prix": {
        "Gazole": 0.002269,
        "E10": 0.002169,
        "SP98": 0.0022389999999999997
      },
      "maj_gouv": {
        "Gazole": "2026-04-28 11:51:57",
        "E10": "2026-05-04 09:53:01",
        "SP98": "2026-04-08 08:24:59"
      }
    },
    {
      "id": "7170001",
      "lat": 44.57063,
      "lon": 4.51054,
      "cp": "07170",
      "ville": "VILLENEUVE-DE-BERG",
      "prix": {},
      "maj_gouv": {}
    },
    {
      "id": "7140001",
      "lat": 44.406,
      "lon": 4.137,
      "cp": "07140",
      "ville": "LES VANS",
      "prix": {
        "Gazole": 0.002189,
        "SP95": 0.002129,
        "SP98": 0.002149
      },
      "maj_gouv": {
        "Gazole": "2026-05-07 08:00:00",
        "SP95": "2026-05-07 08:00:00",
        "SP98": "2026-05-07 08:00:00"
      }
    },
    {
      "id": "7150001",
      "lat": 44.397,
      "lon": 4.382,
      "cp": "07150",
      "ville": "Salavas",
      "prix": {
        "Gazole": 0.00209
      },
      "maj_gouv": {
        "Gazole": "2026-05-14 09:21:52"
      }
    },
    {
      "id": "7160001",
      "lat": 44.912,
      "lon": 4.441,
      "cp": "07160",
      "ville": "Le Cheylard",
      "prix": {
        "Gazole": 0.002249,
        "SP95": 0.002169,
        "E85": 0.000789,
        "E10": 0.002129,
        "SP98": 0.002199
      },
      "maj_gouv": {
        "Gazole": "2026-05-09 07:55:19",
        "SP95": "2026-05-13 11:03:53",
        "E85": "2026-05-12 08:29:43",
        "E10": "2026-05-13 11:03:53",
        "SP98": "2026-05-13 11:03:53"
      }
    },
    {
      "id": "7240002",
      "lat": 44.89773,
      "lon": 4.64767,
      "cp": "07240",
      "ville": "Vernoux-en-Vivarais",
      "prix": {
        "Gazole": 0.00216,
        "SP95": 0.00211
      },
      "maj_gouv": {
        "Gazole": "2026-05-13 11:44:16",
        "SP95": "2026-05-13 11:44:16"
      }
    },
    {
      "id": "7260001",
      "lat": 44.479,
      "lon": 4.248,
      "cp": "07260",
      "ville": "JOYEUSE",
      "prix": {
        "Gazole": 0.002179,
        "SP95": 0.002159,
        "SP98": 0.0022389999999999997
      },
      "maj_gouv": {
        "Gazole": "2026-05-12 10:24:47",
        "SP95": "2026-05-12 10:24:47",
        "SP98": "2026-04-28 09:02:08"
      }
    },
    {
      "id": "7200010",
      "lat": 44.605,
      "lon": 4.387,
      "cp": "07200",
      "ville": "Aubenas",
      "prix": {
        "Gazole": 0.002126,
        "SP95": 0.002099,
        "E85": 0.00087,
        "SP98": 0.002195
      },
      "maj_gouv": {
        "Gazole": "2026-05-15 08:43:26",
        "SP95": "2026-05-15 08:43:26",
        "E85": "2026-04-10 08:29:59",
        "SP98": "2026-04-10 08:29:59"
      }
    },
    {
      "id": "7300001",
      "lat": 45.055,
      "lon": 4.839,
      "cp": "07300",
      "ville": "TOURNON-SUR-RHôNE",
      "prix": {
        "Gazole": 0.002185,
        "SP95": 0.002091,
        "E85": 0.000861,
        "E10": 0.002043,
        "SP98": 0.002183
      },
      "maj_gouv": {
        "Gazole": "2026-05-05 17:00:31",
        "SP95": "2026-05-05 17:00:31",
        "E85": "2026-05-05 17:00:32",
        "E10": "2026-05-05 17:00:32",
        "SP98": "2026-05-05 17:00:32"
      }
    },
    {
      "id": "7410002",
      "lat": 45.089944819115,
      "lon": 4.6296841601189,
      "cp": "07410",
      "ville": "Saint-Félicien",
      "prix": {
        "Gazole": 0.0020859999999999997,
        "SP95": 0.002099,
        "SP98": 0.002121
      },
      "maj_gouv": {
        "Gazole": "2026-05-12 16:04:08",
        "SP95": "2026-05-12 16:04:08",
        "SP98": "2026-05-12 16:04:08"
      }
    },
    {
      "id": "7330001",
      "lat": 44.66704,
      "lon": 4.16313,
      "cp": "07330",
      "ville": "Barnas",
      "prix": {
        "Gazole": 0.00209,
        "E10": 0.00199,
        "SP98": 0.00199
      },
      "maj_gouv": {
        "Gazole": "2026-05-14 06:04:41",
        "E10": "2026-05-14 06:04:41",
        "SP98": "2026-05-14 06:04:41"
      }
    },
    {
      "id": "7200003",
      "lat": 44.614,
      "lon": 4.406,
      "cp": "07200",
      "ville": "AUBENAS",
      "prix": {
        "Gazole": 0.002229,
        "GPLc": 0.001095,
        "E10": 0.002079,
        "SP98": 0.002149
      },
      "maj_gouv": {
        "Gazole": "2026-05-12 20:30:00",
        "GPLc": "2026-05-11 20:30:00",
        "E10": "2026-05-15 20:31:00",
        "SP98": "2026-05-11 20:30:00"
      }
    },
    {
      "id": "7100002",
      "lat": 45.244,
      "lon": 4.668,
      "cp": "07100",
      "ville": "ANNONAY",
      "prix": {
        "Gazole": 0.002129,
        "E85": 0.000754,
        "E10": 0.002039,
        "SP98": 0.00219
      },
      "maj_gouv": {
        "Gazole": "2026-05-14 14:37:36",
        "E85": "2026-04-13 08:12:52",
        "E10": "2026-05-06 20:19:47",
        "SP98": "2026-05-14 14:37:36"
      }
    },
    {
      "id": "7400003",
      "lat": 44.6,
      "lon": 4.717,
      "cp": "07400",
      "ville": "ROCHEMAURE",
      "prix": {
        "Gazole": 0.00209,
        "E10": 0.00199,
        "SP98": 0.00199
      },
      "maj_gouv": {
        "Gazole": "2026-05-14 18:09:01",
        "E10": "2026-05-14 18:09:01",
        "SP98": "2026-05-14 18:09:01"
      }
    },
    {
      "id": "7000002",
      "lat": 44.727,
      "lon": 4.597,
      "cp": "07000",
      "ville": "PRIVAS",
      "prix": {
        "Gazole": 0.002154,
        "E85": 0.0008179999999999999,
        "E10": 0.002089,
        "SP98": 0.002189
      },
      "maj_gouv": {
        "Gazole": "2026-05-15 13:02:18",
        "E85": "2026-05-15 13:02:18",
        "E10": "2026-05-15 13:02:19",
        "SP98": "2026-05-15 13:02:19"
      }
    },
    {
      "id": "7110004",
      "lat": 44.538,
      "lon": 4.293,
      "cp": "07110",
      "ville": "Largentière",
      "prix": {
        "Gazole": 0.002099,
        "E10": 0.002069,
        "SP98": 0.002129
      },
      "maj_gouv": {
        "Gazole": "2026-05-13 05:00:00",
        "E10": "2026-05-12 05:00:00",
        "SP98": "2026-05-12 05:00:00"
      }
    },
    {
      "id": "7340002",
      "lat": 45.257,
      "lon": 4.696,
      "cp": "07430",
      "ville": "Davézieux",
      "prix": {
        "Gazole": 0.002129,
        "E85": 0.000754,
        "E10": 0.002039
      },
      "maj_gouv": {
        "Gazole": "2026-05-11 16:25:41",
        "E85": "2026-04-29 12:10:02",
        "E10": "2026-04-29 12:10:03"
      }
    },
    {
      "id": "7200007",
      "lat": 44.615471044958,
      "lon": 4.407391560974101,
      "cp": "07200",
      "ville": "Aubenas",
      "prix": {
        "Gazole": 0.002126,
        "E10": 0.002069,
        "SP98": 0.002149
      },
      "maj_gouv": {
        "Gazole": "2026-05-15 11:16:14",
        "E10": "2026-05-15 11:16:15",
        "SP98": "2026-05-15 11:16:15"
      }
    },
    {
      "id": "7220003",
      "lat": 44.475896399999996,
      "lon": 4.692095800000001,
      "cp": "07220",
      "ville": "Viviers",
      "prix": {
        "Gazole": 0.002099,
        "E85": 0.000869,
        "E10": 0.002039,
        "SP98": 0.002129
      },
      "maj_gouv": {
        "Gazole": "2026-05-13 19:56:56",
        "E85": "2026-05-13 19:56:56",
        "E10": "2026-05-13 19:56:57",
        "SP98": "2026-05-13 19:56:57"
      }
    },
    {
      "id": "7200015",
      "lat": 44.611234449354995,
      "lon": 4.4095038306401,
      "cp": "07200",
      "ville": "Saint-Didier-sous-Aubenas",
      "prix": {
        "Gazole": 0.002126,
        "E85": 0.000819,
        "E10": 0.002098
      },
      "maj_gouv": {
        "Gazole": "2026-05-15 08:24:12",
        "E85": "2026-04-21 08:50:53",
        "E10": "2026-05-15 08:24:12"
      }
    },
    {
      "id": "7800003",
      "lat": 44.807,
      "lon": 4.792,
      "cp": "07800",
      "ville": "LA VOULTE-SUR-RHôNE",
      "prix": {
        "Gazole": 0.002079,
        "E10": 0.002029,
        "SP98": 0.002139
      },
      "maj_gouv": {
        "Gazole": "2026-05-13 14:39:43",
        "E10": "2026-05-13 14:39:43",
        "SP98": "2026-05-13 14:39:43"
      }
    },
    {
      "id": "7260002",
      "lat": 44.483,
      "lon": 4.267,
      "cp": "07260",
      "ville": "ROSIèRES",
      "prix": {
        "Gazole": 0.002129,
        "E85": 0.0008179999999999999,
        "GPLc": 0.001065,
        "E10": 0.002079,
        "SP98": 0.002199
      },
      "maj_gouv": {
        "Gazole": "2026-05-14 03:00:00",
        "E85": "2026-04-16 07:16:25",
        "GPLc": "2026-04-10 03:00:00",
        "E10": "2026-05-14 03:00:00",
        "SP98": "2026-05-14 03:00:00"
      }
    },
    {
      "id": "7340001",
      "lat": 45.309,
      "lon": 4.742,
      "cp": "07340",
      "ville": "FéLINES",
      "prix": {
        "Gazole": 0.00209,
        "E10": 0.00199,
        "SP98": 0.00199
      },
      "maj_gouv": {
        "Gazole": "2026-05-15 09:39:00",
        "E10": "2026-05-15 09:39:00",
        "SP98": "2026-05-15 09:39:00"
      }
    },
    {
      "id": "7120004",
      "lat": 44.41,
      "lon": 4.294,
      "cp": "07120",
      "ville": "Grospierres",
      "prix": {
        "Gazole": 0.00209,
        "SP95": 0.00199
      },
      "maj_gouv": {
        "Gazole": "2026-05-14 05:14:45",
        "SP95": "2026-05-14 05:14:45"
      }
    },
    {
      "id": "7800007",
      "lat": 44.81,
      "lon": 4.787,
      "cp": "07800",
      "ville": "LA VOULTE SUR RHONE",
      "prix": {
        "Gazole": 0.0021190000000000002,
        "E10": 0.002029,
        "SP98": 0.002149
      },
      "maj_gouv": {
        "Gazole": "2026-05-15 11:33:27",
        "E10": "2026-05-13 09:54:43",
        "SP98": "2026-05-13 09:54:43"
      }
    },
    {
      "id": "7190002",
      "lat": 44.819,
      "lon": 4.593,
      "cp": "07190",
      "ville": "ST SAUVEUR DE MONTAGUT",
      "prix": {
        "Gazole": 0.00225,
        "SP95": 0.00199
      },
      "maj_gouv": {
        "Gazole": "2026-04-20 08:46:18",
        "SP95": "2026-04-20 08:46:19"
      }
    },
    {
      "id": "7200016",
      "lat": 44.63203904349,
      "lon": 4.4218574056,
      "cp": "07200",
      "ville": "ST. PRIVAT",
      "prix": {
        "Gazole": 0.002199
      },
      "maj_gouv": {
        "Gazole": "2026-05-13 11:04:38"
      }
    },
    {
      "id": "7300003",
      "lat": 45.076,
      "lon": 4.814,
      "cp": "07300",
      "ville": "SAINT-JEAN-DE-MUZOLS",
      "prix": {
        "Gazole": 0.002099,
        "E85": 0.0008179999999999999,
        "E10": 0.0019850000000000002,
        "SP98": 0.0021349999999999997
      },
      "maj_gouv": {
        "Gazole": "2026-05-15 08:45:52",
        "E85": "2026-05-05 09:06:02",
        "E10": "2026-05-11 08:24:16",
        "SP98": "2026-05-15 08:45:52"
      }
    },
    {
      "id": "7700004",
      "lat": 44.382035163061005,
      "lon": 4.6416007385629,
      "cp": "07700",
      "ville": "Bourg-Saint-Andéol",
      "prix": {
        "Gazole": 0.002099,
        "E85": 0.000798,
        "E10": 0.002025,
        "SP98": 0.002137
      },
      "maj_gouv": {
        "Gazole": "2026-05-15 14:58:06",
        "E85": "2026-05-15 14:58:06",
        "E10": "2026-05-15 14:58:06",
        "SP98": "2026-05-15 14:58:06"
      }
    },
    {
      "id": "7400006",
      "lat": 44.61,
      "lon": 4.725,
      "cp": "07400",
      "ville": "MEYSSE",
      "prix": {
        "Gazole": 0.002129,
        "E85": 0.000819,
        "E10": 0.002039,
        "SP98": 0.002179
      },
      "maj_gouv": {
        "Gazole": "2026-05-15 07:11:02",
        "E85": "2026-04-20 12:01:13",
        "E10": "2026-05-15 07:11:02",
        "SP98": "2026-05-15 07:11:02"
      }
    },
    {
      "id": "7300006",
      "lat": 45.057,
      "lon": 4.84,
      "cp": "07300",
      "ville": "Tournon-sur-Rhône",
      "prix": {
        "Gazole": 0.00209,
        "E10": 0.00199
      },
      "maj_gouv": {
        "Gazole": "2026-05-16 00:01:00",
        "E10": "2026-05-16 00:01:00"
      }
    },
    {
      "id": "7110006",
      "lat": 44.537373090372995,
      "lon": 4.3467285781021,
      "cp": "07110",
      "ville": "Vinezac",
      "prix": {
        "Gazole": 0.002149,
        "E10": 0.002079,
        "SP98": 0.002199
      },
      "maj_gouv": {
        "Gazole": "2026-05-12 08:20:58",
        "E10": "2026-05-15 13:39:37",
        "SP98": "2026-05-15 13:39:37"
      }
    },
    {
      "id": "7120001",
      "lat": 44.4434055985,
      "lon": 4.348132517390001,
      "cp": "07120",
      "ville": "RUOMS",
      "prix": {
        "Gazole": 0.002075,
        "SP95": 0.0021019999999999997,
        "E85": 0.000773,
        "E10": 0.002062,
        "SP98": 0.002139
      },
      "maj_gouv": {
        "Gazole": "2026-05-14 07:59:12",
        "SP95": "2026-05-15 08:11:24",
        "E85": "2026-04-25 08:10:57",
        "E10": "2026-05-15 08:11:24",
        "SP98": "2026-05-15 08:11:25"
      }
    },
    {
      "id": "7130006",
      "lat": 44.943,
      "lon": 4.859,
      "cp": "07130",
      "ville": "SAINT PERAY",
      "prix": {
        "Gazole": 0.002229,
        "GPLc": 0.001095,
        "E10": 0.002079,
        "SP98": 0.002159
      },
      "maj_gouv": {
        "Gazole": "2026-05-12 20:00:00",
        "GPLc": "2026-05-06 20:00:00",
        "E10": "2026-05-15 20:00:00",
        "SP98": "2026-05-15 20:00:00"
      }
    },
    {
      "id": "7700003",
      "lat": 44.305,
      "lon": 4.612,
      "cp": "07700",
      "ville": "Saint-Just-d'Ardèche",
      "prix": {
        "Gazole": 0.002199,
        "SP95": 0.002099,
        "E10": 0.002078
      },
      "maj_gouv": {
        "Gazole": "2026-05-14 12:12:19",
        "SP95": "2026-05-14 12:12:19",
        "E10": "2026-05-14 12:12:19"
      }
    },
    {
      "id": "7500001",
      "lat": 44.93828,
      "lon": 4.86654,
      "cp": "07500",
      "ville": "Guilherand-Granges",
      "prix": {
        "Gazole": 0.002079,
        "E85": 0.0008179999999999999,
        "E10": 0.002036,
        "SP98": 0.002098
      },
      "maj_gouv": {
        "Gazole": "2026-05-11 15:15:23",
        "E85": "2026-05-06 09:46:42",
        "E10": "2026-05-15 10:58:29",
        "SP98": "2026-05-15 10:58:29"
      }
    },
    {
      "id": "7430006",
      "lat": 45.25171400000001,
      "lon": 4.696600999999999,
      "cp": "07430",
      "ville": "DAVEZIEUX",
      "prix": {
        "Gazole": 0.002229,
        "E10": 0.002079,
        "SP98": 0.002149
      },
      "maj_gouv": {
        "Gazole": "2026-05-12 20:00:00",
        "E10": "2026-05-15 20:00:00",
        "SP98": "2026-05-15 20:00:00"
      }
    }
  ]
}