{
  "departement": "80",
  "date": "2026-05-06",
  "stations": [
    {
      "id": "80570001",
      "lat": 50.04475,
      "lon": 1.52562,
      "cp": "80570",
      "ville": "Dargnies",
      "prix": {
        "Gazole": 0.002155,
        "SP95": 0.002055,
        "SP98": 0.002089
      },
      "maj_gouv": {
        "Gazole": "2026-04-21 16:17:52",
        "SP95": "2026-04-21 16:17:53",
        "SP98": "2026-04-21 16:17:53"
      }
    },
    {
      "id": "80580001",
      "lat": 50.058008,
      "lon": 1.9002544000000001,
      "cp": "80580",
      "ville": "Pont-Remy",
      "prix": {
        "Gazole": 0.002191,
        "E10": 0.002059,
        "SP98": 0.002129
      },
      "maj_gouv": {
        "Gazole": "2026-05-05 11:55:24",
        "E10": "2026-05-04 10:45:23",
        "SP98": "2026-05-04 10:45:23"
      }
    },
    {
      "id": "80100007",
      "lat": 50.113,
      "lon": 1.829,
      "cp": "80100",
      "ville": "Abbeville",
      "prix": {
        "Gazole": 0.0021709999999999998,
        "E10": 0.001998,
        "SP98": 0.002078
      },
      "maj_gouv": {
        "Gazole": "2026-05-05 18:00:00",
        "E10": "2026-05-05 18:00:00",
        "SP98": "2026-05-05 18:00:00"
      }
    },
    {
      "id": "80000008",
      "lat": 49.894,
      "lon": 2.285,
      "cp": "80000",
      "ville": "Amiens",
      "prix": {
        "Gazole": 0.00221,
        "E10": 0.002009,
        "SP98": 0.002089
      },
      "maj_gouv": {
        "Gazole": "2026-05-01 07:46:00",
        "E10": "2026-05-01 07:46:00",
        "SP98": "2026-05-01 07:46:00"
      }
    },
    {
      "id": "80100011",
      "lat": 50.107867347902,
      "lon": 1.8317601957873,
      "cp": "80100",
      "ville": "abbeville",
      "prix": {
        "Gazole": 0.0022389999999999997,
        "E10": 0.00199,
        "SP98": 0.00199
      },
      "maj_gouv": {
        "Gazole": "2026-04-29 07:07:41",
        "E10": "2026-04-25 09:04:47",
        "SP98": "2026-04-25 09:04:47"
      }
    },
    {
      "id": "80420003",
      "lat": 50.028,
      "lon": 2.067,
      "cp": "80420",
      "ville": "FLIXECOURT",
      "prix": {
        "Gazole": 0.002189,
        "E10": 0.002029,
        "SP98": 0.002109
      },
      "maj_gouv": {
        "Gazole": "2026-04-30 10:00:28",
        "E10": "2026-04-30 10:00:28",
        "SP98": "2026-04-30 10:00:29"
      }
    },
    {
      "id": "80700010",
      "lat": 49.705,
      "lon": 2.766,
      "cp": "80700",
      "ville": "ROYE",
      "prix": {
        "Gazole": 0.002299,
        "SP98": 0.002219
      },
      "maj_gouv": {
        "Gazole": "2026-05-04 11:33:19",
        "SP98": "2026-05-04 11:33:19"
      }
    },
    {
      "id": "80420004",
      "lat": 50.011,
      "lon": 2.094,
      "cp": "80420",
      "ville": "FLIXECOURT",
      "prix": {
        "Gazole": 0.002199,
        "E85": 0.0008179999999999999,
        "E10": 0.002039,
        "SP98": 0.00214
      },
      "maj_gouv": {
        "Gazole": "2026-05-05 08:43:41",
        "E85": "2026-04-21 08:08:03",
        "E10": "2026-05-05 08:43:41",
        "SP98": "2026-05-05 08:43:41"
      }
    },
    {
      "id": "80110001",
      "lat": 49.786561311593,
      "lon": 2.4699237043829,
      "cp": "80110",
      "ville": "MOREUIL",
      "prix": {
        "Gazole": 0.00225,
        "E85": 0.000855,
        "E10": 0.00199,
        "SP98": 0.00199
      },
      "maj_gouv": {
        "Gazole": "2026-04-28 08:31:15",
        "E85": "2026-04-28 08:31:15",
        "E10": "2026-04-30 08:49:30",
        "SP98": "2026-04-30 08:49:30"
      }
    },
    {
      "id": "80460003",
      "lat": 50.09824,
      "lon": 1.4559,
      "cp": "80460",
      "ville": "AULT",
      "prix": {
        "Gazole": 0.002249,
        "SP95": 0.002069,
        "SP98": 0.002148
      },
      "maj_gouv": {
        "Gazole": "2026-04-27 08:24:37",
        "SP95": "2026-04-18 14:42:51",
        "SP98": "2026-04-07 14:20:42"
      }
    },
    {
      "id": "80300004",
      "lat": 49.922,
      "lon": 2.304,
      "cp": "80080",
      "ville": "AMIENS",
      "prix": {
        "Gazole": 0.0022010000000000003,
        "E85": 0.000852,
        "E10": 0.002,
        "SP98": 0.002032
      },
      "maj_gouv": {
        "Gazole": "2026-04-30 16:21:52",
        "E85": "2026-04-29 14:29:43",
        "E10": "2026-04-30 16:21:52",
        "SP98": "2026-04-13 16:54:17"
      }
    },
    {
      "id": "80440003",
      "lat": 49.865,
      "lon": 2.377,
      "cp": "80440",
      "ville": "Glisy",
      "prix": {
        "Gazole": 0.002198,
        "GPLc": 0.000999,
        "E10": 0.002009,
        "SP98": 0.0021070000000000004
      },
      "maj_gouv": {
        "Gazole": "2026-05-04 10:17:25",
        "GPLc": "2026-04-21 10:28:40",
        "E10": "2026-05-04 10:17:25",
        "SP98": "2026-05-04 10:17:25"
      }
    },
    {
      "id": "80290008",
      "lat": 49.808,
      "lon": 1.968,
      "cp": "80290",
      "ville": "CROIXRAULT",
      "prix": {
        "Gazole": 0.002189,
        "E85": 0.00092,
        "E10": 0.002,
        "SP98": 0.002075
      },
      "maj_gouv": {
        "Gazole": "2026-05-05 14:37:00",
        "E85": "2026-05-05 14:37:00",
        "E10": "2026-05-05 14:37:00",
        "SP98": "2026-05-05 14:37:00"
      }
    },
    {
      "id": "80450001",
      "lat": 49.9,
      "lon": 2.341,
      "cp": "80450",
      "ville": "Camon",
      "prix": {
        "Gazole": 0.002199,
        "E85": 0.0008179999999999999,
        "E10": 0.002009,
        "SP98": 0.0021190000000000002
      },
      "maj_gouv": {
        "Gazole": "2026-05-04 09:55:14",
        "E85": "2026-05-04 09:55:14",
        "E10": "2026-05-04 09:55:14",
        "SP98": "2026-05-04 09:55:15"
      }
    },
    {
      "id": "80100012",
      "lat": 50.128,
      "lon": 1.833,
      "cp": "80100",
      "ville": "Abbeville",
      "prix": {
        "Gazole": 0.002184,
        "E85": 0.000916,
        "E10": 0.00199
      },
      "maj_gouv": {
        "Gazole": "2026-05-05 16:03:01",
        "E85": "2026-05-05 16:03:01",
        "E10": "2026-05-05 16:03:01"
      }
    },
    {
      "id": "80100009",
      "lat": 50.117513685996,
      "lon": 1.8292431861311,
      "cp": "80100",
      "ville": "ABBEVILLE",
      "prix": {
        "Gazole": 0.002162,
        "E85": 0.0008179999999999999,
        "E10": 0.0019890000000000003,
        "SP98": 0.002093
      },
      "maj_gouv": {
        "Gazole": "2026-05-05 12:00:00",
        "E85": "2026-05-05 17:01:17",
        "E10": "2026-05-05 12:00:00",
        "SP98": "2026-05-05 17:01:17"
      }
    },
    {
      "id": "80370002",
      "lat": 50.131,
      "lon": 2.172,
      "cp": "80370",
      "ville": "Bernaville",
      "prix": {
        "Gazole": 0.002379,
        "SP95": 0.002069,
        "E85": 0.000969
      },
      "maj_gouv": {
        "Gazole": "2026-04-03 06:53:02",
        "SP95": "2026-04-03 06:53:02",
        "E85": "2026-04-03 06:53:02"
      }
    },
    {
      "id": "80200007",
      "lat": 49.939,
      "lon": 2.926,
      "cp": "80200",
      "ville": "PERONNE",
      "prix": {
        "Gazole": 0.002199,
        "E85": 0.0008179999999999999,
        "GPLc": 0.0010609999999999999,
        "E10": 0.002045,
        "SP98": 0.002125
      },
      "maj_gouv": {
        "Gazole": "2026-05-05 08:46:40",
        "E85": "2026-05-05 11:39:35",
        "GPLc": "2026-04-17 10:17:40",
        "E10": "2026-05-05 08:46:41",
        "SP98": "2026-05-05 08:46:41"
      }
    },
    {
      "id": "80120004",
      "lat": 50.271,
      "lon": 1.669,
      "cp": "80120",
      "ville": "RUE",
      "prix": {
        "Gazole": 0.0022,
        "SP95": 0.002039,
        "SP98": 0.0021509999999999997
      },
      "maj_gouv": {
        "Gazole": "2026-05-02 10:33:36",
        "SP95": "2026-05-04 09:11:51",
        "SP98": "2026-05-04 09:11:51"
      }
    },
    {
      "id": "80600006",
      "lat": 50.156514175031994,
      "lon": 2.3442093761964,
      "cp": "80600",
      "ville": "Doullens",
      "prix": {
        "Gazole": 0.002199,
        "E10": 0.002025,
        "SP98": 0.0021190000000000002
      },
      "maj_gouv": {
        "Gazole": "2026-05-05 06:59:38",
        "E10": "2026-05-05 06:59:38",
        "SP98": "2026-05-05 06:59:38"
      }
    },
    {
      "id": "80260003",
      "lat": 50.001,
      "lon": 2.258,
      "cp": "80260",
      "ville": "FLESSELLES",
      "prix": {
        "Gazole": 0.002221,
        "E85": 0.0008179999999999999,
        "E10": 0.002034,
        "SP98": 0.00214
      },
      "maj_gouv": {
        "Gazole": "2026-05-04 08:30:59",
        "E85": "2026-04-28 07:08:47",
        "E10": "2026-05-04 08:30:59",
        "SP98": "2026-05-04 08:31:00"
      }
    },
    {
      "id": "80340004",
      "lat": 49.9396975,
      "lon": 2.7176620000000002,
      "cp": "80340",
      "ville": "Bray-sur-Somme",
      "prix": {
        "Gazole": 0.002199,
        "SP95": 0.002059,
        "SP98": 0.0021000000000000003
      },
      "maj_gouv": {
        "Gazole": "2026-04-23 14:11:56",
        "SP95": "2026-04-23 14:11:56",
        "SP98": "2026-04-23 14:11:56"
      }
    },
    {
      "id": "80090003",
      "lat": 49.877,
      "lon": 2.313,
      "cp": "80090",
      "ville": "AMIENS",
      "prix": {
        "Gazole": 0.002299,
        "E10": 0.002099,
        "SP98": 0.002249
      },
      "maj_gouv": {
        "Gazole": "2026-05-04 15:17:59",
        "E10": "2026-05-04 15:17:59",
        "SP98": "2026-05-04 15:17:59"
      }
    },
    {
      "id": "80260004",
      "lat": 49.9700772,
      "lon": 2.352799,
      "cp": "80260",
      "ville": "Rainneville",
      "prix": {
        "E10": 0.00199
      },
      "maj_gouv": {
        "E10": "2026-05-04 10:02:56"
      }
    },
    {
      "id": "80850001",
      "lat": 50.046,
      "lon": 2.148,
      "cp": "80850",
      "ville": "BERTEAUCOURT-LES-DAMES",
      "prix": {
        "Gazole": 0.002165,
        "E85": 0.0008179999999999999,
        "E10": 0.0019690000000000003,
        "SP98": 0.002077
      },
      "maj_gouv": {
        "Gazole": "2026-04-28 09:08:18",
        "E85": "2026-04-17 08:26:58",
        "E10": "2026-04-28 09:08:18",
        "SP98": "2026-04-28 09:08:18"
      }
    },
    {
      "id": "80120003",
      "lat": 50.273461,
      "lon": 1.66324377,
      "cp": "80120",
      "ville": "RUE",
      "prix": {
        "Gazole": 0.0022299999999999998,
        "SP95": 0.002097,
        "SP98": 0.002177
      },
      "maj_gouv": {
        "Gazole": "2026-05-02 10:13:05",
        "SP95": "2026-05-02 10:13:05",
        "SP98": "2026-05-02 10:13:05"
      }
    },
    {
      "id": "80470001",
      "lat": 49.92917,
      "lon": 2.19471,
      "cp": "80470",
      "ville": "Ailly-sur-Somme",
      "prix": {
        "Gazole": 0.00239,
        "SP98": 0.002199
      },
      "maj_gouv": {
        "Gazole": "2026-04-17 08:41:55",
        "SP98": "2026-04-01 10:09:19"
      }
    },
    {
      "id": "80136001",
      "lat": 49.913,
      "lon": 2.338,
      "cp": "80136",
      "ville": "RIVERY",
      "prix": {
        "Gazole": 0.002199,
        "E85": 0.000829,
        "E10": 0.002039,
        "SP98": 0.002109
      },
      "maj_gouv": {
        "Gazole": "2026-05-04 11:00:09",
        "E85": "2026-05-04 11:00:09",
        "E10": "2026-05-04 11:00:09",
        "SP98": "2026-05-04 11:00:09"
      }
    },
    {
      "id": "80120001",
      "lat": 50.331,
      "lon": 1.589,
      "cp": "80120",
      "ville": "QUEND",
      "prix": {
        "Gazole": 0.00225,
        "SP95": 0.002117,
        "E85": 0.000799
      },
      "maj_gouv": {
        "Gazole": "2026-05-02 13:06:19",
        "SP95": "2026-05-02 13:06:19",
        "E85": "2026-04-21 08:52:13"
      }
    },
    {
      "id": "80330004",
      "lat": 49.868,
      "lon": 2.368,
      "cp": "80330",
      "ville": "LONGUEAU",
      "prix": {
        "Gazole": 0.00225,
        "E85": 0.000861,
        "E10": 0.00199
      },
      "maj_gouv": {
        "Gazole": "2026-05-06 00:01:00",
        "E85": "2026-05-06 00:01:00",
        "E10": "2026-05-06 00:01:00"
      }
    },
    {
      "id": "80200003",
      "lat": 49.918,
      "lon": 2.933,
      "cp": "80200",
      "ville": "PERONNE",
      "prix": {
        "Gazole": 0.00225,
        "E10": 0.00199,
        "SP98": 0.00199
      },
      "maj_gouv": {
        "Gazole": "2026-05-04 18:36:31",
        "E10": "2026-05-04 18:36:31",
        "SP98": "2026-05-04 18:36:31"
      }
    },
    {
      "id": "80135001",
      "lat": 50.129,
      "lon": 1.942,
      "cp": "80135",
      "ville": "SAINT-RIQUIER",
      "prix": {
        "Gazole": 0.0022389999999999997,
        "E85": 0.0008179999999999999,
        "E10": 0.002059
      },
      "maj_gouv": {
        "Gazole": "2026-05-05 17:08:17",
        "E85": "2026-04-27 09:21:03",
        "E10": "2026-05-05 17:08:18"
      }
    },
    {
      "id": "80600002",
      "lat": 50.16005,
      "lon": 2.34759,
      "cp": "80600",
      "ville": "Doullens",
      "prix": {
        "Gazole": 0.00222,
        "E10": 0.002025,
        "SP98": 0.0021509999999999997
      },
      "maj_gouv": {
        "Gazole": "2026-05-05 11:32:10",
        "E10": "2026-05-05 11:32:10",
        "SP98": "2026-05-04 11:22:53"
      }
    },
    {
      "id": "80690001",
      "lat": 50.0788052,
      "lon": 1.9955359,
      "cp": "80690",
      "ville": "Ailly-le-Haut-Clocher",
      "prix": {
        "Gazole": 0.00225,
        "SP95": 0.00199
      },
      "maj_gouv": {
        "Gazole": "2026-04-08 07:36:50",
        "SP95": "2026-04-08 07:36:50"
      }
    },
    {
      "id": "80240001",
      "lat": 49.948,
      "lon": 3.108,
      "cp": "80240",
      "ville": "ROISEL",
      "prix": {
        "Gazole": 0.002249,
        "SP95": 0.002079,
        "SP98": 0.002149
      },
      "maj_gouv": {
        "Gazole": "2026-05-05 07:51:40",
        "SP95": "2026-05-05 07:51:41",
        "SP98": "2026-05-05 07:51:41"
      }
    },
    {
      "id": "80100003",
      "lat": 50.2117728505,
      "lon": 1.77888380782,
      "cp": "80860",
      "ville": "NOUVION",
      "prix": {
        "Gazole": 0.002229,
        "SP95": 0.002079,
        "SP98": 0.002159
      },
      "maj_gouv": {
        "Gazole": "2026-05-05 17:09:53",
        "SP95": "2026-05-05 17:09:53",
        "SP98": "2026-05-05 17:09:53"
      }
    },
    {
      "id": "80140004",
      "lat": 49.96,
      "lon": 1.766,
      "cp": "80140",
      "ville": "OISEMONT",
      "prix": {
        "Gazole": 0.00225,
        "SP95": 0.00199
      },
      "maj_gouv": {
        "Gazole": "2026-05-04 08:37:03",
        "SP95": "2026-04-08 14:51:20"
      }
    },
    {
      "id": "80110002",
      "lat": 49.788,
      "lon": 2.469,
      "cp": "80110",
      "ville": "MOREUIL",
      "prix": {
        "Gazole": 0.002233,
        "SP98": 0.002134
      },
      "maj_gouv": {
        "Gazole": "2026-04-29 08:59:44",
        "SP98": "2026-04-29 08:59:44"
      }
    },
    {
      "id": "80270001",
      "lat": 49.974,
      "lon": 1.941,
      "cp": "80270",
      "ville": "Airaines",
      "prix": {
        "Gazole": 0.002226,
        "E10": 0.002048,
        "SP98": 0.002181
      },
      "maj_gouv": {
        "Gazole": "2026-05-03 08:48:22",
        "E10": "2026-05-03 08:48:22",
        "SP98": "2026-05-03 08:48:22"
      }
    },
    {
      "id": "80300001",
      "lat": 50.011,
      "lon": 2.673,
      "cp": "80300",
      "ville": "ALBERT",
      "prix": {
        "Gazole": 0.002209,
        "E85": 0.0008179999999999999,
        "E10": 0.002039,
        "SP98": 0.002149
      },
      "maj_gouv": {
        "Gazole": "2026-05-04 11:01:28",
        "E85": "2026-04-16 10:47:57",
        "E10": "2026-05-04 11:01:29",
        "SP98": "2026-05-04 11:01:29"
      }
    },
    {
      "id": "80590002",
      "lat": 49.781,
      "lon": 1.792,
      "cp": "80290",
      "ville": "GAUVILLE",
      "prix": {
        "Gazole": 0.0022589999999999997,
        "SP95": 0.002117,
        "E10": 0.002064,
        "SP98": 0.0021739999999999997
      },
      "maj_gouv": {
        "Gazole": "2026-05-04 08:12:45",
        "SP95": "2026-05-04 08:12:45",
        "E10": "2026-05-04 08:12:45",
        "SP98": "2026-05-04 08:12:45"
      }
    },
    {
      "id": "80290007",
      "lat": 49.774747581038,
      "lon": 1.9846531982469,
      "cp": "80290",
      "ville": "Poix-de-Picardie",
      "prix": {
        "Gazole": 0.00225,
        "E10": 0.00199,
        "SP98": 0.00199
      },
      "maj_gouv": {
        "Gazole": "2026-05-04 08:18:08",
        "E10": "2026-04-28 08:21:27",
        "SP98": "2026-04-28 08:21:27"
      }
    },
    {
      "id": "80100001",
      "lat": 50.104,
      "lon": 1.828,
      "cp": "80100",
      "ville": "ABBEVILLE",
      "prix": {
        "Gazole": 0.0022040000000000002,
        "SP95": 0.002048,
        "SP98": 0.002126
      },
      "maj_gouv": {
        "Gazole": "2026-05-04 13:07:32",
        "SP95": "2026-05-04 13:07:32",
        "SP98": "2026-05-04 13:07:32"
      }
    },
    {
      "id": "80260001",
      "lat": 50.001,
      "lon": 2.316,
      "cp": "80260",
      "ville": "Villers-Bocage",
      "prix": {
        "Gazole": 0.002219,
        "SP95": 0.002088,
        "SP98": 0.00217
      },
      "maj_gouv": {
        "Gazole": "2026-05-05 07:29:23",
        "SP95": "2026-05-05 07:29:24",
        "SP98": "2026-05-05 07:29:24"
      }
    },
    {
      "id": "80480003",
      "lat": 49.86238,
      "lon": 2.23121,
      "cp": "80480",
      "ville": "SALEUX",
      "prix": {
        "Gazole": 0.002196,
        "E10": 0.002009,
        "SP98": 0.0021190000000000002
      },
      "maj_gouv": {
        "Gazole": "2026-05-05 09:09:26",
        "E10": "2026-05-05 09:09:26",
        "SP98": "2026-05-05 09:09:26"
      }
    },
    {
      "id": "80300005",
      "lat": 49.994,
      "lon": 2.657,
      "cp": "80300",
      "ville": "ALBERT",
      "prix": {
        "Gazole": 0.002209,
        "E85": 0.0008179999999999999,
        "GPLc": 0.001029,
        "E10": 0.002039,
        "SP98": 0.002149
      },
      "maj_gouv": {
        "Gazole": "2026-05-04 09:48:10",
        "E85": "2026-04-16 09:30:48",
        "GPLc": "2026-04-21 10:02:23",
        "E10": "2026-05-04 09:48:10",
        "SP98": "2026-05-04 09:48:10"
      }
    },
    {
      "id": "80500003",
      "lat": 49.64844,
      "lon": 2.58299,
      "cp": "80500",
      "ville": "MONTDIDIER",
      "prix": {
        "Gazole": 0.002229,
        "E85": 0.000739,
        "E10": 0.0020499999999999997,
        "SP98": 0.002124
      },
      "maj_gouv": {
        "Gazole": "2026-05-02 08:30:00",
        "E85": "2026-04-29 08:32:55",
        "E10": "2026-05-02 08:30:00",
        "SP98": "2026-05-02 08:30:00"
      }
    },
    {
      "id": "80044001",
      "lat": 49.862253148461,
      "lon": 2.2775469819,
      "cp": "80480",
      "ville": "Dury",
      "prix": {
        "Gazole": 0.002209,
        "E85": 0.000852,
        "E10": 0.0020099999999999996,
        "SP98": 0.002108
      },
      "maj_gouv": {
        "Gazole": "2026-05-05 09:11:57",
        "E85": "2026-05-04 09:35:09",
        "E10": "2026-05-04 09:35:09",
        "SP98": "2026-05-04 09:35:09"
      }
    },
    {
      "id": "80300006",
      "lat": 50.008,
      "lon": 2.666,
      "cp": "80300",
      "ville": "ALBERT",
      "prix": {
        "Gazole": 0.00225,
        "GPLc": 0.001031
      },
      "maj_gouv": {
        "Gazole": "2026-05-06 00:01:00",
        "GPLc": "2026-05-06 00:01:00"
      }
    },
    {
      "id": "80600005",
      "lat": 50.16,
      "lon": 2.342,
      "cp": "80600",
      "ville": "DOULLENS",
      "prix": {
        "Gazole": 0.002199,
        "E85": 0.0008179999999999999,
        "GPLc": 0.000999,
        "E10": 0.002025,
        "SP98": 0.002125
      },
      "maj_gouv": {
        "Gazole": "2026-05-05 08:55:08",
        "E85": "2026-04-17 14:29:15",
        "GPLc": "2026-04-03 11:55:04",
        "E10": "2026-05-04 14:09:51",
        "SP98": "2026-05-04 14:09:51"
      }
    },
    {
      "id": "80000007",
      "lat": 49.908,
      "lon": 2.318,
      "cp": "80080",
      "ville": "Amiens",
      "prix": {
        "Gazole": 0.0022080000000000003,
        "E85": 0.000898,
        "E10": 0.002048,
        "SP98": 0.002089
      },
      "maj_gouv": {
        "Gazole": "2026-05-04 16:56:00",
        "E85": "2026-05-04 16:56:00",
        "E10": "2026-05-04 16:56:00",
        "SP98": "2026-05-04 16:56:00"
      }
    },
    {
      "id": "80140005",
      "lat": 49.964,
      "lon": 1.657,
      "cp": "80140",
      "ville": "LE TRANSLAY",
      "prix": {
        "Gazole": 0.002439,
        "GPLc": 0.0013289999999999999,
        "E10": 0.0022789999999999998,
        "SP98": 0.002449
      },
      "maj_gouv": {
        "Gazole": "2026-05-01 11:34:39",
        "GPLc": "2026-05-01 11:34:39",
        "E10": "2026-05-01 11:34:39",
        "SP98": "2026-05-01 11:34:39"
      }
    },
    {
      "id": "80190003",
      "lat": 49.983,
      "lon": 1.562,
      "cp": "80220",
      "ville": "Gamaches",
      "prix": {
        "Gazole": 0.002199,
        "SP95": 0.002069,
        "SP98": 0.002129
      },
      "maj_gouv": {
        "Gazole": "2026-05-05 09:12:55",
        "SP95": "2026-05-05 09:12:56",
        "SP98": "2026-05-05 09:12:56"
      }
    },
    {
      "id": "80200012",
      "lat": 49.889,
      "lon": 2.841,
      "cp": "80200",
      "ville": "Péronne",
      "prix": {
        "Gazole": 0.00227,
        "E85": 0.001019,
        "GPLc": 0.001206,
        "E10": 0.002078,
        "SP98": 0.002115
      },
      "maj_gouv": {
        "Gazole": "2026-05-05 11:17:39",
        "E85": "2026-05-05 11:17:40",
        "GPLc": "2026-05-05 11:17:40",
        "E10": "2026-05-05 11:17:39",
        "SP98": "2026-05-05 11:17:39"
      }
    },
    {
      "id": "80700009",
      "lat": 49.703,
      "lon": 2.781,
      "cp": "80700",
      "ville": "ROYE",
      "prix": {
        "Gazole": 0.002206,
        "E10": 0.00199
      },
      "maj_gouv": {
        "Gazole": "2026-05-06 00:01:00",
        "E10": "2026-05-06 00:01:00"
      }
    },
    {
      "id": "80200005",
      "lat": 49.887,
      "lon": 2.837,
      "cp": "80200",
      "ville": "Péronne",
      "prix": {
        "Gazole": 0.002299,
        "GPLc": 0.0011279999999999999,
        "E10": 0.00213,
        "SP98": 0.0022299999999999998
      },
      "maj_gouv": {
        "Gazole": "2026-05-05 07:56:00",
        "GPLc": "2026-05-05 07:56:00",
        "E10": "2026-05-05 07:56:00",
        "SP98": "2026-05-05 07:56:00"
      }
    },
    {
      "id": "80230003",
      "lat": 50.172,
      "lon": 1.649,
      "cp": "80230",
      "ville": "Boismont",
      "prix": {
        "Gazole": 0.0022170000000000002,
        "SP95": 0.0020800000000000003,
        "SP98": 0.0021669999999999997
      },
      "maj_gouv": {
        "Gazole": "2026-05-05 06:11:33",
        "SP95": "2026-05-05 06:11:33",
        "SP98": "2026-05-05 06:11:33"
      }
    },
    {
      "id": "80160003",
      "lat": 49.73859,
      "lon": 2.15396,
      "cp": "80160",
      "ville": "Conty",
      "prix": {
        "Gazole": 0.0022589999999999997,
        "SP95": 0.002059,
        "SP98": 0.002139
      },
      "maj_gouv": {
        "Gazole": "2026-04-29 16:26:14",
        "SP95": "2026-04-29 16:26:14",
        "SP98": "2026-04-29 16:26:14"
      }
    },
    {
      "id": "80100002",
      "lat": 50.099811078,
      "lon": 1.85638830058,
      "cp": "80100",
      "ville": "ABBEVILLE",
      "prix": {
        "Gazole": 0.002229,
        "E85": 0.000919,
        "GPLc": 0.000999,
        "E10": 0.002059,
        "SP98": 0.002129
      },
      "maj_gouv": {
        "Gazole": "2026-05-04 09:41:39",
        "E85": "2026-05-04 09:41:39",
        "GPLc": "2026-05-04 09:42:07",
        "E10": "2026-05-04 09:41:39",
        "SP98": "2026-05-04 09:41:39"
      }
    },
    {
      "id": "80130003",
      "lat": 50.07400305217,
      "lon": 1.5369777407813,
      "cp": "80130",
      "ville": "Friville-Escarbotin",
      "prix": {
        "Gazole": 0.002165,
        "E85": 0.000819,
        "E10": 0.001992,
        "SP98": 0.002095
      },
      "maj_gouv": {
        "Gazole": "2026-05-05 12:18:01",
        "E85": "2026-04-30 07:59:56",
        "E10": "2026-05-05 12:18:01",
        "SP98": "2026-05-05 12:18:01"
      }
    },
    {
      "id": "80430002",
      "lat": 49.842,
      "lon": 1.778,
      "cp": "80430",
      "ville": "BEAUCAMPS-LE-VIEUX",
      "prix": {
        "Gazole": 0.002241,
        "SP95": 0.00209,
        "E85": 0.000876
      },
      "maj_gouv": {
        "Gazole": "2026-05-02 08:54:18",
        "SP95": "2026-05-02 08:54:18",
        "E85": "2026-05-02 08:54:18"
      }
    },
    {
      "id": "80970003",
      "lat": 50.167,
      "lon": 1.755,
      "cp": "80970",
      "ville": "Sailly-Flibeaucourt",
      "prix": {
        "Gazole": 0.002527,
        "GPLc": 0.0012410000000000001,
        "E10": 0.002421,
        "SP98": 0.0025710000000000004
      },
      "maj_gouv": {
        "Gazole": "2026-05-05 09:30:00",
        "GPLc": "2026-05-05 09:30:00",
        "E10": "2026-05-05 09:30:00",
        "SP98": "2026-05-05 09:30:00"
      }
    },
    {
      "id": "80340003",
      "lat": 49.938,
      "lon": 2.718,
      "cp": "80340",
      "ville": "Bray-sur-Somme",
      "prix": {
        "Gazole": 0.002196
      },
      "maj_gouv": {
        "Gazole": "2026-05-05 13:43:11"
      }
    },
    {
      "id": "80170001",
      "lat": 49.826,
      "lon": 2.712,
      "cp": "80170",
      "ville": "ROSIèRES-EN-SANTERRE",
      "prix": {
        "Gazole": 0.0021939999999999998,
        "E85": 0.0008179999999999999,
        "E10": 0.002021,
        "SP98": 0.002124
      },
      "maj_gouv": {
        "Gazole": "2026-05-05 13:31:33",
        "E85": "2026-05-05 13:31:33",
        "E10": "2026-05-05 13:31:33",
        "SP98": "2026-05-05 13:31:34"
      }
    },
    {
      "id": "80000013",
      "lat": 49.898,
      "lon": 2.292,
      "cp": "80000",
      "ville": "AMIENS",
      "prix": {
        "Gazole": 0.00225,
        "E85": 0.000869,
        "E10": 0.00199
      },
      "maj_gouv": {
        "Gazole": "2026-05-06 00:01:00",
        "E85": "2026-05-06 00:01:00",
        "E10": "2026-05-06 00:01:00"
      }
    },
    {
      "id": "80290006",
      "lat": 49.774,
      "lon": 1.99,
      "cp": "80290",
      "ville": "Poix-de-Picardie",
      "prix": {
        "Gazole": 0.002145,
        "E85": 0.000819,
        "E10": 0.002049,
        "SP98": 0.0021230000000000003
      },
      "maj_gouv": {
        "Gazole": "2026-05-05 08:30:00",
        "E85": "2026-04-20 19:30:00",
        "E10": "2026-05-05 08:30:00",
        "SP98": "2026-04-30 12:54:12"
      }
    },
    {
      "id": "80140003",
      "lat": 49.959236819945,
      "lon": 1.7664704551324002,
      "cp": "80140",
      "ville": "Oisemont",
      "prix": {
        "Gazole": 0.002191,
        "E85": 0.0008179999999999999,
        "E10": 0.001976,
        "SP98": 0.002081
      },
      "maj_gouv": {
        "Gazole": "2026-04-30 10:14:46",
        "E85": "2026-04-17 10:39:08",
        "E10": "2026-04-30 10:14:46",
        "SP98": "2026-04-30 10:14:46"
      }
    },
    {
      "id": "80380001",
      "lat": 49.871,
      "lon": 2.512,
      "cp": "80800",
      "ville": "VILLERS-BRETONNEUX",
      "prix": {
        "Gazole": 0.00225,
        "E10": 0.00199,
        "SP98": 0.00199
      },
      "maj_gouv": {
        "Gazole": "2026-05-05 09:40:50",
        "E10": "2026-05-05 09:40:50",
        "SP98": "2026-05-05 09:40:50"
      }
    },
    {
      "id": "80550001",
      "lat": 50.217,
      "lon": 1.625,
      "cp": "80550",
      "ville": "LE CROTOY",
      "prix": {
        "Gazole": 0.002235,
        "SP95": 0.002072,
        "SP98": 0.002154
      },
      "maj_gouv": {
        "Gazole": "2026-04-30 13:51:48",
        "SP95": "2026-04-29 07:42:01",
        "SP98": "2026-04-29 07:42:02"
      }
    },
    {
      "id": "80200011",
      "lat": 49.942,
      "lon": 2.941,
      "cp": "80200",
      "ville": "Péronne",
      "prix": {
        "Gazole": 0.002199,
        "E85": 0.0008179999999999999,
        "E10": 0.002045,
        "SP98": 0.002125
      },
      "maj_gouv": {
        "Gazole": "2026-05-05 08:30:00",
        "E85": "2026-04-23 07:47:03",
        "E10": "2026-05-05 08:30:00",
        "SP98": "2026-05-05 08:30:00"
      }
    },
    {
      "id": "80480002",
      "lat": 49.871,
      "lon": 2.261,
      "cp": "80480",
      "ville": "SALOUEL",
      "prix": {
        "Gazole": 0.002236,
        "E10": 0.002059
      },
      "maj_gouv": {
        "Gazole": "2026-05-04 12:20:48",
        "E10": "2026-05-04 12:20:48"
      }
    },
    {
      "id": "80210001",
      "lat": 50.06153703,
      "lon": 1.5945566500000001,
      "cp": "80210",
      "ville": "FEUQUIèRES-EN-VIMEU",
      "prix": {
        "Gazole": 0.002189,
        "SP95": 0.002049,
        "SP98": 0.002139
      },
      "maj_gouv": {
        "Gazole": "2026-04-30 14:51:29",
        "SP95": "2026-04-30 14:51:30",
        "SP98": "2026-04-30 14:51:30"
      }
    },
    {
      "id": "80560001",
      "lat": 50.072,
      "lon": 2.529,
      "cp": "80560",
      "ville": "ACHEUX-EN-AMIéNOIS",
      "prix": {
        "Gazole": 0.0022229999999999997,
        "E85": 0.0008179999999999999,
        "E10": 0.0020499999999999997,
        "SP98": 0.002153
      },
      "maj_gouv": {
        "Gazole": "2026-05-05 13:41:37",
        "E85": "2026-04-22 11:31:59",
        "E10": "2026-05-05 13:41:37",
        "SP98": "2026-05-05 13:41:37"
      }
    },
    {
      "id": "80800002",
      "lat": 49.86,
      "lon": 2.524,
      "cp": "80800",
      "ville": "VILLERS-BRETONNEUX",
      "prix": {
        "Gazole": 0.0021739999999999997,
        "E85": 0.0008179999999999999,
        "E10": 0.001999,
        "SP98": 0.002111
      },
      "maj_gouv": {
        "Gazole": "2026-05-04 15:21:15",
        "E85": "2026-04-20 10:13:25",
        "E10": "2026-05-05 09:52:49",
        "SP98": "2026-05-05 09:52:50"
      }
    },
    {
      "id": "80000019",
      "lat": 49.898783540155,
      "lon": 2.2702521626495,
      "cp": "80000",
      "ville": "amiens",
      "prix": {
        "Gazole": 0.00221,
        "E10": 0.002099,
        "SP98": 0.0021190000000000002
      },
      "maj_gouv": {
        "Gazole": "2026-05-05 08:05:38",
        "E10": "2026-05-05 08:05:38",
        "SP98": "2026-05-05 08:05:38"
      }
    },
    {
      "id": "80290001",
      "lat": 49.776,
      "lon": 1.978,
      "cp": "80290",
      "ville": "POIX-DE-PICARDIE",
      "prix": {
        "Gazole": 0.002185,
        "E10": 0.0019890000000000003,
        "SP98": 0.00212
      },
      "maj_gouv": {
        "Gazole": "2026-04-28 10:59:05",
        "E10": "2026-04-28 10:59:05",
        "SP98": "2026-04-28 10:59:05"
      }
    },
    {
      "id": "80500004",
      "lat": 49.646,
      "lon": 2.573,
      "cp": "80500",
      "ville": "Montdidier",
      "prix": {
        "Gazole": 0.00225
      },
      "maj_gouv": {
        "Gazole": "2026-05-04 10:03:27"
      }
    },
    {
      "id": "80400005",
      "lat": 49.740674000000006,
      "lon": 3.090835,
      "cp": "80400",
      "ville": "HAM",
      "prix": {
        "Gazole": 0.002331,
        "E10": 0.002055,
        "SP98": 0.00209
      },
      "maj_gouv": {
        "Gazole": "2026-04-21 10:21:00",
        "E10": "2026-05-04 11:24:47",
        "SP98": "2026-05-04 11:24:47"
      }
    },
    {
      "id": "80230002",
      "lat": 50.174,
      "lon": 1.638,
      "cp": "80230",
      "ville": "Saint-Valery-sur-Somme",
      "prix": {
        "Gazole": 0.0022170000000000002,
        "E85": 0.000819,
        "E10": 0.0020299999999999997,
        "SP98": 0.0021349999999999997
      },
      "maj_gouv": {
        "Gazole": "2026-05-04 06:51:36",
        "E85": "2026-05-04 06:51:36",
        "E10": "2026-05-04 06:51:36",
        "SP98": "2026-05-04 06:51:36"
      }
    },
    {
      "id": "80000012",
      "lat": 49.871,
      "lon": 2.3,
      "cp": "80000",
      "ville": "AMIENS",
      "prix": {
        "Gazole": 0.002184,
        "E85": 0.0008179999999999999,
        "E10": 0.0019890000000000003,
        "SP98": 0.002099
      },
      "maj_gouv": {
        "Gazole": "2026-05-04 09:05:39",
        "E85": "2026-05-04 16:31:42",
        "E10": "2026-05-04 09:05:39",
        "SP98": "2026-05-04 16:31:42"
      }
    },
    {
      "id": "80210002",
      "lat": 50.063,
      "lon": 1.605,
      "cp": "80210",
      "ville": "FEUQUIèRES-EN-VIMEU",
      "prix": {
        "Gazole": 0.00225,
        "E85": 0.000859,
        "E10": 0.00199,
        "SP98": 0.00199
      },
      "maj_gouv": {
        "Gazole": "2026-05-05 17:18:06",
        "E85": "2026-05-05 17:18:06",
        "E10": "2026-05-05 17:18:06",
        "SP98": "2026-05-05 17:18:06"
      }
    },
    {
      "id": "80410005",
      "lat": 50.181785861603004,
      "lon": 1.4943816717326999,
      "cp": "80410",
      "ville": "Cayeux-sur-mer",
      "prix": {
        "Gazole": 0.002229,
        "SP95": 0.002079,
        "SP98": 0.002159
      },
      "maj_gouv": {
        "Gazole": "2026-05-05 19:54:14",
        "SP95": "2026-05-05 19:54:14",
        "SP98": "2026-05-05 19:54:14"
      }
    },
    {
      "id": "80250001",
      "lat": 49.750488813391,
      "lon": 2.359071858947,
      "cp": "80250",
      "ville": "AILLY-SUR-NOYE",
      "prix": {
        "Gazole": 0.002184,
        "E85": 0.0008179999999999999,
        "E10": 0.0019890000000000003,
        "SP98": 0.002099
      },
      "maj_gouv": {
        "Gazole": "2026-05-04 09:20:25",
        "E85": "2026-05-04 09:20:25",
        "E10": "2026-05-04 09:20:25",
        "SP98": "2026-05-04 09:20:25"
      }
    },
    {
      "id": "80800006",
      "lat": 49.898,
      "lon": 2.494,
      "cp": "80800",
      "ville": "FOUILLOY",
      "prix": {
        "Gazole": 0.002164,
        "E85": 0.0008179999999999999,
        "E10": 0.001976,
        "SP98": 0.0020819999999999996
      },
      "maj_gouv": {
        "Gazole": "2026-05-04 08:28:55",
        "E85": "2026-04-18 09:06:16",
        "E10": "2026-05-04 08:28:55",
        "SP98": "2026-05-04 08:28:56"
      }
    },
    {
      "id": "80000014",
      "lat": 49.91144285,
      "lon": 2.2519769899999997,
      "cp": "80000",
      "ville": "AMIENS",
      "prix": {
        "Gazole": 0.0021669999999999997,
        "E85": 0.0008179999999999999,
        "SP98": 0.002056
      },
      "maj_gouv": {
        "Gazole": "2026-04-30 07:39:26",
        "E85": "2026-04-30 07:39:26",
        "SP98": "2026-04-30 07:39:26"
      }
    },
    {
      "id": "80190002",
      "lat": 49.764,
      "lon": 2.921,
      "cp": "80190",
      "ville": "NESLE",
      "prix": {
        "Gazole": 0.002226,
        "E10": 0.002,
        "SP98": 0.002105
      },
      "maj_gouv": {
        "Gazole": "2026-05-04 15:41:27",
        "E10": "2026-05-04 12:01:55",
        "SP98": "2026-05-04 12:01:26"
      }
    },
    {
      "id": "80480001",
      "lat": 49.87,
      "lon": 2.241,
      "cp": "80480",
      "ville": "Salouël",
      "prix": {
        "Gazole": 0.002226,
        "E10": 0.002039,
        "SP98": 0.0021190000000000002
      },
      "maj_gouv": {
        "Gazole": "2026-05-05 11:26:00",
        "E10": "2026-05-05 11:26:00",
        "SP98": "2026-05-05 11:26:00"
      }
    },
    {
      "id": "80000009",
      "lat": 49.882,
      "lon": 2.327,
      "cp": "80090",
      "ville": "Amiens",
      "prix": {
        "Gazole": 0.0022040000000000002,
        "E10": 0.002009,
        "SP98": 0.002089
      },
      "maj_gouv": {
        "Gazole": "2026-05-04 11:26:00",
        "E10": "2026-05-04 11:26:00",
        "SP98": "2026-05-04 11:26:00"
      }
    },
    {
      "id": "80100010",
      "lat": 50.113,
      "lon": 1.829,
      "cp": "80100",
      "ville": "ABBEVILLE",
      "prix": {
        "Gazole": 0.002184,
        "E85": 0.000842,
        "E10": 0.001987,
        "SP98": 0.00199
      },
      "maj_gouv": {
        "Gazole": "2026-05-06 00:01:00",
        "E85": "2026-05-06 00:01:00",
        "E10": "2026-05-06 00:01:00",
        "SP98": "2026-05-06 00:01:00"
      }
    },
    {
      "id": "80320004",
      "lat": 49.816,
      "lon": 2.803,
      "cp": "80320",
      "ville": "CHAULNES",
      "prix": {
        "Gazole": 0.002229,
        "E10": 0.002049,
        "SP98": 0.002189
      },
      "maj_gouv": {
        "Gazole": "2026-05-05 07:29:07",
        "E10": "2026-05-05 07:29:08",
        "SP98": "2026-05-05 07:29:08"
      }
    },
    {
      "id": "80400004",
      "lat": 49.73,
      "lon": 3.067,
      "cp": "80400",
      "ville": "MUILLE-VILLETTE",
      "prix": {
        "Gazole": 0.002236,
        "E85": 0.000819,
        "E10": 0.002059,
        "SP98": 0.002092
      },
      "maj_gouv": {
        "Gazole": "2026-05-06 01:15:00",
        "E85": "2026-05-06 01:15:00",
        "E10": "2026-05-06 01:15:00",
        "SP98": "2026-05-06 01:15:00"
      }
    },
    {
      "id": "80700004",
      "lat": 49.708,
      "lon": 2.775,
      "cp": "80700",
      "ville": "ROYE",
      "prix": {
        "Gazole": 0.002216,
        "E85": 0.000819,
        "SP98": 0.002095
      },
      "maj_gouv": {
        "Gazole": "2026-05-04 09:21:21",
        "E85": "2026-04-16 08:26:20",
        "SP98": "2026-05-02 07:32:00"
      }
    },
    {
      "id": "80220003",
      "lat": 49.93908,
      "lon": 1.62364,
      "cp": "80220",
      "ville": "Bouttencourt",
      "prix": {
        "Gazole": 0.002219,
        "SP95": 0.0020659999999999997,
        "SP98": 0.0021219999999999998
      },
      "maj_gouv": {
        "Gazole": "2026-05-05 09:44:21",
        "SP95": "2026-05-02 09:18:28",
        "SP98": "2026-05-02 09:18:48"
      }
    },
    {
      "id": "80800004",
      "lat": 49.908,
      "lon": 2.51,
      "cp": "80800",
      "ville": "CORBIE",
      "prix": {
        "Gazole": 0.002164,
        "E10": 0.001976,
        "SP98": 0.0020819999999999996
      },
      "maj_gouv": {
        "Gazole": "2026-05-04 14:51:51",
        "E10": "2026-05-04 14:51:51",
        "SP98": "2026-05-04 14:51:51"
      }
    },
    {
      "id": "80220001",
      "lat": 49.984,
      "lon": 1.574,
      "cp": "80220",
      "ville": "GAMACHES",
      "prix": {},
      "maj_gouv": {}
    },
    {
      "id": "80190001",
      "lat": 49.76,
      "lon": 2.914,
      "cp": "80190",
      "ville": "NESLE",
      "prix": {
        "Gazole": 0.00225,
        "E10": 0.00199,
        "SP98": 0.00199
      },
      "maj_gouv": {
        "Gazole": "2026-05-05 08:54:52",
        "E10": "2026-05-05 08:54:52",
        "SP98": "2026-05-05 08:54:53"
      }
    },
    {
      "id": "80350001",
      "lat": 50.06042884107,
      "lon": 1.4106608204000002,
      "cp": "80350",
      "ville": "Mers-les-Bains",
      "prix": {
        "Gazole": 0.002189,
        "GPLc": 0.0010500000000000002,
        "E10": 0.001999,
        "SP98": 0.002079
      },
      "maj_gouv": {
        "Gazole": "2026-04-30 09:03:00",
        "GPLc": "2026-04-21 14:20:16",
        "E10": "2026-04-30 09:03:00",
        "SP98": "2026-04-28 09:05:00"
      }
    },
    {
      "id": "80290009",
      "lat": 49.767,
      "lon": 1.801,
      "cp": "80290",
      "ville": "Morvillers-Saint-Saturnin",
      "prix": {
        "Gazole": 0.00225,
        "E10": 0.00199,
        "SP98": 0.00199
      },
      "maj_gouv": {
        "Gazole": "2026-05-05 10:35:18",
        "E10": "2026-05-05 10:35:18",
        "SP98": "2026-05-05 10:35:18"
      }
    },
    {
      "id": "80600003",
      "lat": 50.162,
      "lon": 2.355,
      "cp": "80600",
      "ville": "DOULLENS",
      "prix": {
        "Gazole": 0.00225,
        "E10": 0.00199,
        "SP98": 0.00199
      },
      "maj_gouv": {
        "Gazole": "2026-05-04 07:10:38",
        "E10": "2026-05-04 07:10:38",
        "SP98": "2026-05-04 07:10:38"
      }
    },
    {
      "id": "80230006",
      "lat": 50.173,
      "lon": 1.656,
      "cp": "80230",
      "ville": "SAINT VALERY SUR SOMME",
      "prix": {
        "Gazole": 0.00225,
        "E10": 0.00199,
        "SP98": 0.00199
      },
      "maj_gouv": {
        "Gazole": "2026-05-05 11:17:06",
        "E10": "2026-05-05 11:17:06",
        "SP98": "2026-05-05 11:17:07"
      }
    },
    {
      "id": "80730001",
      "lat": 49.914,
      "lon": 2.235,
      "cp": "80470",
      "ville": "DREUIL-LèS-AMIENS",
      "prix": {},
      "maj_gouv": {}
    },
    {
      "id": "80160004",
      "lat": 49.741,
      "lon": 2.152,
      "cp": "80160",
      "ville": "Conty",
      "prix": {
        "Gazole": 0.0022299999999999998,
        "SP95": 0.00199,
        "E85": 0.0010500000000000002
      },
      "maj_gouv": {
        "Gazole": "2026-04-23 08:30:42",
        "SP95": "2026-04-23 08:30:42",
        "E85": "2026-04-23 08:30:42"
      }
    },
    {
      "id": "80480004",
      "lat": 49.86,
      "lon": 2.274,
      "cp": "80480",
      "ville": "Dury",
      "prix": {
        "E85": 0.000862
      },
      "maj_gouv": {
        "E85": "2026-04-30 09:13:17"
      }
    },
    {
      "id": "80800007",
      "lat": 49.862884,
      "lon": 2.52134,
      "cp": "80800",
      "ville": "VILLERS-BRETONNEUX",
      "prix": {
        "Gazole": 0.002274,
        "GPLc": 0.001064,
        "E10": 0.0021219999999999998,
        "SP98": 0.0021880000000000003
      },
      "maj_gouv": {
        "Gazole": "2026-05-05 11:14:46",
        "GPLc": "2026-05-05 11:14:46",
        "E10": "2026-05-05 11:14:46",
        "SP98": "2026-05-05 11:14:46"
      }
    },
    {
      "id": "80150003",
      "lat": 50.251767199999996,
      "lon": 1.8843509,
      "cp": "80150",
      "ville": "Crécy-en-Ponthieu",
      "prix": {
        "Gazole": 0.002229,
        "SP95": 0.002069,
        "SP98": 0.002159
      },
      "maj_gouv": {
        "Gazole": "2026-05-04 11:56:11",
        "SP95": "2026-05-04 11:56:11",
        "SP98": "2026-05-04 11:56:12"
      }
    },
    {
      "id": "80510004",
      "lat": 50.029,
      "lon": 1.943,
      "cp": "80510",
      "ville": "Longpré-les-Corps-Saints",
      "prix": {
        "Gazole": 0.0022389999999999997,
        "E85": 0.000859,
        "E10": 0.002049,
        "SP98": 0.002199
      },
      "maj_gouv": {
        "Gazole": "2026-05-05 07:03:25",
        "E85": "2026-05-05 07:03:25",
        "E10": "2026-05-05 07:03:25",
        "SP98": "2026-05-05 07:03:26"
      }
    },
    {
      "id": "80140006",
      "lat": 49.962,
      "lon": 1.665,
      "cp": "80140",
      "ville": "Le Translay",
      "prix": {
        "Gazole": 0.002439,
        "GPLc": 0.0013289999999999999,
        "E10": 0.0022789999999999998,
        "SP98": 0.002379
      },
      "maj_gouv": {
        "Gazole": "2026-05-01 11:35:39",
        "GPLc": "2026-05-01 11:35:39",
        "E10": "2026-05-01 11:35:39",
        "SP98": "2026-05-01 11:35:39"
      }
    },
    {
      "id": "80150004",
      "lat": 50.20305,
      "lon": 1.95771,
      "cp": "80150",
      "ville": "Brailly-cornehotte",
      "prix": {
        "Gazole": 0.00225
      },
      "maj_gouv": {
        "Gazole": "2026-05-04 07:28:03"
      }
    },
    {
      "id": "80270003",
      "lat": 49.962994017723,
      "lon": 1.9435411088213,
      "cp": "80270",
      "ville": "AIRAINES",
      "prix": {
        "Gazole": 0.002219,
        "SP95": 0.00199
      },
      "maj_gouv": {
        "Gazole": "2026-04-14 15:23:52",
        "SP95": "2026-04-14 15:23:52"
      }
    }
  ]
}