{
  "departement": "34",
  "date": "2026-06-06",
  "stations": [
    {
      "id": "34150003",
      "lat": 43.651,
      "lon": 3.547,
      "cp": "34150",
      "ville": "GIGNAC",
      "prix": {
        "Gazole": 0.001991,
        "E85": 0.000798,
        "E10": 0.001906,
        "SP98": 0.002019
      },
      "maj_gouv": {
        "Gazole": "2026-06-05 08:30:00",
        "E85": "2026-05-23 08:30:00",
        "E10": "2026-06-04 08:30:00",
        "SP98": "2026-06-04 08:30:00"
      }
    },
    {
      "id": "34670001",
      "lat": 43.655,
      "lon": 3.996,
      "cp": "34670",
      "ville": "BAILLARGUES",
      "prix": {
        "Gazole": 0.002079,
        "E10": 0.002019,
        "SP98": 0.0021190000000000002
      },
      "maj_gouv": {
        "Gazole": "2026-05-29 05:39:39",
        "E10": "2026-05-29 05:39:40",
        "SP98": "2026-06-03 09:48:01"
      }
    },
    {
      "id": "34420003",
      "lat": 43.322,
      "lon": 3.291,
      "cp": "34420",
      "ville": "Villeneuve-lès-Béziers",
      "prix": {
        "Gazole": 0.001909,
        "SP95": 0.0019790000000000003,
        "SP98": 0.002055
      },
      "maj_gouv": {
        "Gazole": "2026-06-03 08:55:45",
        "SP95": "2026-06-05 08:55:06",
        "SP98": "2026-06-05 08:55:06"
      }
    },
    {
      "id": "34170001",
      "lat": 43.623,
      "lon": 3.898,
      "cp": "34170",
      "ville": "CASTELNAU-LE-LEZ",
      "prix": {
        "Gazole": 0.002039,
        "E85": 0.000859,
        "E10": 0.0019790000000000003,
        "SP98": 0.002089
      },
      "maj_gouv": {
        "Gazole": "2026-06-05 10:13:28",
        "E85": "2026-06-05 10:13:28",
        "E10": "2026-06-05 10:13:28",
        "SP98": "2026-06-05 10:13:28"
      }
    },
    {
      "id": "34620002",
      "lat": 43.367,
      "lon": 3.049,
      "cp": "34620",
      "ville": "Puisserguier",
      "prix": {
        "Gazole": 0.002064,
        "SP95": 0.002056,
        "E85": 0.0008990000000000001,
        "SP98": 0.00211
      },
      "maj_gouv": {
        "Gazole": "2026-06-05 14:59:17",
        "SP95": "2026-06-04 19:42:55",
        "E85": "2026-05-29 15:35:09",
        "SP98": "2026-06-04 19:42:55"
      }
    },
    {
      "id": "34360002",
      "lat": 43.422409575399996,
      "lon": 2.93681726025,
      "cp": "34360",
      "ville": "SAINT-CHINIAN",
      "prix": {
        "Gazole": 0.002039,
        "E10": 0.0019890000000000003
      },
      "maj_gouv": {
        "Gazole": "2026-06-04 00:00:00",
        "E10": "2026-06-04 00:00:00"
      }
    },
    {
      "id": "34690009",
      "lat": 43.548175937549,
      "lon": 3.7956014943175,
      "cp": "34690",
      "ville": "FABREGUES",
      "prix": {
        "Gazole": 0.002219,
        "E85": 0.000998,
        "GPLc": 0.001098,
        "E10": 0.00199,
        "SP98": 0.00199
      },
      "maj_gouv": {
        "Gazole": "2026-06-06 00:01:00",
        "E85": "2026-06-06 00:01:00",
        "GPLc": "2026-06-06 00:01:00",
        "E10": "2026-06-06 00:01:00",
        "SP98": "2026-06-06 00:01:00"
      }
    },
    {
      "id": "34110002",
      "lat": 43.449,
      "lon": 3.753,
      "cp": "34110",
      "ville": "FRONTIGNAN",
      "prix": {
        "Gazole": 0.002019,
        "SP95": 0.002089,
        "SP98": 0.0021190000000000002
      },
      "maj_gouv": {
        "Gazole": "2026-06-02 11:27:51",
        "SP95": "2026-06-02 11:27:51",
        "SP98": "2026-06-02 11:27:51"
      }
    },
    {
      "id": "34920001",
      "lat": 43.659613186824,
      "lon": 3.9361696295143,
      "cp": "34920",
      "ville": "LE CRèS",
      "prix": {
        "Gazole": 0.00206,
        "SP95": 0.0019690000000000003,
        "E85": 0.000815,
        "SP98": 0.0020499999999999997
      },
      "maj_gouv": {
        "Gazole": "2026-06-05 08:36:12",
        "SP95": "2026-06-05 08:36:12",
        "E85": "2026-06-05 08:36:13",
        "SP98": "2026-06-05 08:36:13"
      }
    },
    {
      "id": "34000017",
      "lat": 43.578845,
      "lon": 3.8767620000000003,
      "cp": "34000",
      "ville": "Montpellier",
      "prix": {
        "Gazole": 0.002049,
        "GPLc": 0.001099,
        "E10": 0.002049,
        "SP98": 0.002149
      },
      "maj_gouv": {
        "Gazole": "2026-06-05 20:00:00",
        "GPLc": "2026-06-05 20:00:00",
        "E10": "2026-06-05 20:00:00",
        "SP98": "2026-06-05 20:00:00"
      }
    },
    {
      "id": "34540002",
      "lat": 43.439,
      "lon": 3.7,
      "cp": "34540",
      "ville": "Balaruc-les-Bains",
      "prix": {
        "Gazole": 0.001997,
        "E10": 0.001918,
        "SP98": 0.00199
      },
      "maj_gouv": {
        "Gazole": "2026-06-05 07:01:22",
        "E10": "2026-06-05 07:01:58",
        "SP98": "2026-06-03 07:56:51"
      }
    },
    {
      "id": "34410009",
      "lat": 43.29988743551,
      "lon": 3.2484989992494997,
      "cp": "34410",
      "ville": "sauvian",
      "prix": {
        "Gazole": 0.001999,
        "E10": 0.001996
      },
      "maj_gouv": {
        "Gazole": "2026-06-04 11:28:36",
        "E10": "2026-06-04 11:28:36"
      }
    },
    {
      "id": "34500025",
      "lat": 43.35448,
      "lon": 3.22184,
      "cp": "34500",
      "ville": "BEZIERS",
      "prix": {
        "Gazole": 0.002063,
        "E85": 0.000844,
        "E10": 0.001987
      },
      "maj_gouv": {
        "Gazole": "2026-06-06 00:01:00",
        "E85": "2026-06-06 00:01:00",
        "E10": "2026-06-06 00:01:00"
      }
    },
    {
      "id": "34500032",
      "lat": 43.358321,
      "lon": 3.243799,
      "cp": "34500",
      "ville": "Béziers",
      "prix": {
        "Gazole": 0.002129,
        "E10": 0.002029,
        "SP98": 0.002129
      },
      "maj_gouv": {
        "Gazole": "2026-06-05 21:00:00",
        "E10": "2026-06-05 21:00:00",
        "SP98": "2026-06-05 21:00:00"
      }
    },
    {
      "id": "34190002",
      "lat": 43.92689,
      "lon": 3.721,
      "cp": "34190",
      "ville": "LAROQUE",
      "prix": {
        "Gazole": 0.001967,
        "SP95": 0.0019890000000000003,
        "E10": 0.0019479999999999999,
        "SP98": 0.002043
      },
      "maj_gouv": {
        "Gazole": "2026-06-05 15:14:38",
        "SP95": "2026-06-05 08:04:34",
        "E10": "2026-06-05 08:05:37",
        "SP98": "2026-06-05 08:05:12"
      }
    },
    {
      "id": "34220002",
      "lat": 43.488,
      "lon": 2.764,
      "cp": "34220",
      "ville": "Saint-Pons-de-Thomières",
      "prix": {
        "Gazole": 0.001998,
        "SP95": 0.002099,
        "E85": 0.000819
      },
      "maj_gouv": {
        "Gazole": "2026-06-03 08:25:07",
        "SP95": "2026-06-03 08:25:07",
        "E85": "2026-06-03 08:25:07"
      }
    },
    {
      "id": "34990001",
      "lat": 43.614,
      "lon": 3.809,
      "cp": "34990",
      "ville": "JUVIGNAC",
      "prix": {
        "Gazole": 0.002079,
        "E85": 0.000798,
        "GPLc": 0.001085,
        "E10": 0.002019,
        "SP98": 0.002179
      },
      "maj_gouv": {
        "Gazole": "2026-06-03 08:53:01",
        "E85": "2026-05-20 06:51:20",
        "GPLc": "2026-05-20 06:51:20",
        "E10": "2026-06-01 09:43:03",
        "SP98": "2026-06-01 09:43:03"
      }
    },
    {
      "id": "34320003",
      "lat": 43.501,
      "lon": 3.32,
      "cp": "34320",
      "ville": "ROUJAN",
      "prix": {
        "Gazole": 0.0019890000000000003,
        "E85": 0.000799,
        "E10": 0.001955,
        "SP98": 0.0020800000000000003
      },
      "maj_gouv": {
        "Gazole": "2026-06-04 11:45:54",
        "E85": "2026-05-27 08:41:46",
        "E10": "2026-06-04 11:45:54",
        "SP98": "2026-06-04 11:45:55"
      }
    },
    {
      "id": "34120008",
      "lat": 43.464,
      "lon": 3.427,
      "cp": "34120",
      "ville": "Pézenas",
      "prix": {
        "Gazole": 0.0021190000000000002,
        "E10": 0.002079,
        "SP98": 0.002189
      },
      "maj_gouv": {
        "Gazole": "2026-05-28 15:50:26",
        "E10": "2026-05-28 15:50:26",
        "SP98": "2026-05-28 15:50:26"
      }
    },
    {
      "id": "34140006",
      "lat": 43.448,
      "lon": 3.643,
      "cp": "34140",
      "ville": "BOUZIGUES",
      "prix": {
        "Gazole": 0.002149,
        "GPLc": 0.001089,
        "E10": 0.002139,
        "SP98": 0.002199
      },
      "maj_gouv": {
        "Gazole": "2026-05-28 08:20:12",
        "GPLc": "2026-05-28 08:20:12",
        "E10": "2026-05-28 08:20:12",
        "SP98": "2026-05-28 08:20:12"
      }
    },
    {
      "id": "34500033",
      "lat": 43.355531129999996,
      "lon": 3.239479914,
      "cp": "34500",
      "ville": "BEZIERS",
      "prix": {
        "Gazole": 0.001954,
        "E10": 0.001909,
        "SP98": 0.002108
      },
      "maj_gouv": {
        "Gazole": "2026-06-05 09:04:15",
        "E10": "2026-06-05 09:04:15",
        "SP98": "2026-06-04 08:56:55"
      }
    },
    {
      "id": "34200003",
      "lat": 43.414,
      "lon": 3.716,
      "cp": "34200",
      "ville": "SèTE",
      "prix": {
        "Gazole": 0.002089,
        "E85": 0.000799,
        "GPLc": 0.001095,
        "E10": 0.002029,
        "SP98": 0.002099
      },
      "maj_gouv": {
        "Gazole": "2026-06-05 14:00:00",
        "E85": "2026-06-05 14:00:00",
        "GPLc": "2026-06-05 14:00:00",
        "E10": "2026-06-05 14:00:00",
        "SP98": "2026-06-05 14:00:00"
      }
    },
    {
      "id": "34370001",
      "lat": 43.387,
      "lon": 3.11,
      "cp": "34370",
      "ville": "CAZOULS-LèS-BéZIERS",
      "prix": {
        "Gazole": 0.001967,
        "SP95": 0.002007,
        "E85": 0.000799,
        "E10": 0.0019590000000000002
      },
      "maj_gouv": {
        "Gazole": "2026-06-03 09:12:00",
        "SP95": "2026-06-03 09:12:01",
        "E85": "2026-06-02 08:39:57",
        "E10": "2026-06-03 09:12:01"
      }
    },
    {
      "id": "34280006",
      "lat": 43.560688088565,
      "lon": 4.0767334903653,
      "cp": "34280",
      "ville": "LA GRANDE MOTTE",
      "prix": {
        "Gazole": 0.0019690000000000003,
        "E85": 0.000799,
        "E10": 0.001869,
        "SP98": 0.0019890000000000003
      },
      "maj_gouv": {
        "Gazole": "2026-06-05 11:10:14",
        "E85": "2026-06-03 11:28:47",
        "E10": "2026-06-05 11:10:14",
        "SP98": "2026-06-01 11:33:53"
      }
    },
    {
      "id": "34250003",
      "lat": 43.529,
      "lon": 3.931,
      "cp": "34250",
      "ville": "Palavas-les-Flots",
      "prix": {
        "Gazole": 0.001974,
        "E10": 0.001906,
        "SP98": 0.00199
      },
      "maj_gouv": {
        "Gazole": "2026-06-06 00:01:00",
        "E10": "2026-06-06 00:01:00",
        "SP98": "2026-06-06 00:01:00"
      }
    },
    {
      "id": "34520002",
      "lat": 43.86449,
      "lon": 3.31188,
      "cp": "34520",
      "ville": "LE CAYLAR",
      "prix": {
        "Gazole": 0.002181,
        "E85": 0.000998,
        "GPLc": 0.001098,
        "E10": 0.00199,
        "SP98": 0.00199
      },
      "maj_gouv": {
        "Gazole": "2026-06-06 00:01:00",
        "E85": "2026-06-06 00:01:00",
        "GPLc": "2026-06-06 00:01:00",
        "E10": "2026-06-06 00:01:00",
        "SP98": "2026-06-06 00:01:00"
      }
    },
    {
      "id": "34400016",
      "lat": 43.716,
      "lon": 4.134,
      "cp": "34400",
      "ville": "villetelle",
      "prix": {
        "Gazole": 0.0023,
        "E85": 0.000998,
        "GPLc": 0.001206,
        "E10": 0.002149,
        "SP98": 0.0022240000000000003
      },
      "maj_gouv": {
        "Gazole": "2026-06-04 10:54:50",
        "E85": "2026-06-04 10:54:49",
        "GPLc": "2026-06-04 10:54:49",
        "E10": "2026-06-04 10:54:49",
        "SP98": "2026-06-04 10:54:49"
      }
    },
    {
      "id": "34070004",
      "lat": 43.592,
      "lon": 3.867,
      "cp": "34070",
      "ville": "MONTPELLIER",
      "prix": {
        "Gazole": 0.001999,
        "E10": 0.001949,
        "SP98": 0.00206
      },
      "maj_gouv": {
        "Gazole": "2026-06-04 12:04:51",
        "E10": "2026-06-04 12:04:51",
        "SP98": "2026-06-04 12:04:51"
      }
    },
    {
      "id": "34250002",
      "lat": 43.535,
      "lon": 3.911,
      "cp": "34250",
      "ville": "PALAVAS-LES-FLOTS",
      "prix": {
        "Gazole": 0.00207,
        "SP95": 0.002159,
        "E10": 0.0020499999999999997,
        "SP98": 0.00215
      },
      "maj_gouv": {
        "Gazole": "2026-06-04 15:19:36",
        "SP95": "2026-05-21 13:16:06",
        "E10": "2026-06-04 15:19:36",
        "SP98": "2026-06-04 15:19:37"
      }
    },
    {
      "id": "34070019",
      "lat": 43.61,
      "lon": 3.839,
      "cp": "34070",
      "ville": "MONTPELLIER",
      "prix": {
        "Gazole": 0.001987,
        "E10": 0.001913
      },
      "maj_gouv": {
        "Gazole": "2026-06-06 00:01:00",
        "E10": "2026-06-06 00:01:00"
      }
    },
    {
      "id": "34070012",
      "lat": 43.595,
      "lon": 3.868,
      "cp": "34070",
      "ville": "MONTPELLIER",
      "prix": {
        "Gazole": 0.00219,
        "SP95": 0.002149,
        "E85": 0.000996,
        "SP98": 0.002189
      },
      "maj_gouv": {
        "Gazole": "2026-06-03 08:33:08",
        "SP95": "2026-06-03 08:33:08",
        "E85": "2026-05-07 08:38:05",
        "SP98": "2026-06-03 08:33:09"
      }
    },
    {
      "id": "34725001",
      "lat": 43.65075,
      "lon": 3.50952,
      "cp": "34725",
      "ville": "SAINT-ANDRé-DE-SANGONIS",
      "prix": {
        "Gazole": 0.002029,
        "E10": 0.0019690000000000003,
        "SP98": 0.002079
      },
      "maj_gouv": {
        "Gazole": "2026-06-04 20:07:15",
        "E10": "2026-06-04 20:07:15",
        "SP98": "2026-06-04 20:07:16"
      }
    },
    {
      "id": "34700002",
      "lat": 43.72279323,
      "lon": 3.32299427,
      "cp": "34700",
      "ville": "LODèVE",
      "prix": {
        "Gazole": 0.0019850000000000002,
        "E85": 0.000889,
        "E10": 0.0019450000000000001,
        "SP98": 0.002019
      },
      "maj_gouv": {
        "Gazole": "2026-06-05 10:32:00",
        "E85": "2026-06-05 10:32:00",
        "E10": "2026-06-05 10:32:00",
        "SP98": "2026-06-05 10:32:01"
      }
    },
    {
      "id": "34550002",
      "lat": 43.372,
      "lon": 3.422,
      "cp": "34550",
      "ville": "BESSAN",
      "prix": {
        "Gazole": 0.002069,
        "E85": 0.000798,
        "GPLc": 0.0010689999999999999,
        "E10": 0.001999,
        "SP98": 0.002099
      },
      "maj_gouv": {
        "Gazole": "2026-06-02 09:30:00",
        "E85": "2026-05-15 08:45:00",
        "GPLc": "2026-04-08 07:23:36",
        "E10": "2026-06-02 09:30:00",
        "SP98": "2026-06-02 09:30:00"
      }
    },
    {
      "id": "34790005",
      "lat": 43.648482,
      "lon": 3.831452,
      "cp": "34790",
      "ville": "Grabels",
      "prix": {
        "Gazole": 0.001999,
        "E10": 0.0019690000000000003,
        "SP98": 0.002089
      },
      "maj_gouv": {
        "Gazole": "2026-06-02 12:07:06",
        "E10": "2026-06-02 12:07:06",
        "SP98": "2026-06-02 12:07:06"
      }
    },
    {
      "id": "34570002",
      "lat": 43.6427954,
      "lon": 3.69559828,
      "cp": "34570",
      "ville": "Montarnaud",
      "prix": {
        "Gazole": 0.0019850000000000002,
        "E85": 0.000819,
        "E10": 0.001965,
        "SP98": 0.002045
      },
      "maj_gouv": {
        "Gazole": "2026-06-02 08:43:38",
        "E85": "2026-04-23 12:16:24",
        "E10": "2026-06-02 08:43:38",
        "SP98": "2026-06-02 08:43:38"
      }
    },
    {
      "id": "34460001",
      "lat": 43.44814,
      "lon": 3.05598,
      "cp": "34460",
      "ville": "CESSENON-SUR-ORB",
      "prix": {
        "Gazole": 0.00207,
        "E10": 0.00198,
        "SP98": 0.00213
      },
      "maj_gouv": {
        "Gazole": "2026-06-05 11:12:45",
        "E10": "2026-06-05 11:12:46",
        "SP98": "2026-06-05 11:12:46"
      }
    },
    {
      "id": "34973001",
      "lat": 43.58112502463099,
      "lon": 3.9310174668007,
      "cp": "34970",
      "ville": "LATTES",
      "prix": {
        "Gazole": 0.002023,
        "SP95": 0.001946,
        "E10": 0.001903,
        "SP98": 0.002028
      },
      "maj_gouv": {
        "Gazole": "2026-06-06 00:42:00",
        "SP95": "2026-06-06 00:42:00",
        "E10": "2026-06-06 00:42:00",
        "SP98": "2026-06-06 00:42:00"
      }
    },
    {
      "id": "34200002",
      "lat": 43.40612,
      "lon": 3.70318,
      "cp": "34200",
      "ville": "Sète",
      "prix": {
        "Gazole": 0.001999,
        "E85": 0.000859,
        "E10": 0.001949,
        "SP98": 0.002089
      },
      "maj_gouv": {
        "Gazole": "2026-06-01 13:26:25",
        "E85": "2026-04-10 10:11:53",
        "E10": "2026-06-01 13:26:25",
        "SP98": "2026-06-01 13:26:25"
      }
    },
    {
      "id": "34800002",
      "lat": 43.632,
      "lon": 3.44,
      "cp": "34800",
      "ville": "CLERMONT-L'HéRAULT",
      "prix": {
        "Gazole": 0.002039,
        "SP95": 0.002059,
        "E10": 0.002139
      },
      "maj_gouv": {
        "Gazole": "2026-06-01 18:04:18",
        "SP95": "2026-06-01 18:04:18",
        "E10": "2026-06-01 18:04:18"
      }
    },
    {
      "id": "34120002",
      "lat": 43.452029065111994,
      "lon": 3.4178689993915,
      "cp": "34120",
      "ville": "PéZENAS",
      "prix": {
        "Gazole": 0.002065,
        "E10": 0.00199,
        "SP98": 0.00199
      },
      "maj_gouv": {
        "Gazole": "2026-06-03 14:09:33",
        "E10": "2026-06-03 14:09:34",
        "SP98": "2026-06-03 14:09:34"
      }
    },
    {
      "id": "34590001",
      "lat": 43.662,
      "lon": 4.178,
      "cp": "34590",
      "ville": "MARSILLARGUES",
      "prix": {
        "Gazole": 0.0019790000000000003,
        "E10": 0.001999,
        "SP98": 0.002059
      },
      "maj_gouv": {
        "Gazole": "2026-06-03 09:04:09",
        "E10": "2026-06-03 09:04:09",
        "SP98": "2026-06-03 09:04:09"
      }
    },
    {
      "id": "34570001",
      "lat": 43.58474,
      "lon": 3.77903,
      "cp": "34570",
      "ville": "Pignan",
      "prix": {
        "Gazole": 0.002133,
        "E10": 0.00199,
        "SP98": 0.00199
      },
      "maj_gouv": {
        "Gazole": "2026-06-04 11:52:04",
        "E10": "2026-06-04 11:52:04",
        "SP98": "2026-06-04 11:52:04"
      }
    },
    {
      "id": "34450002",
      "lat": 43.312,
      "lon": 3.419,
      "cp": "34450",
      "ville": "VIAS",
      "prix": {
        "Gazole": 0.002109,
        "E85": 0.000798,
        "E10": 0.002069,
        "SP98": 0.002169
      },
      "maj_gouv": {
        "Gazole": "2026-06-01 10:35:27",
        "E85": "2026-05-18 09:11:45",
        "E10": "2026-05-14 10:11:41",
        "SP98": "2026-05-14 10:11:41"
      }
    },
    {
      "id": "34810001",
      "lat": 43.391,
      "lon": 3.489,
      "cp": "34810",
      "ville": "Pomérols",
      "prix": {
        "Gazole": 0.002055,
        "E10": 0.001999,
        "SP98": 0.002099
      },
      "maj_gouv": {
        "Gazole": "2026-05-30 09:42:27",
        "E10": "2026-05-30 09:42:27",
        "SP98": "2026-05-30 09:42:27"
      }
    },
    {
      "id": "34490001",
      "lat": 43.421,
      "lon": 3.161,
      "cp": "34490",
      "ville": "Thézan-lès-Béziers",
      "prix": {
        "Gazole": 0.001991,
        "E85": 0.000819,
        "E10": 0.001941,
        "SP98": 0.002079
      },
      "maj_gouv": {
        "Gazole": "2026-06-05 08:48:08",
        "E85": "2026-06-04 17:27:22",
        "E10": "2026-06-05 08:48:09",
        "SP98": "2026-06-04 17:27:22"
      }
    },
    {
      "id": "34070002",
      "lat": 43.571,
      "lon": 3.942,
      "cp": "34475",
      "ville": "PEROLS",
      "prix": {
        "Gazole": 0.002059,
        "GPLc": 0.001095,
        "E10": 0.001926,
        "SP98": 0.002054
      },
      "maj_gouv": {
        "Gazole": "2026-06-05 09:00:00",
        "GPLc": "2026-06-05 09:00:00",
        "E10": "2026-06-05 09:00:00",
        "SP98": "2026-06-05 09:00:00"
      }
    },
    {
      "id": "34380002",
      "lat": 43.783,
      "lon": 3.737,
      "cp": "34380",
      "ville": "Saint-Martin-de-Londres",
      "prix": {
        "Gazole": 0.001991,
        "E85": 0.000847,
        "E10": 0.001993,
        "SP98": 0.002096
      },
      "maj_gouv": {
        "Gazole": "2026-05-30 00:25:00",
        "E85": "2026-05-01 00:46:00",
        "E10": "2026-05-30 00:25:00",
        "SP98": "2026-05-30 00:25:00"
      }
    },
    {
      "id": "34440001",
      "lat": 43.312,
      "lon": 3.141,
      "cp": "34440",
      "ville": "COLOMBIERS",
      "prix": {
        "Gazole": 0.002059,
        "E85": 0.0007790000000000001,
        "GPLc": 0.001095,
        "E10": 0.002049,
        "SP98": 0.002099
      },
      "maj_gouv": {
        "Gazole": "2026-06-05 14:00:00",
        "E85": "2026-06-05 14:00:00",
        "GPLc": "2026-06-05 14:00:00",
        "E10": "2026-06-05 14:00:00",
        "SP98": "2026-06-05 14:00:00"
      }
    },
    {
      "id": "34410002",
      "lat": 43.27112,
      "lon": 3.2829,
      "cp": "34410",
      "ville": "Sérignan",
      "prix": {
        "Gazole": 0.001909,
        "SP95": 0.0019790000000000003,
        "E85": 0.000798,
        "E10": 0.001925,
        "SP98": 0.002055
      },
      "maj_gouv": {
        "Gazole": "2026-06-03 12:01:22",
        "SP95": "2026-06-05 11:53:03",
        "E85": "2026-06-03 12:01:23",
        "E10": "2026-06-05 11:53:04",
        "SP98": "2026-06-05 11:53:04"
      }
    },
    {
      "id": "34130004",
      "lat": 43.618,
      "lon": 3.989,
      "cp": "34130",
      "ville": "Mauguio",
      "prix": {
        "Gazole": 0.002081,
        "GPLc": 0.0012,
        "E10": 0.00199,
        "SP98": 0.00199
      },
      "maj_gouv": {
        "Gazole": "2026-06-05 07:22:35",
        "GPLc": "2026-06-05 07:22:35",
        "E10": "2026-06-05 07:22:35",
        "SP98": "2026-06-05 07:22:35"
      }
    },
    {
      "id": "34200001",
      "lat": 43.41,
      "lon": 3.669,
      "cp": "34200",
      "ville": "Sète",
      "prix": {
        "Gazole": 0.001984,
        "E85": 0.000859,
        "E10": 0.001907,
        "SP98": 0.00204
      },
      "maj_gouv": {
        "Gazole": "2026-06-05 08:50:41",
        "E85": "2026-06-01 07:32:24",
        "E10": "2026-06-05 08:50:41",
        "SP98": "2026-06-01 07:32:24"
      }
    },
    {
      "id": "34500030",
      "lat": 43.34,
      "lon": 3.264,
      "cp": "34500",
      "ville": "Béziers",
      "prix": {
        "Gazole": 0.0019590000000000002,
        "GPLc": 0.00111,
        "E10": 0.001909
      },
      "maj_gouv": {
        "Gazole": "2026-06-06 01:15:00",
        "GPLc": "2026-06-06 01:15:00",
        "E10": "2026-06-06 01:15:00"
      }
    },
    {
      "id": "34290007",
      "lat": 43.369129317048,
      "lon": 3.3910774626099,
      "cp": "34290",
      "ville": "MONTBLANC",
      "prix": {
        "Gazole": 0.0023889999999999996,
        "GPLc": 0.001135,
        "E10": 0.002357,
        "SP98": 0.002507
      },
      "maj_gouv": {
        "Gazole": "2026-06-05 09:30:00",
        "GPLc": "2026-06-05 09:30:00",
        "E10": "2026-06-05 09:30:00",
        "SP98": "2026-06-05 09:30:00"
      }
    },
    {
      "id": "34750001",
      "lat": 43.537,
      "lon": 3.858,
      "cp": "34750",
      "ville": "Villeneuve-lès-Maguelone",
      "prix": {
        "Gazole": 0.001994,
        "E85": 0.000798,
        "E10": 0.001936,
        "SP98": 0.0020499999999999997
      },
      "maj_gouv": {
        "Gazole": "2026-06-05 08:33:00",
        "E85": "2026-06-05 08:33:00",
        "E10": "2026-06-05 08:33:00",
        "SP98": "2026-06-05 08:33:00"
      }
    },
    {
      "id": "34110005",
      "lat": 43.4457,
      "lon": 3.75207,
      "cp": "34110",
      "ville": "FRONTIGNAN",
      "prix": {
        "Gazole": 0.002091,
        "E10": 0.00199,
        "SP98": 0.00199
      },
      "maj_gouv": {
        "Gazole": "2026-06-06 00:01:00",
        "E10": "2026-06-06 00:01:00",
        "SP98": "2026-06-06 00:01:00"
      }
    },
    {
      "id": "34280005",
      "lat": 43.549,
      "lon": 3.979,
      "cp": "34130",
      "ville": "MAUGUIO",
      "prix": {
        "Gazole": 0.00197,
        "E10": 0.0018859999999999999,
        "SP98": 0.00199
      },
      "maj_gouv": {
        "Gazole": "2026-06-06 00:01:00",
        "E10": "2026-06-06 00:01:00",
        "SP98": "2026-06-06 00:01:00"
      }
    },
    {
      "id": "34830001",
      "lat": 43.66,
      "lon": 3.904,
      "cp": "34830",
      "ville": "JACOU",
      "prix": {
        "Gazole": 0.0019450000000000001,
        "E85": 0.000798,
        "E10": 0.001975,
        "SP98": 0.002079
      },
      "maj_gouv": {
        "Gazole": "2026-06-06 00:01:00",
        "E85": "2026-06-06 00:01:00",
        "E10": "2026-06-05 17:47:36",
        "SP98": "2026-06-06 00:01:00"
      }
    },
    {
      "id": "34311001",
      "lat": 43.338,
      "lon": 3.239,
      "cp": "34500",
      "ville": "Béziers",
      "prix": {
        "Gazole": 0.0019590000000000002,
        "SP95": 0.001999,
        "E10": 0.001909,
        "SP98": 0.0020350000000000004
      },
      "maj_gouv": {
        "Gazole": "2026-06-06 01:16:00",
        "SP95": "2026-06-06 01:16:00",
        "E10": "2026-06-06 01:16:00",
        "SP98": "2026-06-06 01:16:00"
      }
    },
    {
      "id": "34420004",
      "lat": 43.319,
      "lon": 3.302,
      "cp": "34420",
      "ville": "CERS",
      "prix": {
        "Gazole": 0.002068,
        "E85": 0.0008179999999999999,
        "E10": 0.001951,
        "SP98": 0.002069
      },
      "maj_gouv": {
        "Gazole": "2026-06-05 12:46:22",
        "E85": "2026-04-21 06:44:34",
        "E10": "2026-06-05 12:46:23",
        "SP98": "2026-06-05 12:46:23"
      }
    },
    {
      "id": "34480001",
      "lat": 43.468,
      "lon": 3.209,
      "cp": "34480",
      "ville": "MAGALAS",
      "prix": {
        "Gazole": 0.001999,
        "E85": 0.000798,
        "E10": 0.00196,
        "SP98": 0.002079
      },
      "maj_gouv": {
        "Gazole": "2026-06-05 08:51:32",
        "E85": "2026-06-03 08:23:52",
        "E10": "2026-06-05 08:51:33",
        "SP98": "2026-06-05 08:51:33"
      }
    },
    {
      "id": "34300009",
      "lat": 43.284815569799996,
      "lon": 3.50286260671,
      "cp": "34300",
      "ville": "Agde",
      "prix": {
        "Gazole": 0.002058,
        "E85": 0.0008449999999999999,
        "E10": 0.00198
      },
      "maj_gouv": {
        "Gazole": "2026-06-06 00:01:00",
        "E85": "2026-06-06 00:01:00",
        "E10": "2026-06-06 00:01:00"
      }
    },
    {
      "id": "34770001",
      "lat": 43.494,
      "lon": 3.709,
      "cp": "34770",
      "ville": "Gigean",
      "prix": {
        "Gazole": 0.0019950000000000002,
        "E10": 0.0019270000000000001
      },
      "maj_gouv": {
        "Gazole": "2026-06-05 08:05:02",
        "E10": "2026-06-05 08:05:02"
      }
    },
    {
      "id": "34120007",
      "lat": 43.455,
      "lon": 3.423,
      "cp": "34120",
      "ville": "PEZENAS",
      "prix": {
        "Gazole": 0.002069,
        "E85": 0.0008990000000000001,
        "E10": 0.001999,
        "SP98": 0.002099
      },
      "maj_gouv": {
        "Gazole": "2026-06-06 00:01:00",
        "E85": "2026-06-06 00:01:00",
        "E10": "2026-06-06 00:01:00",
        "SP98": "2026-06-06 00:01:00"
      }
    },
    {
      "id": "34300002",
      "lat": 43.302,
      "lon": 3.472,
      "cp": "34300",
      "ville": "Agde",
      "prix": {
        "Gazole": 0.002061,
        "E10": 0.001968
      },
      "maj_gouv": {
        "Gazole": "2026-06-05 08:33:35",
        "E10": "2026-06-05 08:33:35"
      }
    },
    {
      "id": "34090003",
      "lat": 43.627,
      "lon": 3.876,
      "cp": "34090",
      "ville": "MONTPELLIER",
      "prix": {
        "Gazole": 0.001967,
        "E10": 0.001888,
        "SP98": 0.00199
      },
      "maj_gouv": {
        "Gazole": "2026-06-06 00:01:00",
        "E10": "2026-06-06 00:01:00",
        "SP98": "2026-06-06 00:01:00"
      }
    },
    {
      "id": "34300013",
      "lat": 43.286,
      "lon": 3.514,
      "cp": "34300",
      "ville": "Agde",
      "prix": {
        "Gazole": 0.002129,
        "E85": 0.0008990000000000001,
        "E10": 0.002029,
        "SP98": 0.002129
      },
      "maj_gouv": {
        "Gazole": "2026-06-06 06:00:00",
        "E85": "2026-06-06 06:00:00",
        "E10": "2026-06-06 06:00:00",
        "SP98": "2026-06-06 06:00:00"
      }
    },
    {
      "id": "34200013",
      "lat": 43.413,
      "lon": 3.683,
      "cp": "34200",
      "ville": "SETE",
      "prix": {
        "Gazole": 0.001976,
        "E85": 0.000859,
        "E10": 0.001914
      },
      "maj_gouv": {
        "Gazole": "2026-06-06 00:01:00",
        "E85": "2026-06-06 00:01:00",
        "E10": "2026-06-06 00:01:00"
      }
    },
    {
      "id": "34000014",
      "lat": 43.635,
      "lon": 3.823,
      "cp": "34000",
      "ville": "MONTPELLIER",
      "prix": {
        "Gazole": 0.002088,
        "E85": 0.000846,
        "GPLc": 0.0010689999999999999,
        "E10": 0.00199,
        "SP98": 0.00199
      },
      "maj_gouv": {
        "Gazole": "2026-06-06 00:01:00",
        "E85": "2026-06-06 00:01:00",
        "GPLc": "2026-06-06 00:01:00",
        "E10": "2026-06-06 00:01:00",
        "SP98": "2026-06-06 00:01:00"
      }
    },
    {
      "id": "34070017",
      "lat": 43.5895,
      "lon": 3.88887,
      "cp": "34070",
      "ville": "MONTPELLIER",
      "prix": {
        "Gazole": 0.002077,
        "E85": 0.000869,
        "E10": 0.00199
      },
      "maj_gouv": {
        "Gazole": "2026-06-06 00:01:00",
        "E85": "2026-06-06 00:01:00",
        "E10": "2026-06-06 00:01:00"
      }
    },
    {
      "id": "34140003",
      "lat": 43.4280745215,
      "lon": 3.60615111179,
      "cp": "34140",
      "ville": "MèZE",
      "prix": {
        "Gazole": 0.002149,
        "E85": 0.0008990000000000001,
        "E10": 0.002079,
        "SP98": 0.002179
      },
      "maj_gouv": {
        "Gazole": "2026-06-06 06:00:00",
        "E85": "2026-06-06 06:00:00",
        "E10": "2026-06-06 06:00:00",
        "SP98": "2026-06-06 06:00:00"
      }
    },
    {
      "id": "34100001",
      "lat": 43.618,
      "lon": 3.844,
      "cp": "34080",
      "ville": "Montpellier",
      "prix": {
        "Gazole": 0.002129,
        "E10": 0.002009,
        "SP98": 0.002109
      },
      "maj_gouv": {
        "Gazole": "2026-06-05 21:30:00",
        "E10": "2026-06-05 21:30:00",
        "SP98": "2026-06-05 21:30:00"
      }
    },
    {
      "id": "34070020",
      "lat": 43.596,
      "lon": 3.887,
      "cp": "34070",
      "ville": "MONTPELLIER",
      "prix": {
        "Gazole": 0.00212,
        "E85": 0.0008900000000000001,
        "E10": 0.002
      },
      "maj_gouv": {
        "Gazole": "2026-06-06 06:00:00",
        "E85": "2026-06-06 06:00:00",
        "E10": "2026-06-06 06:00:00"
      }
    },
    {
      "id": "34070018",
      "lat": 43.595,
      "lon": 3.849,
      "cp": "34070",
      "ville": "MONTPELLIER",
      "prix": {
        "Gazole": 0.001982,
        "E10": 0.001913,
        "SP98": 0.00199
      },
      "maj_gouv": {
        "Gazole": "2026-06-06 00:01:00",
        "E10": "2026-06-06 00:01:00",
        "SP98": "2026-06-06 00:01:00"
      }
    },
    {
      "id": "34110003",
      "lat": 43.434,
      "lon": 3.738,
      "cp": "34110",
      "ville": "Frontignan",
      "prix": {
        "Gazole": 0.00195,
        "E10": 0.001926,
        "SP98": 0.002043
      },
      "maj_gouv": {
        "Gazole": "2026-06-05 09:03:23",
        "E10": "2026-06-05 09:03:23",
        "SP98": "2026-06-05 09:03:23"
      }
    },
    {
      "id": "34270001",
      "lat": 43.76059,
      "lon": 3.86538,
      "cp": "34270",
      "ville": "Saint-Mathieu-de-Tréviers",
      "prix": {
        "Gazole": 0.001988,
        "SP95": 0.002059,
        "E10": 0.001975,
        "SP98": 0.0021190000000000002
      },
      "maj_gouv": {
        "Gazole": "2026-06-05 08:38:22",
        "SP95": "2026-06-04 09:33:03",
        "E10": "2026-06-04 09:33:30",
        "SP98": "2026-06-04 09:33:16"
      }
    },
    {
      "id": "34330001",
      "lat": 43.59984,
      "lon": 2.69757,
      "cp": "34330",
      "ville": "La Salvetat-sur-Agout",
      "prix": {
        "Gazole": 0.00225,
        "SP95": 0.00199,
        "SP98": 0.00199
      },
      "maj_gouv": {
        "Gazole": "2026-04-08 16:25:40",
        "SP95": "2026-03-07 13:49:43",
        "SP98": "2026-03-09 11:50:55"
      }
    },
    {
      "id": "34400004",
      "lat": 43.676,
      "lon": 4.128,
      "cp": "34400",
      "ville": "Lunel",
      "prix": {
        "Gazole": 0.0020459999999999996,
        "E10": 0.002005,
        "SP98": 0.00206
      },
      "maj_gouv": {
        "Gazole": "2026-06-03 06:30:00",
        "E10": "2026-06-03 06:30:00",
        "SP98": "2026-06-03 06:30:00"
      }
    },
    {
      "id": "34500028",
      "lat": 43.346448175582,
      "lon": 3.2412510394399003,
      "cp": "34500",
      "ville": "BEZIERS",
      "prix": {
        "Gazole": 0.001975
      },
      "maj_gouv": {
        "Gazole": "2026-06-06 00:01:00"
      }
    },
    {
      "id": "34500024",
      "lat": 43.337949625164,
      "lon": 3.2035771636848,
      "cp": "34500",
      "ville": "BEZIERS",
      "prix": {
        "Gazole": 0.002039,
        "E85": 0.000829,
        "E10": 0.002009
      },
      "maj_gouv": {
        "Gazole": "2026-06-05 14:00:00",
        "E85": "2026-06-05 14:00:00",
        "E10": "2026-06-05 14:00:00"
      }
    },
    {
      "id": "34500026",
      "lat": 43.354260237735,
      "lon": 3.2291535224152,
      "cp": "34500",
      "ville": "BEZIERS",
      "prix": {
        "Gazole": 0.001966,
        "E85": 0.000839,
        "GPLc": 0.0010789999999999999,
        "E10": 0.001896,
        "SP98": 0.00199
      },
      "maj_gouv": {
        "Gazole": "2026-06-06 00:01:00",
        "E85": "2026-06-06 00:01:00",
        "GPLc": "2026-06-06 00:01:00",
        "E10": "2026-06-06 00:01:00",
        "SP98": "2026-06-06 00:01:00"
      }
    },
    {
      "id": "34770002",
      "lat": 43.595,
      "lon": 3.888,
      "cp": "34070",
      "ville": "Montpellier",
      "prix": {
        "Gazole": 0.002,
        "E10": 0.001936,
        "SP98": 0.002093
      },
      "maj_gouv": {
        "Gazole": "2026-06-05 16:00:00",
        "E10": "2026-06-05 16:00:00",
        "SP98": "2026-06-05 16:00:00"
      }
    },
    {
      "id": "34550001",
      "lat": 43.38,
      "lon": 3.42,
      "cp": "34550",
      "ville": "Bessan",
      "prix": {
        "Gazole": 0.002078,
        "E10": 0.002008,
        "SP98": 0.002108
      },
      "maj_gouv": {
        "Gazole": "2026-06-04 00:30:00",
        "E10": "2026-06-04 00:30:00",
        "SP98": "2026-06-04 00:30:00"
      }
    },
    {
      "id": "34740002",
      "lat": 43.656,
      "lon": 3.962,
      "cp": "34740",
      "ville": "Vendargues",
      "prix": {
        "Gazole": 0.00199,
        "E10": 0.001903,
        "SP98": 0.002
      },
      "maj_gouv": {
        "Gazole": "2026-06-05 07:40:00",
        "E10": "2026-06-05 07:40:00",
        "SP98": "2026-06-05 07:40:00"
      }
    },
    {
      "id": "34740004",
      "lat": 43.654,
      "lon": 3.966,
      "cp": "34740",
      "ville": "VENDARGUES",
      "prix": {
        "Gazole": 0.001973,
        "E85": 0.000816,
        "E10": 0.001897,
        "SP98": 0.00199
      },
      "maj_gouv": {
        "Gazole": "2026-06-06 00:01:00",
        "E85": "2026-06-06 00:01:00",
        "E10": "2026-06-06 00:01:00",
        "SP98": "2026-06-06 00:01:00"
      }
    },
    {
      "id": "34770005",
      "lat": 43.497574148983,
      "lon": 3.7116784796608,
      "cp": "34770",
      "ville": "Gigean",
      "prix": {
        "Gazole": 0.002229,
        "E10": 0.002109
      },
      "maj_gouv": {
        "Gazole": "2026-04-30 09:01:06",
        "E10": "2026-05-06 13:30:06"
      }
    },
    {
      "id": "34690010",
      "lat": 43.544,
      "lon": 3.792,
      "cp": "34690",
      "ville": "Fabrègues",
      "prix": {
        "Gazole": 0.002254,
        "E85": 0.000999,
        "GPLc": 0.001159,
        "E10": 0.0021360000000000003,
        "SP98": 0.002205
      },
      "maj_gouv": {
        "Gazole": "2026-06-06 06:00:00",
        "E85": "2026-06-06 06:00:00",
        "GPLc": "2026-06-06 06:00:00",
        "E10": "2026-06-06 06:00:00",
        "SP98": "2026-06-06 06:00:00"
      }
    },
    {
      "id": "34230002",
      "lat": 43.535,
      "lon": 3.453,
      "cp": "34230",
      "ville": "paulhan",
      "prix": {
        "Gazole": 0.002029,
        "E10": 0.0019790000000000003,
        "SP98": 0.002099
      },
      "maj_gouv": {
        "Gazole": "2026-06-04 12:44:46",
        "E10": "2026-06-04 12:44:46",
        "SP98": "2026-06-04 12:44:46"
      }
    },
    {
      "id": "11200003",
      "lat": 43.58,
      "lon": 3.953,
      "cp": "34130",
      "ville": "Mauguio",
      "prix": {
        "Gazole": 0.002139,
        "E85": 0.000799,
        "GPLc": 0.001095,
        "E10": 0.002019
      },
      "maj_gouv": {
        "Gazole": "2026-06-05 14:00:00",
        "E85": "2026-06-05 14:00:00",
        "GPLc": "2026-06-05 14:00:00",
        "E10": "2026-06-05 14:00:00"
      }
    },
    {
      "id": "34320001",
      "lat": 43.50555,
      "lon": 3.30844,
      "cp": "34320",
      "ville": "Roujan",
      "prix": {
        "Gazole": 0.00225,
        "SP95": 0.00199,
        "SP98": 0.00199
      },
      "maj_gouv": {
        "Gazole": "2026-04-30 20:32:54",
        "SP95": "2026-04-30 20:33:23",
        "SP98": "2026-04-30 20:33:43"
      }
    },
    {
      "id": "34560001",
      "lat": 43.499,
      "lon": 3.592,
      "cp": "34560",
      "ville": "Villeveyrac",
      "prix": {
        "Gazole": 0.0020299999999999997,
        "E10": 0.001952,
        "SP98": 0.002043
      },
      "maj_gouv": {
        "Gazole": "2026-06-05 10:30:00",
        "E10": "2026-06-05 10:30:00",
        "SP98": "2026-06-05 10:30:00"
      }
    },
    {
      "id": "34490002",
      "lat": 43.3766586291,
      "lon": 3.1779261921799997,
      "cp": "34490",
      "ville": "LIGNAN-SUR-ORB",
      "prix": {
        "Gazole": 0.001999,
        "E85": 0.000819,
        "E10": 0.0019790000000000003,
        "SP98": 0.002089
      },
      "maj_gouv": {
        "Gazole": "2026-06-01 09:32:34",
        "E85": "2026-05-11 12:00:42",
        "E10": "2026-06-01 09:32:34",
        "SP98": "2026-06-01 09:32:34"
      }
    },
    {
      "id": "34400007",
      "lat": 43.676,
      "lon": 4.115,
      "cp": "34400",
      "ville": "LUNEL",
      "prix": {
        "Gazole": 0.001999,
        "E85": 0.000759,
        "E10": 0.001999,
        "SP98": 0.002195
      },
      "maj_gouv": {
        "Gazole": "2026-06-04 09:53:57",
        "E85": "2026-06-04 09:53:57",
        "E10": "2026-06-04 09:53:57",
        "SP98": "2026-06-04 09:53:58"
      }
    },
    {
      "id": "34500023",
      "lat": 43.366,
      "lon": 3.209,
      "cp": "34500",
      "ville": "Béziers",
      "prix": {
        "Gazole": 0.001993,
        "E85": 0.000798,
        "E10": 0.001909,
        "SP98": 0.002045
      },
      "maj_gouv": {
        "Gazole": "2026-06-05 08:09:21",
        "E85": "2026-06-05 08:09:21",
        "E10": "2026-06-05 08:09:21",
        "SP98": "2026-06-05 08:09:21"
      }
    },
    {
      "id": "34070003",
      "lat": 43.589,
      "lon": 3.855,
      "cp": "34070",
      "ville": "MONTPELLIER",
      "prix": {
        "Gazole": 0.001977,
        "E10": 0.001938,
        "SP98": 0.002048
      },
      "maj_gouv": {
        "Gazole": "2026-06-03 08:10:52",
        "E10": "2026-06-03 08:10:25",
        "SP98": "2026-06-03 08:06:04"
      }
    },
    {
      "id": "34500027",
      "lat": 43.332,
      "lon": 3.248,
      "cp": "34500",
      "ville": "BEZIERS",
      "prix": {
        "Gazole": 0.001965,
        "E85": 0.0008359999999999999
      },
      "maj_gouv": {
        "Gazole": "2026-06-06 00:01:00",
        "E85": "2026-06-06 00:01:00"
      }
    },
    {
      "id": "34800005",
      "lat": 43.61,
      "lon": 3.463,
      "cp": "34800",
      "ville": "Clermont-l'Hérault",
      "prix": {
        "Gazole": 0.001958,
        "E85": 0.0008179999999999999,
        "GPLc": 0.001049,
        "E10": 0.0019450000000000001,
        "SP98": 0.002098
      },
      "maj_gouv": {
        "Gazole": "2026-06-03 12:26:49",
        "E85": "2026-06-03 12:26:49",
        "GPLc": "2026-06-03 12:26:49",
        "E10": "2026-06-03 12:26:49",
        "SP98": "2026-06-03 12:26:50"
      }
    },
    {
      "id": "34070016",
      "lat": 43.60413,
      "lon": 3.83911,
      "cp": "34070",
      "ville": "MONTPELLIER",
      "prix": {
        "Gazole": 0.002078,
        "E85": 0.000844,
        "E10": 0.00199
      },
      "maj_gouv": {
        "Gazole": "2026-06-06 00:01:00",
        "E85": "2026-06-06 00:01:00",
        "E10": "2026-06-06 00:01:00"
      }
    },
    {
      "id": "34400018",
      "lat": 43.678753089699995,
      "lon": 4.14329815767,
      "cp": "34400",
      "ville": "LUNEL",
      "prix": {
        "Gazole": 0.001952,
        "E10": 0.001871,
        "SP98": 0.0019850000000000002
      },
      "maj_gouv": {
        "Gazole": "2026-06-06 00:01:00",
        "E10": "2026-06-06 00:01:00",
        "SP98": "2026-06-06 00:01:00"
      }
    },
    {
      "id": "34430001",
      "lat": 43.578,
      "lon": 3.835,
      "cp": "34430",
      "ville": "SAINT-JEAN-DE-VéDAS",
      "prix": {
        "Gazole": 0.0020369999999999997,
        "E85": 0.000889,
        "E10": 0.001987,
        "SP98": 0.00199
      },
      "maj_gouv": {
        "Gazole": "2026-06-06 05:33:39",
        "E85": "2026-06-06 05:33:39",
        "E10": "2026-06-06 05:33:39",
        "SP98": "2026-06-06 05:33:39"
      }
    },
    {
      "id": "34110004",
      "lat": 43.471,
      "lon": 3.768,
      "cp": "34110",
      "ville": "Frontignan",
      "prix": {
        "Gazole": 0.00209,
        "SP95": 0.0021000000000000003,
        "E85": 0.00093,
        "E10": 0.00206
      },
      "maj_gouv": {
        "Gazole": "2026-06-03 19:11:13",
        "SP95": "2026-06-03 19:11:14",
        "E85": "2026-06-03 19:11:14",
        "E10": "2026-06-03 19:11:14"
      }
    },
    {
      "id": "34600001",
      "lat": 43.60598,
      "lon": 3.14947,
      "cp": "34600",
      "ville": "Bédarieux",
      "prix": {
        "Gazole": 0.001983,
        "E85": 0.0007970000000000001,
        "GPLc": 0.00125,
        "E10": 0.001938,
        "SP98": 0.0020499999999999997
      },
      "maj_gouv": {
        "Gazole": "2026-06-02 08:10:02",
        "E85": "2026-05-28 14:39:43",
        "GPLc": "2026-05-25 08:00:32",
        "E10": "2026-06-02 08:10:02",
        "SP98": "2026-06-02 08:10:02"
      }
    },
    {
      "id": "34000011",
      "lat": 43.644,
      "lon": 3.844,
      "cp": "34090",
      "ville": "MONTPELLIER",
      "prix": {
        "Gazole": 0.001963,
        "E10": 0.001915,
        "SP98": 0.002179
      },
      "maj_gouv": {
        "Gazole": "2026-06-04 16:18:03",
        "E10": "2026-06-04 16:18:03",
        "SP98": "2026-05-28 06:46:36"
      }
    },
    {
      "id": "34130003",
      "lat": 43.612,
      "lon": 4.006,
      "cp": "34130",
      "ville": "Mauguio",
      "prix": {
        "Gazole": 0.001982,
        "SP95": 0.001998,
        "E10": 0.001982,
        "SP98": 0.002043
      },
      "maj_gouv": {
        "Gazole": "2026-06-03 08:00:00",
        "SP95": "2026-06-03 08:00:00",
        "E10": "2026-06-03 08:00:00",
        "SP98": "2026-06-03 08:00:00"
      }
    },
    {
      "id": "34260001",
      "lat": 43.657,
      "lon": 3.15,
      "cp": "34260",
      "ville": "La Tour-sur-Orb",
      "prix": {
        "E10": 0.001999,
        "SP98": 0.002129
      },
      "maj_gouv": {
        "E10": "2026-05-28 11:23:03",
        "SP98": "2026-05-28 11:23:03"
      }
    },
    {
      "id": "34450001",
      "lat": 43.314,
      "lon": 3.417,
      "cp": "34450",
      "ville": "VIAS",
      "prix": {
        "Gazole": 0.002093,
        "E85": 0.0008539999999999999,
        "E10": 0.00199,
        "SP98": 0.00199
      },
      "maj_gouv": {
        "Gazole": "2026-06-03 07:02:31",
        "E85": "2026-06-02 06:58:54",
        "E10": "2026-05-19 10:31:08",
        "SP98": "2026-05-19 10:31:08"
      }
    },
    {
      "id": "34530001",
      "lat": 43.48,
      "lon": 3.485,
      "cp": "34530",
      "ville": "MONTAGNAC",
      "prix": {
        "Gazole": 0.002099,
        "E10": 0.002077,
        "SP98": 0.002176
      },
      "maj_gouv": {
        "Gazole": "2026-06-02 12:37:37",
        "E10": "2026-06-02 12:37:37",
        "SP98": "2026-06-02 12:37:37"
      }
    },
    {
      "id": "34130005",
      "lat": 43.627,
      "lon": 4.01,
      "cp": "34130",
      "ville": "Mauguio",
      "prix": {
        "Gazole": 0.001982,
        "SP95": 0.001998,
        "E85": 0.000798
      },
      "maj_gouv": {
        "Gazole": "2026-06-03 08:00:00",
        "SP95": "2026-06-03 08:00:00",
        "E85": "2026-06-05 16:59:58"
      }
    },
    {
      "id": "34540001",
      "lat": 43.461,
      "lon": 3.691,
      "cp": "34540",
      "ville": "BALARUC-LE-VIEUX",
      "prix": {
        "Gazole": 0.002058,
        "SP95": 0.00197,
        "E10": 0.001926,
        "SP98": 0.002053
      },
      "maj_gouv": {
        "Gazole": "2026-06-06 00:42:00",
        "SP95": "2026-06-06 00:42:00",
        "E10": "2026-06-06 00:42:00",
        "SP98": "2026-06-06 00:42:00"
      }
    },
    {
      "id": "34800001",
      "lat": 43.623,
      "lon": 3.438,
      "cp": "34800",
      "ville": "Clermont-l'Hérault",
      "prix": {
        "Gazole": 0.001958,
        "E85": 0.0008100000000000001,
        "GPLc": 0.001297,
        "E10": 0.001929,
        "SP98": 0.002099
      },
      "maj_gouv": {
        "Gazole": "2026-06-05 08:33:16",
        "E85": "2026-06-05 08:33:16",
        "GPLc": "2026-06-05 08:33:16",
        "E10": "2026-06-05 08:33:16",
        "SP98": "2026-06-05 08:33:16"
      }
    },
    {
      "id": "34660001",
      "lat": 43.55,
      "lon": 3.715,
      "cp": "34660",
      "ville": "COURNONSEC",
      "prix": {
        "Gazole": 0.001992,
        "E85": 0.000798,
        "E10": 0.0019790000000000003,
        "SP98": 0.002129
      },
      "maj_gouv": {
        "Gazole": "2026-06-05 06:43:12",
        "E85": "2026-06-05 06:43:12",
        "E10": "2026-06-05 06:43:12",
        "SP98": "2026-06-05 06:43:12"
      }
    },
    {
      "id": "34140004",
      "lat": 43.42552,
      "lon": 3.60195,
      "cp": "34140",
      "ville": "Mèze",
      "prix": {
        "Gazole": 0.0020499999999999997,
        "E85": 0.000819,
        "E10": 0.002089,
        "SP98": 0.002199
      },
      "maj_gouv": {
        "Gazole": "2026-06-02 08:45:17",
        "E85": "2026-04-19 08:22:02",
        "E10": "2026-05-22 10:54:40",
        "SP98": "2026-05-26 11:50:02"
      }
    },
    {
      "id": "34980002",
      "lat": 43.6795,
      "lon": 3.82064,
      "cp": "34980",
      "ville": "SAINT-GéLY-DU-FESC",
      "prix": {
        "Gazole": 0.001986,
        "E85": 0.000798,
        "GPLc": 0.001085,
        "E10": 0.0019690000000000003,
        "SP98": 0.0021190000000000002
      },
      "maj_gouv": {
        "Gazole": "2026-06-05 07:30:00",
        "E85": "2026-05-15 07:30:00",
        "GPLc": "2026-04-14 10:29:15",
        "E10": "2026-06-02 08:22:39",
        "SP98": "2026-06-05 08:56:52"
      }
    },
    {
      "id": "34290003",
      "lat": 43.357,
      "lon": 3.34,
      "cp": "34290",
      "ville": "SERVIAN",
      "prix": {
        "Gazole": 0.0023889999999999996,
        "E10": 0.002357,
        "SP98": 0.002507
      },
      "maj_gouv": {
        "Gazole": "2026-06-05 09:30:00",
        "E10": "2026-06-05 09:30:00",
        "SP98": "2026-06-05 09:30:00"
      }
    },
    {
      "id": "34140001",
      "lat": 43.43,
      "lon": 3.609,
      "cp": "34140",
      "ville": "MèZE",
      "prix": {
        "Gazole": 0.0019950000000000002,
        "SP95": 0.0019950000000000002,
        "E85": 0.000855,
        "SP98": 0.002055
      },
      "maj_gouv": {
        "Gazole": "2026-06-02 08:49:07",
        "SP95": "2026-06-02 08:49:07",
        "E85": "2026-05-19 08:46:59",
        "SP98": "2026-06-02 08:49:07"
      }
    },
    {
      "id": "34500008",
      "lat": 43.347333295735,
      "lon": 3.2449124091117003,
      "cp": "34500",
      "ville": "Béziers",
      "prix": {
        "Gazole": 0.001954,
        "E85": 0.000768,
        "GPLc": 0.00111,
        "E10": 0.001909,
        "SP98": 0.002108
      },
      "maj_gouv": {
        "Gazole": "2026-06-05 09:21:29",
        "E85": "2026-04-07 11:16:55",
        "GPLc": "2026-04-28 09:47:31",
        "E10": "2026-06-05 09:21:29",
        "SP98": "2026-05-27 09:08:11"
      }
    },
    {
      "id": "34600003",
      "lat": 43.595,
      "lon": 3.128,
      "cp": "34600",
      "ville": "VILLEMAGNE-L'ARGENTIèRE",
      "prix": {
        "Gazole": 0.001984,
        "SP95": 0.0019890000000000003,
        "E85": 0.000798,
        "E10": 0.001939,
        "SP98": 0.0020510000000000003
      },
      "maj_gouv": {
        "Gazole": "2026-06-02 07:30:00",
        "SP95": "2026-06-02 07:30:00",
        "E85": "2026-05-19 07:30:00",
        "E10": "2026-06-02 07:30:00",
        "SP98": "2026-06-02 07:30:00"
      }
    },
    {
      "id": "34170004",
      "lat": 43.631,
      "lon": 3.906,
      "cp": "34170",
      "ville": "Castelnau-le-lez",
      "prix": {
        "Gazole": 0.002099,
        "E85": 0.000798,
        "E10": 0.001999,
        "SP98": 0.002199
      },
      "maj_gouv": {
        "Gazole": "2026-06-02 14:08:33",
        "E85": "2026-06-02 14:08:33",
        "E10": "2026-06-02 14:08:34",
        "SP98": "2026-06-02 14:08:34"
      }
    },
    {
      "id": "34700005",
      "lat": 43.688,
      "lon": 3.356,
      "cp": "34700",
      "ville": "Le Bosc",
      "prix": {
        "Gazole": 0.001958,
        "SP95": 0.002039,
        "E85": 0.000714,
        "E10": 0.001939,
        "SP98": 0.002019
      },
      "maj_gouv": {
        "Gazole": "2026-06-06 01:17:00",
        "SP95": "2026-06-06 01:17:00",
        "E85": "2026-03-09 09:59:00",
        "E10": "2026-06-06 01:17:00",
        "SP98": "2026-06-06 01:17:00"
      }
    },
    {
      "id": "34980001",
      "lat": 43.6443,
      "lon": 3.84361,
      "cp": "34980",
      "ville": "SAINT-CLéMENT-DE-RIVIèRE",
      "prix": {
        "Gazole": 0.001996,
        "SP95": 0.001971,
        "E85": 0.000758,
        "E10": 0.0018939999999999999,
        "SP98": 0.002018
      },
      "maj_gouv": {
        "Gazole": "2026-06-05 22:49:00",
        "SP95": "2026-06-05 22:49:00",
        "E85": "2026-06-05 22:49:00",
        "E10": "2026-06-05 22:49:00",
        "SP98": "2026-06-05 22:49:00"
      }
    },
    {
      "id": "34360001",
      "lat": 43.421,
      "lon": 2.95,
      "cp": "34360",
      "ville": "SAINT-CHINIAN",
      "prix": {
        "Gazole": 0.002112,
        "E10": 0.00199,
        "SP98": 0.00199
      },
      "maj_gouv": {
        "Gazole": "2026-06-05 08:17:39",
        "E10": "2026-06-05 08:17:40",
        "SP98": "2026-06-05 08:17:40"
      }
    },
    {
      "id": "34340002",
      "lat": 43.358,
      "lon": 3.513,
      "cp": "34340",
      "ville": "Marseillan",
      "prix": {
        "Gazole": 0.001968,
        "SP95": 0.001975,
        "SP98": 0.001998
      },
      "maj_gouv": {
        "Gazole": "2026-05-30 13:04:11",
        "SP95": "2026-05-30 13:04:11",
        "SP98": "2026-05-30 13:04:12"
      }
    },
    {
      "id": "34300006",
      "lat": 43.31,
      "lon": 3.485,
      "cp": "34300",
      "ville": "AGDE",
      "prix": {
        "Gazole": 0.001993,
        "E85": 0.000798,
        "GPLc": 0.0010689999999999999,
        "E10": 0.001925,
        "SP98": 0.002055
      },
      "maj_gouv": {
        "Gazole": "2026-06-05 08:13:18",
        "E85": "2026-06-05 08:13:19",
        "GPLc": "2026-06-05 08:13:19",
        "E10": "2026-06-05 08:13:19",
        "SP98": "2026-06-05 08:13:19"
      }
    },
    {
      "id": "34370002",
      "lat": 43.359648853961,
      "lon": 3.1694527990723,
      "cp": "34370",
      "ville": "MARAUSSAN",
      "prix": {
        "Gazole": 0.0019950000000000002,
        "E85": 0.0008349999999999999,
        "E10": 0.0019790000000000003,
        "SP98": 0.0023290000000000003
      },
      "maj_gouv": {
        "Gazole": "2026-06-01 10:28:57",
        "E85": "2026-06-05 12:38:29",
        "E10": "2026-06-05 12:38:29",
        "SP98": "2026-05-27 09:54:23"
      }
    },
    {
      "id": "34560002",
      "lat": 43.48327389999999,
      "lon": 3.6713791,
      "cp": "34560",
      "ville": "POUSSAN",
      "prix": {
        "Gazole": 0.002069
      },
      "maj_gouv": {
        "Gazole": "2026-06-05 11:42:27"
      }
    },
    {
      "id": "34160003",
      "lat": 43.675,
      "lon": 3.983,
      "cp": "34160",
      "ville": "Castries",
      "prix": {
        "Gazole": 0.002134,
        "SP95": 0.0021000000000000003
      },
      "maj_gouv": {
        "Gazole": "2026-06-04 19:50:52",
        "SP95": "2026-06-04 19:50:52"
      }
    },
    {
      "id": "34690011",
      "lat": 43.561,
      "lon": 3.797,
      "cp": "34690",
      "ville": "FABREGUES",
      "prix": {
        "Gazole": 0.002047,
        "E85": 0.000966,
        "E10": 0.001988,
        "SP98": 0.002088
      },
      "maj_gouv": {
        "Gazole": "2026-06-05 16:01:00",
        "E85": "2026-06-05 16:01:00",
        "E10": "2026-06-05 16:01:00",
        "SP98": "2026-06-05 16:01:00"
      }
    },
    {
      "id": "34350003",
      "lat": 43.295950136900004,
      "lon": 3.21755178874,
      "cp": "34350",
      "ville": "Vendres",
      "prix": {
        "Gazole": 0.001999,
        "SP95": 0.002079,
        "GPLc": 0.001095,
        "E10": 0.00197
      },
      "maj_gouv": {
        "Gazole": "2026-06-04 11:31:28",
        "SP95": "2026-05-28 12:15:34",
        "GPLc": "2026-04-16 10:02:40",
        "E10": "2026-06-04 11:31:29"
      }
    },
    {
      "id": "34350005",
      "lat": 43.269388,
      "lon": 3.2379809999999996,
      "cp": "34350",
      "ville": "VENDRES",
      "prix": {
        "Gazole": 0.0019690000000000003,
        "E85": 0.0008179999999999999,
        "E10": 0.0019450000000000001,
        "SP98": 0.002075
      },
      "maj_gouv": {
        "Gazole": "2026-06-05 09:26:51",
        "E85": "2026-06-03 12:11:41",
        "E10": "2026-06-05 12:29:13",
        "SP98": "2026-06-05 12:29:14"
      }
    },
    {
      "id": "34310002",
      "lat": 43.326,
      "lon": 3.051,
      "cp": "34310",
      "ville": "CAPESTANG",
      "prix": {
        "Gazole": 0.0019950000000000002,
        "E85": 0.000798,
        "E10": 0.001918,
        "SP98": 0.00206
      },
      "maj_gouv": {
        "Gazole": "2026-06-05 09:01:43",
        "E85": "2026-06-05 09:01:43",
        "E10": "2026-06-05 09:01:43",
        "SP98": "2026-06-05 09:01:43"
      }
    },
    {
      "id": "34200012",
      "lat": 43.408,
      "lon": 3.67,
      "cp": "34200",
      "ville": "SETE",
      "prix": {
        "Gazole": 0.002059,
        "E85": 0.0008990000000000001,
        "E10": 0.0020150000000000003,
        "SP98": 0.002075
      },
      "maj_gouv": {
        "Gazole": "2026-06-02 09:35:28",
        "E85": "2026-06-03 09:27:19",
        "E10": "2026-06-02 09:35:28",
        "SP98": "2026-06-02 09:35:28"
      }
    },
    {
      "id": "34190001",
      "lat": 43.93026,
      "lon": 3.70595,
      "cp": "34190",
      "ville": "GANGES",
      "prix": {
        "Gazole": 0.0019619999999999998,
        "E85": 0.000759,
        "E10": 0.0019479999999999999,
        "SP98": 0.002043
      },
      "maj_gouv": {
        "Gazole": "2026-06-05 07:26:25",
        "E85": "2026-04-18 08:07:41",
        "E10": "2026-06-05 07:26:25",
        "SP98": "2026-06-05 07:26:25"
      }
    },
    {
      "id": "34000009",
      "lat": 43.606,
      "lon": 3.887,
      "cp": "34000",
      "ville": "Montpellier",
      "prix": {
        "Gazole": 0.001984,
        "E10": 0.001984,
        "SP98": 0.002072
      },
      "maj_gouv": {
        "Gazole": "2026-06-05 07:40:00",
        "E10": "2026-06-05 07:40:00",
        "SP98": "2026-06-05 07:40:00"
      }
    },
    {
      "id": "34130002",
      "lat": 43.639,
      "lon": 3.964,
      "cp": "34130",
      "ville": "SAINT-AUNES",
      "prix": {
        "Gazole": 0.001967,
        "E85": 0.000785,
        "E10": 0.00189,
        "SP98": 0.0019890000000000003
      },
      "maj_gouv": {
        "Gazole": "2026-06-06 01:18:00",
        "E85": "2026-06-06 01:18:00",
        "E10": "2026-06-06 01:18:00",
        "SP98": "2026-06-06 01:18:00"
      }
    },
    {
      "id": "34600002",
      "lat": 43.562,
      "lon": 3.181,
      "cp": "34600",
      "ville": "FAUGERES",
      "prix": {
        "Gazole": 0.001998,
        "SP95": 0.002099
      },
      "maj_gouv": {
        "Gazole": "2026-06-03 08:24:14",
        "SP95": "2026-06-03 08:24:15"
      }
    },
    {
      "id": "34790003",
      "lat": 43.648,
      "lon": 3.831,
      "cp": "34790",
      "ville": "GRABELS",
      "prix": {},
      "maj_gouv": {}
    },
    {
      "id": "34430003",
      "lat": 43.571,
      "lon": 3.847,
      "cp": "34430",
      "ville": "SAINT JEAN DE VEDAS",
      "prix": {
        "Gazole": 0.001991,
        "E10": 0.001917,
        "SP98": 0.002054
      },
      "maj_gouv": {
        "Gazole": "2026-06-05 11:24:29",
        "E10": "2026-06-05 09:02:23",
        "SP98": "2026-06-05 09:02:23"
      }
    },
    {
      "id": "34280004",
      "lat": 43.56218,
      "lon": 4.08704,
      "cp": "34280",
      "ville": "LA GRANDE MOTTE",
      "prix": {
        "Gazole": 0.001961,
        "E10": 0.001883,
        "SP98": 0.00199
      },
      "maj_gouv": {
        "Gazole": "2026-06-06 00:01:00",
        "E10": "2026-06-06 00:01:00",
        "SP98": "2026-06-06 00:01:00"
      }
    },
    {
      "id": "34300001",
      "lat": 43.299,
      "lon": 3.473,
      "cp": "34300",
      "ville": "AGDE",
      "prix": {
        "Gazole": 0.0019479999999999999,
        "SP95": 0.001956,
        "E85": 0.000795,
        "E10": 0.001925,
        "SP98": 0.001984
      },
      "maj_gouv": {
        "Gazole": "2026-06-04 08:20:48",
        "SP95": "2026-06-04 08:20:48",
        "E85": "2026-05-28 08:50:55",
        "E10": "2026-06-04 08:20:48",
        "SP98": "2026-06-04 08:20:48"
      }
    },
    {
      "id": "34440005",
      "lat": 43.292078109539005,
      "lon": 3.1193382006736,
      "cp": "34440",
      "ville": "NISSAN LEZ ENSERUNE",
      "prix": {
        "Gazole": 0.0020440000000000002,
        "E85": 0.0007880000000000001,
        "E10": 0.002053,
        "SP98": 0.002177
      },
      "maj_gouv": {
        "Gazole": "2026-06-03 06:40:22",
        "E85": "2026-06-03 06:40:22",
        "E10": "2026-06-01 11:30:26",
        "SP98": "2026-06-01 08:52:18"
      }
    },
    {
      "id": "34170006",
      "lat": 43.638321,
      "lon": 3.926832,
      "cp": "34170",
      "ville": "CASTELNAU LE LEZ",
      "prix": {
        "Gazole": 0.001998,
        "E10": 0.002028,
        "SP98": 0.002124
      },
      "maj_gouv": {
        "Gazole": "2026-06-01 10:18:09",
        "E10": "2026-06-01 10:18:10",
        "SP98": "2026-06-01 10:18:10"
      }
    },
    {
      "id": "34220001",
      "lat": 43.487,
      "lon": 2.771,
      "cp": "34220",
      "ville": "SAINT-PONS-DE-THOMIèRES",
      "prix": {
        "Gazole": 0.002079,
        "SP95": 0.002094,
        "SP98": 0.0022
      },
      "maj_gouv": {
        "Gazole": "2026-06-02 08:30:00",
        "SP95": "2026-05-19 08:30:00",
        "SP98": "2026-05-19 08:30:00"
      }
    },
    {
      "id": "34400017",
      "lat": 43.71248,
      "lon": 4.13135,
      "cp": "34400",
      "ville": "VILLETELLE",
      "prix": {
        "Gazole": 0.0021880000000000003,
        "E85": 0.000998,
        "GPLc": 0.001088,
        "E10": 0.00199,
        "SP98": 0.00199
      },
      "maj_gouv": {
        "Gazole": "2026-06-06 00:01:00",
        "E85": "2026-06-06 00:01:00",
        "GPLc": "2026-06-06 00:01:00",
        "E10": "2026-06-06 00:01:00",
        "SP98": "2026-06-06 00:01:00"
      }
    },
    {
      "id": "34690004",
      "lat": 43.549,
      "lon": 3.782,
      "cp": "34690",
      "ville": "FABREGUES",
      "prix": {
        "Gazole": 0.002038,
        "E85": 0.000798,
        "GPLc": 0.001099,
        "E10": 0.0019790000000000003,
        "SP98": 0.002079
      },
      "maj_gouv": {
        "Gazole": "2026-06-05 08:07:45",
        "E85": "2026-06-05 08:07:45",
        "GPLc": "2026-06-05 08:07:45",
        "E10": "2026-06-05 08:07:45",
        "SP98": "2026-06-05 08:07:45"
      }
    },
    {
      "id": "34600004",
      "lat": 43.611861511738,
      "lon": 3.1708982933764998,
      "cp": "34600",
      "ville": "BEDARIEUX",
      "prix": {
        "Gazole": 0.0020139999999999997,
        "E85": 0.000798,
        "E10": 0.0019450000000000001,
        "SP98": 0.002058
      },
      "maj_gouv": {
        "Gazole": "2026-05-29 09:31:46",
        "E85": "2026-05-19 14:37:50",
        "E10": "2026-05-29 09:31:46",
        "SP98": "2026-05-29 09:31:46"
      }
    },
    {
      "id": "34120001",
      "lat": 43.454,
      "lon": 3.421,
      "cp": "34120",
      "ville": "Pézenas",
      "prix": {
        "Gazole": 0.002077,
        "SP95": 0.00199
      },
      "maj_gouv": {
        "Gazole": "2026-06-05 06:50:46",
        "SP95": "2026-06-05 06:50:46"
      }
    },
    {
      "id": "34700001",
      "lat": 43.724,
      "lon": 3.324,
      "cp": "34700",
      "ville": "LODèVE",
      "prix": {
        "Gazole": 0.0019590000000000002,
        "E85": 0.000769,
        "E10": 0.001939
      },
      "maj_gouv": {
        "Gazole": "2026-06-05 09:24:58",
        "E85": "2026-06-05 09:24:58",
        "E10": "2026-06-05 09:24:58"
      }
    },
    {
      "id": "34440004",
      "lat": 43.308839424172,
      "lon": 3.1681367941724004,
      "cp": "34440",
      "ville": "COLOMBIERS",
      "prix": {
        "Gazole": 0.001987,
        "E10": 0.001971,
        "SP98": 0.0020800000000000003
      },
      "maj_gouv": {
        "Gazole": "2026-06-05 11:16:12",
        "E10": "2026-06-05 11:16:12",
        "SP98": "2026-06-05 11:16:12"
      }
    },
    {
      "id": "34290001",
      "lat": 43.422,
      "lon": 3.313,
      "cp": "34290",
      "ville": "SERVIAN",
      "prix": {
        "Gazole": 0.001975,
        "SP95": 0.00202,
        "E85": 0.000839,
        "E10": 0.001929
      },
      "maj_gouv": {
        "Gazole": "2026-06-02 12:16:17",
        "SP95": "2026-06-02 12:16:18",
        "E85": "2026-06-04 07:25:03",
        "E10": "2026-06-05 08:55:57"
      }
    },
    {
      "id": "34800004",
      "lat": 43.618,
      "lon": 3.452,
      "cp": "34800",
      "ville": "Clermont-l'Hérault",
      "prix": {
        "Gazole": 0.001993,
        "GPLc": 0.001049,
        "E10": 0.0019190000000000001,
        "SP98": 0.002079
      },
      "maj_gouv": {
        "Gazole": "2026-06-04 19:08:00",
        "GPLc": "2026-02-21 19:11:00",
        "E10": "2026-06-04 08:30:00",
        "SP98": "2026-06-04 08:30:00"
      }
    },
    {
      "id": "34000013",
      "lat": 43.608,
      "lon": 3.916,
      "cp": "34000",
      "ville": "MONTPELLIER",
      "prix": {
        "Gazole": 0.001981,
        "E85": 0.0008489999999999999,
        "E10": 0.001911,
        "SP98": 0.00199
      },
      "maj_gouv": {
        "Gazole": "2026-06-06 00:01:00",
        "E85": "2026-06-06 00:01:00",
        "E10": "2026-06-06 00:01:00",
        "SP98": "2026-06-06 00:01:00"
      }
    },
    {
      "id": "34790004",
      "lat": 43.645885,
      "lon": 3.8109659999999996,
      "cp": "34790",
      "ville": "Grabels",
      "prix": {
        "Gazole": 0.001999,
        "E85": 0.000759,
        "E10": 0.0019690000000000003,
        "SP98": 0.002089
      },
      "maj_gouv": {
        "Gazole": "2026-06-02 11:38:54",
        "E85": "2026-05-21 09:30:34",
        "E10": "2026-06-02 11:38:54",
        "SP98": "2026-06-02 11:38:54"
      }
    },
    {
      "id": "34150001",
      "lat": 43.687,
      "lon": 3.585,
      "cp": "34150",
      "ville": "ANIANE",
      "prix": {
        "Gazole": 0.002049,
        "E10": 0.002019
      },
      "maj_gouv": {
        "Gazole": "2026-06-05 11:23:06",
        "E10": "2026-06-05 11:23:06"
      }
    },
    {
      "id": "34000018",
      "lat": 43.586188,
      "lon": 3.889156,
      "cp": "34000",
      "ville": "Montpellier",
      "prix": {
        "Gazole": 0.001991,
        "GPLc": 0.001095,
        "E10": 0.0019270000000000001,
        "SP98": 0.002084
      },
      "maj_gouv": {
        "Gazole": "2026-06-05 07:19:49",
        "GPLc": "2026-06-05 07:19:49",
        "E10": "2026-06-05 07:19:49",
        "SP98": "2026-06-05 07:19:49"
      }
    },
    {
      "id": "34510003",
      "lat": 43.385493,
      "lon": 3.4772320000000003,
      "cp": "34510",
      "ville": "FLORENSAC",
      "prix": {
        "Gazole": 0.002055,
        "E10": 0.001999,
        "SP98": 0.002099
      },
      "maj_gouv": {
        "Gazole": "2026-05-31 06:06:04",
        "E10": "2026-05-31 06:06:04",
        "SP98": "2026-05-31 06:06:04"
      }
    },
    {
      "id": "34160004",
      "lat": 43.756975065519,
      "lon": 4.0843305840957,
      "cp": "34160",
      "ville": "BOISSERON",
      "prix": {
        "Gazole": 0.001999,
        "SP95": 0.00211,
        "SP98": 0.00214
      },
      "maj_gouv": {
        "Gazole": "2026-06-01 15:20:00",
        "SP95": "2026-06-01 11:30:44",
        "SP98": "2026-06-01 11:32:11"
      }
    },
    {
      "id": "34420005",
      "lat": 43.298277999999996,
      "lon": 3.3450209999999996,
      "cp": "34420",
      "ville": "Portiragnes",
      "prix": {
        "Gazole": 0.001999,
        "E85": 0.000815,
        "E10": 0.001949,
        "SP98": 0.002059
      },
      "maj_gouv": {
        "Gazole": "2026-06-05 14:59:29",
        "E85": "2026-04-24 08:46:15",
        "E10": "2026-06-05 14:59:30",
        "SP98": "2026-06-05 14:59:30"
      }
    },
    {
      "id": "34920002",
      "lat": 43.639,
      "lon": 3.932,
      "cp": "34920",
      "ville": "Le Crès",
      "prix": {
        "Gazole": 0.001968,
        "E10": 0.001895,
        "SP98": 0.001999
      },
      "maj_gouv": {
        "Gazole": "2026-06-05 12:10:17",
        "E10": "2026-06-05 12:10:17",
        "SP98": "2026-06-05 12:10:18"
      }
    },
    {
      "id": "34402001",
      "lat": 43.681,
      "lon": 4.148,
      "cp": "34400",
      "ville": "LUNEL",
      "prix": {
        "Gazole": 0.001958,
        "E85": 0.000758,
        "E10": 0.0018939999999999999,
        "SP98": 0.001988
      },
      "maj_gouv": {
        "Gazole": "2026-06-05 08:45:15",
        "E85": "2026-06-01 09:38:27",
        "E10": "2026-06-05 08:45:15",
        "SP98": "2026-06-05 08:45:15"
      }
    },
    {
      "id": "34730001",
      "lat": 43.69,
      "lon": 3.863,
      "cp": "34730",
      "ville": "PRADES-LE-LEZ",
      "prix": {
        "Gazole": 0.0019590000000000002,
        "E85": 0.000799,
        "E10": 0.001975,
        "SP98": 0.0021190000000000002
      },
      "maj_gouv": {
        "Gazole": "2026-06-04 06:42:53",
        "E85": "2026-05-28 09:35:48",
        "E10": "2026-06-05 12:18:11",
        "SP98": "2026-06-04 10:19:18"
      }
    },
    {
      "id": "34400013",
      "lat": 43.683,
      "lon": 4.152,
      "cp": "34400",
      "ville": "Lunel",
      "prix": {
        "Gazole": 0.00198,
        "E85": 0.000798,
        "GPLc": 0.001159,
        "E10": 0.0019019999999999998,
        "SP98": 0.002039
      },
      "maj_gouv": {
        "Gazole": "2026-06-05 07:27:19",
        "E85": "2026-05-15 06:33:27",
        "GPLc": "2026-04-17 08:09:45",
        "E10": "2026-06-05 07:27:19",
        "SP98": "2026-06-05 07:27:19"
      }
    },
    {
      "id": "34240001",
      "lat": 43.588046,
      "lon": 3.082975,
      "cp": "34240",
      "ville": "lamalou les bains",
      "prix": {
        "Gazole": 0.00225
      },
      "maj_gouv": {
        "Gazole": "2026-04-08 08:47:54"
      }
    }
  ]
}